id,name,domain,category_vi,latitude,longitude,address,district,province,description,search_text
HN_00001,Cửa Hàng Bò Nầm Nướng,Ẩm thực,khu ẩm thực,21.0390983,105.8480778,"Shop Đồng Khởi, 34 Phố Hàng Giấy, Hà Nội Old Quarter, Đồng Xuân, Hoàn Kiếm, Hà Nội, 11009",Hà Nội,Hà Nội,"Cửa Hàng Bò Nầm Nướng là khu ẩm thực tại Hà Nội, Hà Nội.",Cửa Hàng Bò Nầm Nướng Ẩm thực khu ẩm thực Hà Nội Hà Nội
HN_00002,Cửa Hàng Bánh Tôm Hồ Tây,Ẩm thực,nhà hàng,21.0473212,105.8376261,"ATM - Ngân Hàng Đông Á - DongA Bank, Đường Thanh Niên, Trúc Bạch, Ba Đình, Hà Nội, 11117",Hà Nội,Hà Nội,"Cửa Hàng Bánh Tôm Hồ Tây là nhà hàng tại Hà Nội, Hà Nội.",Cửa Hàng Bánh Tôm Hồ Tây Ẩm thực nhà hàng Hà Nội Hà Nội
HN_00003,Khách Sạn Đức Thái,Du lịch,khách sạn,21.0340035,105.8471444,"95A Phố Hàng Gà, Hà Nội Old Quarter, Hàng Bồ, Hoàn Kiếm, Hà Nội, 11014",Hà Nội,Hà Nội,"Khách Sạn Đức Thái là khách sạn tại Hà Nội, Hà Nội.",Khách Sạn Đức Thái Du lịch khách sạn Hà Nội Hà Nội
HN_00004,Cà Phê Cây Bàng Đổ,Ẩm thực,quán cà phê,21.0273274,105.8220368,"Coffee-Fast Food Cây Liễu, 115D1 Phố Trần Huy Liệu, Giảng Võ, Ba Đình, Hà Nội, 11110",Hà Nội,Hà Nội,"Cà Phê Cây Bàng Đổ là quán cà phê tại Hà Nội, Hà Nội.",Cà Phê Cây Bàng Đổ Ẩm thực quán cà phê Hà Nội Hà Nội
HN_00005,Cà Phê Kafa,Ẩm thực,quán cà phê,21.0378611,105.8010007,"An Bình Auto, 118 Đường Nguyễn Khánh Toàn, Cầu Giấy, Hà Nội",Hà Nội,Hà Nội,"Cà Phê Kafa là quán cà phê tại Hà Nội, Hà Nội.",Cà Phê Kafa Ẩm thực quán cà phê Hà Nội Hà Nội
HN_00006,Nhà Hàng Chay Phương Nam,Ẩm thực,nhà hàng,21.0222319,105.84695,"Atm Shb, 81 Phố Trần Hưng Đạo, Trần Hưng Đạo, Hoàn Kiếm, Hà Nội, 11019",Hà Nội,Hà Nội,"Nhà Hàng Chay Phương Nam là nhà hàng tại Hà Nội, Hà Nội.",Nhà Hàng Chay Phương Nam Ẩm thực nhà hàng Hà Nội Hà Nội
HN_00007,Nhà hàng Nam Phương,Ẩm thực,nhà hàng,21.0217552,105.8563856,"Cafe Winner, Phố Lý Thường Kiệt, Phan Chu Trinh, Hoàn Kiếm, Hà Nội, 11021",Hà Nội,Hà Nội,"Nhà hàng Nam Phương là nhà hàng tại Hà Nội, Hà Nội.",Nhà hàng Nam Phương Ẩm thực nhà hàng Hà Nội Hà Nội
HN_00008,Nha Hang Little Italian,Ẩm thực,nhà hàng,21.0169539,105.852831,"Mua Bán Sách Báo Thanh Hà, 56B Phố Ngô Thì Nhậm, Ngô Thì Nhậm, Hai Bà Trưng, Hà Nội, 11612",Hà Nội,Hà Nội,"Nha Hang Little Italian là nhà hàng tại Hà Nội, Hà Nội.",Nha Hang Little Italian Ẩm thực nhà hàng Hà Nội Hà Nội
HN_00009,Nha Hang Indochine,Ẩm thực,nhà hàng,21.0265868,105.8430053,"Shop Máy Loa Mic Trợ Giảng Trợ Thính Audio 1986, Phố Nam Ngư, Cửa Nam, Hoàn Kiếm, Hà Nội, 11018",Hà Nội,Hà Nội,"Nha Hang Indochine là nhà hàng tại Hà Nội, Hà Nội.",Nha Hang Indochine Ẩm thực nhà hàng Hà Nội Hà Nội
HN_00010,Khách Sạn Prince,Du lịch,khách sạn,21.0273109,105.8435309,"Cocolico Boutique, 92D Phố Hai Bà Trưng, Cửa Nam, Hoàn Kiếm, Hà Nội, 11018",Hà Nội,Hà Nội,"Khách Sạn Prince là khách sạn tại Hà Nội, Hà Nội.",Khách Sạn Prince Du lịch khách sạn Hà Nội Hà Nội
HN_00011,Somerset Grand Hanoi,Du lịch,khách sạn,21.0258326,105.8463672,"49 Phố Hai Bà Trưng, Hàng Bông, Hoàn Kiếm, Hà Nội, 11019",Hà Nội,Hà Nội,"Somerset Grand Hanoi là khách sạn tại Hà Nội, Hà Nội.",Somerset Grand Hanoi Du lịch khách sạn Hà Nội Hà Nội
HN_00012,Cà Phê Big One,Ẩm thực,quán cà phê,21.0098613,105.8476486,"Ngõ 8 Hoa Lư, Hai Bà Trưng, Hà Nội, 11606",Hà Nội,Hà Nội,"Cà Phê Big One là quán cà phê tại Hà Nội, Hà Nội.",Cà Phê Big One Ẩm thực quán cà phê Hà Nội Hà Nội
HN_00013,KFC,Ẩm thực,quán thức ăn nhanh,21.0109485,105.8114367,"Bún Bò Huế Ngự Bình, Láng Hạ, Đống Đa, Hà Nội",Hà Nội,Hà Nội,"KFC là quán thức ăn nhanh tại Hà Nội, Hà Nội.",KFC Ẩm thực quán thức ăn nhanh Hà Nội Hà Nội
HN_00014,Highlands Coffee,Ẩm thực,quán cà phê,21.0113724,105.8495887,"Tòa Nhà Vincom City Tower, Phố Bà Triệu, Hai Bà Trưng, Hà Nội",Hà Nội,Hà Nội,"Highlands Coffee là quán cà phê tại Hà Nội, Hà Nội.",Highlands Coffee Ẩm thực quán cà phê Hà Nội Hà Nội
HN_00015,Sushi Tiger,Ẩm thực,nhà hàng,21.028523,105.8061561,"ATM - Ngân Hàng Đông Á - DongA Bank, Đường La Thành, Ngọc Khánh, Ba Đình, Hà Nội, 11109",Hà Nội,Hà Nội,"Sushi Tiger là nhà hàng tại Hà Nội, Hà Nội.",Sushi Tiger Ẩm thực nhà hàng Hà Nội Hà Nội
HN_00016,Buffet Sen Tây Hồ,Ẩm thực,nhà hàng,21.0741493,105.8154687,"Phố Nhật Chiêu, Nhật Tân, Tây Hồ, Hà Nội, 11209",Hà Nội,Hà Nội,"Buffet Sen Tây Hồ là nhà hàng tại Hà Nội, Hà Nội.",Buffet Sen Tây Hồ Ẩm thực nhà hàng Hà Nội Hà Nội
HN_00017,Nhà 48 phố Hàng Ngang,Du lịch,địa điểm du lịch,21.0343278,105.8504388,"52 Phố Hàng Ngang, Hà Nội Old Quarter, Hàng Đào, Hoàn Kiếm, Hà Nội, 11012",Hà Nội,Hà Nội,"Nhà 48 phố Hàng Ngang là địa điểm du lịch tại Hà Nội, Hà Nội.",Nhà 48 phố Hàng Ngang Du lịch địa điểm du lịch Hà Nội Hà Nội
HN_00018,Thành Công,Du lịch,khách sạn,21.0137437,105.8132213,"Atm ABBank, 101 Phố Láng Hạ, Láng Hạ, Đống Đa, Hà Nội, 11513",Hà Nội,Hà Nội,"Thành Công là khách sạn tại Hà Nội, Hà Nội.",Thành Công Du lịch khách sạn Hà Nội Hà Nội
HN_00019,Trà Xuân Tửu,Ẩm thực,nhà hàng,21.0297549,105.8277638,"ATM - Ngân Hàng ANZ - ANZ, Phố Cat Linh, Cát Linh, Đống Đa, Hà Nội, 11510",Hà Nội,Hà Nội,"Trà Xuân Tửu là nhà hàng tại Hà Nội, Hà Nội.",Trà Xuân Tửu Ẩm thực nhà hàng Hà Nội Hà Nội
HN_00020,Cây Si,Ẩm thực,nhà hàng,21.0288674,105.8431006,"Quán Cây Si, 29 Phố Tống Duy Tân, Cửa Nam, Hoàn Kiếm, Hà Nội",Hà Nội,Hà Nội,"Cây Si là nhà hàng tại Hà Nội, Hà Nội.",Cây Si Ẩm thực nhà hàng Hà Nội Hà Nội
HN_00021,Nhà hàng Thành Lộc,Ẩm thực,nhà hàng,21.0083549,105.8567708,"16 Ngách 331/20 Trần Khát Chân, Thanh Nhàn, Hai Bà Trưng, Hà Nội, 11624",Hà Nội,Hà Nội,"Nhà hàng Thành Lộc là nhà hàng tại Hà Nội, Hà Nội.",Nhà hàng Thành Lộc Ẩm thực nhà hàng Hà Nội Hà Nội
HN_00022,Cà Phê Hao,Ẩm thực,quán cà phê,21.041759,105.8702416,"Thời Trang Uni Japan, 156 Đường Nguyễn Văn Cừ, Bồ Đề, Long Biên, Hà Nội, 11813",Hà Nội,Hà Nội,"Cà Phê Hao là quán cà phê tại Hà Nội, Hà Nội.",Cà Phê Hao Ẩm thực quán cà phê Hà Nội Hà Nội
HN_00023,KFC,Ẩm thực,quán thức ăn nhanh,21.0470606,105.8781666,"Văn Phòng Giao Dịch Sơn Jotun Bùi Hoàng Gia, 73 Phố Nguyễn Sơn, Ngọc Lâm, Long Biên, Hà Nội, 11811",Hà Nội,Hà Nội,"KFC là quán thức ăn nhanh tại Hà Nội, Hà Nội.",KFC Ẩm thực quán thức ăn nhanh Hà Nội Hà Nội
HN_00024,Quán Pub Mika,Ẩm thực,quán pub,21.0241143,105.8495331,"Tập Thể Bộ Y Tế, 5 Phố Quang Trung, Trần Hưng Đạo, Hoàn Kiếm, Hà Nội, 11019",Hà Nội,Hà Nội,"Quán Pub Mika là quán pub tại Hà Nội, Hà Nội.",Quán Pub Mika Ẩm thực quán pub Hà Nội Hà Nội
HN_00025,Khách Sạn Đông Á,Du lịch,khách sạn,21.0353948,105.8533211,"42 Phố Mã Mây, Hà Nội Old Quarter, Hàng Buồm, Hoàn Kiếm, Hà Nội, 11010",Hà Nội,Hà Nội,"Khách Sạn Đông Á là khách sạn tại Hà Nội, Hà Nội.",Khách Sạn Đông Á Du lịch khách sạn Hà Nội Hà Nội
HN_00026,Thu Giang Guest House,Du lịch,khách sạn,21.0316783,105.8479749,Melia Hanoi,,Hà Nội,"Thu Giang Guest House là khách sạn tại , Hà Nội.",Thu Giang Guest House Du lịch khách sạn  Hà Nội
HN_00027,Real Darling Cafe Guesthouse,Du lịch,khách sạn,21.0326388,105.8495639,"Bống, 21 Phố Hàng Quạt, Hà Nội Old Quarter, Hàng Gai, Hoàn Kiếm, Hà Nội, 11015",Hà Nội,Hà Nội,"Real Darling Cafe Guesthouse là khách sạn tại Hà Nội, Hà Nội.",Real Darling Cafe Guesthouse Du lịch khách sạn Hà Nội Hà Nội
HN_00028,Khách Sạn Classic 2,Du lịch,khách sạn,21.0346495,105.8517404,"Khách Sạn Ngọc Minh - Centre Ville Hotel, 47 Phố Lương Ngọc Quyến, Hà Nội Old Quarter, Hàng Buồm, Hoàn Kiếm, Hà Nội",Hà Nội,Hà Nội,"Khách Sạn Classic 2 là khách sạn tại Hà Nội, Hà Nội.",Khách Sạn Classic 2 Du lịch khách sạn Hà Nội Hà Nội
HN_00029,Khách Sạn Indochina Queen,Du lịch,khách sạn,21.0354757,105.8527489,"Nails The Garden Nails, 4/50 Ngõ Đào Duy Từ, Hà Nội Old Quarter, Hàng Buồm, Hoàn Kiếm, Hà Nội, 11010",Hà Nội,Hà Nội,"Khách Sạn Indochina Queen là khách sạn tại Hà Nội, Hà Nội.",Khách Sạn Indochina Queen Du lịch khách sạn Hà Nội Hà Nội
HN_00030,Khách Sạn Hanoi Backpackers,Du lịch,khách sạn,21.0293871,105.8480711,"Capsule Viet Nam Hostel, 60 Ngõ Huyện, Hàng Trống, Hoàn Kiếm, Hà Nội, 11006",Hà Nội,Hà Nội,"Khách Sạn Hanoi Backpackers là khách sạn tại Hà Nội, Hà Nội.",Khách Sạn Hanoi Backpackers Du lịch khách sạn Hà Nội Hà Nội
HN_00031,Khách Sạn Hanoi Phoenix II,Du lịch,khách sạn,21.0354506,105.8525879,"Salon Leo Le, 6 Ngõ Đào Duy Từ, Hà Nội Old Quarter, Hàng Buồm, Hoàn Kiếm, Hà Nội, 11010",Hà Nội,Hà Nội,"Khách Sạn Hanoi Phoenix II là khách sạn tại Hà Nội, Hà Nội.",Khách Sạn Hanoi Phoenix II Du lịch khách sạn Hà Nội Hà Nội
HN_00032,Phu Hoa,Du lịch,khách sạn,21.0334478,105.8500291,"Phố Lương Văn Can, Hà Nội Old Quarter, Hàng Gai, Hoàn Kiếm, Hà Nội, 11012",Hà Nội,Hà Nội,"Phu Hoa là khách sạn tại Hà Nội, Hà Nội.",Phu Hoa Du lịch khách sạn Hà Nội Hà Nội
HN_00033,Khách Sạn Little Hanoi Diamond,Du lịch,khách sạn,21.033677,105.8476149,"13 Phố Bát Đàn, Hà Nội Old Quarter, Hàng Bồ, Hoàn Kiếm, Hà Nội, 11014",Hà Nội,Hà Nội,"Khách Sạn Little Hanoi Diamond là khách sạn tại Hà Nội, Hà Nội.",Khách Sạn Little Hanoi Diamond Du lịch khách sạn Hà Nội Hà Nội
HN_00034,Khách Sạn Little Hanoi,Du lịch,khách sạn,21.0349399,105.8469714,"Huyền Mi, 42 Phố Hàng Gà, Hà Nội Old Quarter, Hàng Bồ, Hoàn Kiếm, Hà Nội, 11014",Hà Nội,Hà Nội,"Khách Sạn Little Hanoi là khách sạn tại Hà Nội, Hà Nội.",Khách Sạn Little Hanoi Du lịch khách sạn Hà Nội Hà Nội
HN_00035,Prince Hotel,Du lịch,khách sạn,21.0347507,105.8516905,"53 Phố Lương Ngọc Quyến, Hà Nội Old Quarter, Hàng Buồm, Hoàn Kiếm, Hà Nội, 11010",Hà Nội,Hà Nội,"Prince Hotel là khách sạn tại Hà Nội, Hà Nội.",Prince Hotel Du lịch khách sạn Hà Nội Hà Nội
HN_00036,Khách Sạn Classic,Du lịch,khách sạn,21.032831,105.8539652,"Làm Đẹp Mitioko, 43 Phố Hàng Bè, Hà Nội Old Quarter, Hàng Bạc, Hoàn Kiếm, Hà Nội, 11011",Hà Nội,Hà Nội,"Khách Sạn Classic là khách sạn tại Hà Nội, Hà Nội.",Khách Sạn Classic Du lịch khách sạn Hà Nội Hà Nội
HN_00037,Prince 57 Hotel,Du lịch,khách sạn,21.0326352,105.8539615,"Cửa Hàng Quà Lưu Niệm Zakka Shop, 49 Phố Hàng Bè, Hà Nội Old Quarter, Hàng Bạc, Hoàn Kiếm, Hà Nội, 11011",Hà Nội,Hà Nội,"Prince 57 Hotel là khách sạn tại Hà Nội, Hà Nội.",Prince 57 Hotel Du lịch khách sạn Hà Nội Hà Nội
HN_00038,Khách Sạn Hanoi Youth,Du lịch,khách sạn,21.0331149,105.8504878,"Khách Sạn Youth, 33 Phố Lương Văn Can, Hà Nội Old Quarter, Hàng Đào, Hoàn Kiếm, Hà Nội",Hà Nội,Hà Nội,"Khách Sạn Hanoi Youth là khách sạn tại Hà Nội, Hà Nội.",Khách Sạn Hanoi Youth Du lịch khách sạn Hà Nội Hà Nội
HN_00039,Tien Thuy Hotel,Du lịch,khách sạn,21.0321235,105.8549831,"Lớp Vẽ, 29 Phố Hàng Thùng, Lý Thái Tổ, Hoàn Kiếm, Hà Nội, 11007",Hà Nội,Hà Nội,"Tien Thuy Hotel là khách sạn tại Hà Nội, Hà Nội.",Tien Thuy Hotel Du lịch khách sạn Hà Nội Hà Nội
HN_00040,Khách Sạn Hanoi Gecko 2,Du lịch,khách sạn,21.0334005,105.85244,"Khách Sạn Romance Hà Nội, Đường Gia Ngư, Hà Nội Old Quarter, Hàng Bạc, Hoàn Kiếm, Hà Nội",Hà Nội,Hà Nội,"Khách Sạn Hanoi Gecko 2 là khách sạn tại Hà Nội, Hà Nội.",Khách Sạn Hanoi Gecko 2 Du lịch khách sạn Hà Nội Hà Nội
HN_00041,Khách Sạn Golden Lotus,Du lịch,khách sạn,21.0308292,105.8493639,"Phở Bò Bún Thang Tư Lùn, 5 Phố Hàng Trống, Hàng Trống, Hoàn Kiếm, Hà Nội, 11006",Hà Nội,Hà Nội,"Khách Sạn Golden Lotus là khách sạn tại Hà Nội, Hà Nội.",Khách Sạn Golden Lotus Du lịch khách sạn Hà Nội Hà Nội
HN_00042,Zephyr Hotel,Du lịch,khách sạn,21.0256167,105.8514292,"Thổ Quán, Hàng Trống, Hoàn Kiếm, Hà Nội, 11022",Hà Nội,Hà Nội,"Zephyr Hotel là khách sạn tại Hà Nội, Hà Nội.",Zephyr Hotel Du lịch khách sạn Hà Nội Hà Nội
HN_00043,Khách Sạn Bạch Tùng Điệp,Du lịch,khách sạn,21.0329471,105.847996,"Hong Phuong Souvenir Shop, 57 Phố Hàng Thiếc, Hà Nội Old Quarter, Hàng Gai, Hoàn Kiếm, Hà Nội",Hà Nội,Hà Nội,"Khách Sạn Bạch Tùng Điệp là khách sạn tại Hà Nội, Hà Nội.",Khách Sạn Bạch Tùng Điệp Du lịch khách sạn Hà Nội Hà Nội
HN_00044,Khách Sạn Camellia,Du lịch,khách sạn,21.033588,105.852824,"Gà Vịt Ngan Chim Bồ Câu Thỏ Bình Yên, Ngõ Trung Yên, Hà Nội Old Quarter, Hàng Bạc, Hoàn Kiếm, Hà Nội, 11011",Hà Nội,Hà Nội,"Khách Sạn Camellia là khách sạn tại Hà Nội, Hà Nội.",Khách Sạn Camellia Du lịch khách sạn Hà Nội Hà Nội
HN_00045,Khách Sạn Hanoi Gecko III,Du lịch,khách sạn,21.0336704,105.8473559,"Hi Ancient Town Hotel, Ha Nội",,Hà Nội,"Khách Sạn Hanoi Gecko III là khách sạn tại , Hà Nội.",Khách Sạn Hanoi Gecko III Du lịch khách sạn  Hà Nội
HN_00046,The Drift Backpackers Hostel,Du lịch,khách sạn,21.0191472,105.8484037,"Karaoke Holywood, 46 Đường Trương Hán Siêu, Trần Hưng Đạo, Hoàn Kiếm, Hà Nội, 11019",Hà Nội,Hà Nội,"The Drift Backpackers Hostel là khách sạn tại Hà Nội, Hà Nội.",The Drift Backpackers Hostel Du lịch khách sạn Hà Nội Hà Nội
HN_00047,Khách Sạn Maison D'Hanoi,Du lịch,khách sạn,21.0311045,105.8494873,"Cherry Beauty Salon, 5 Phố Hàng Trống, Hàng Trống, Hoàn Kiếm, Hà Nội, 11006",Hà Nội,Hà Nội,"Khách Sạn Maison D'Hanoi là khách sạn tại Hà Nội, Hà Nội.",Khách Sạn Maison D'Hanoi Du lịch khách sạn Hà Nội Hà Nội
HN_00048,Nhà Hàng Little Hanoi,Ẩm thực,nhà hàng,21.0321895,105.850937,"Hapro Mart, Phố Hàng Gai, Hàng Trống, Hoàn Kiếm, Hà Nội, 11015",Hà Nội,Hà Nội,"Nhà Hàng Little Hanoi là nhà hàng tại Hà Nội, Hà Nội.",Nhà Hàng Little Hanoi Ẩm thực nhà hàng Hà Nội Hà Nội
HN_00049,Nhà Hàng New Day,Ẩm thực,nhà hàng,21.0346545,105.853359,"76 Phố Mã Mây, Hà Nội Old Quarter, Hàng Buồm, Hoàn Kiếm, Hà Nội, 11010",Hà Nội,Hà Nội,"Nhà Hàng New Day là nhà hàng tại Hà Nội, Hà Nội.",Nhà Hàng New Day Ẩm thực nhà hàng Hà Nội Hà Nội
HN_00050,Quán Ăn Ngon - Phan Bội Châu,Ẩm thực,nhà hàng,21.0262611,105.8434161,"Trạm Tin Phường Cửa Nam, 18 Phố Phan Bội Châu, Cửa Nam, Hoàn Kiếm, Hà Nội",Hà Nội,Hà Nội,"Quán Ăn Ngon - Phan Bội Châu là nhà hàng tại Hà Nội, Hà Nội.",Quán Ăn Ngon - Phan Bội Châu Ẩm thực nhà hàng Hà Nội Hà Nội
HN_00051,Xoi Van Anh,Ẩm thực,nhà hàng,21.033942,105.8546062,"36 Phố Hàng Muối, Lý Thái Tổ, Hoàn Kiếm, Hà Nội, 11007",Hà Nội,Hà Nội,"Xoi Van Anh là nhà hàng tại Hà Nội, Hà Nội.",Xoi Van Anh Ẩm thực nhà hàng Hà Nội Hà Nội
HN_00052,Cà Phê Nola,Ẩm thực,quán cà phê,21.0340721,105.8535859,"105 Phố Mã Mây, Hà Nội Old Quarter, Hàng Bạc, Hoàn Kiếm, Hà Nội, 11010",Hà Nội,Hà Nội,"Cà Phê Nola là quán cà phê tại Hà Nội, Hà Nội.",Cà Phê Nola Ẩm thực quán cà phê Hà Nội Hà Nội
HN_00053,Sushi Hokkaido Sachi,Ẩm thực,nhà hàng,21.0202197,105.8543053,"Nhà Hàng Seoul Garden, 33 Phố Trần Hưng Đạo, Phan Chu Trinh, Hoàn Kiếm, Hà Nội, 11021",Hà Nội,Hà Nội,"Sushi Hokkaido Sachi là nhà hàng tại Hà Nội, Hà Nội.",Sushi Hokkaido Sachi Ẩm thực nhà hàng Hà Nội Hà Nội
HN_00054,Nhà Hàng Khazaana Indian,Ẩm thực,nhà hàng,21.0286735,105.857296,"Bar Karaoke Lá Đỏ, 4 Phố Tông Đản, Lý Thái Tổ, Hoàn Kiếm, Hà Nội, 11007",Hà Nội,Hà Nội,"Nhà Hàng Khazaana Indian là nhà hàng tại Hà Nội, Hà Nội.",Nhà Hàng Khazaana Indian Ẩm thực nhà hàng Hà Nội Hà Nội
HN_00055,Tandoor Indian Cuisine,Ẩm thực,nhà hàng,21.0335791,105.8537345,"Hoabinh Palace, Ha Nội",,Hà Nội,"Tandoor Indian Cuisine là nhà hàng tại , Hà Nội.",Tandoor Indian Cuisine Ẩm thực nhà hàng  Hà Nội
HN_00056,The King Cafe,Ẩm thực,nhà hàng,21.0348473,105.8515895,"44 Phố Lương Ngọc Quyến, Hà Nội Old Quarter, Hàng Buồm, Hoàn Kiếm, Hà Nội, 11010",Hà Nội,Hà Nội,"The King Cafe là nhà hàng tại Hà Nội, Hà Nội.",The King Cafe Ẩm thực nhà hàng Hà Nội Hà Nội
HN_00057,Nhà Hàng Ladybird,Ẩm thực,nhà hàng,21.0357539,105.8515631,"53 Phố Hàng Buồm, Hà Nội Old Quarter, Hàng Buồm, Hoàn Kiếm, Hà Nội, 11010",Hà Nội,Hà Nội,"Nhà Hàng Ladybird là nhà hàng tại Hà Nội, Hà Nội.",Nhà Hàng Ladybird Ẩm thực nhà hàng Hà Nội Hà Nội
HN_00058,Nhà Hàng Gecko,Ẩm thực,nhà hàng,21.0348198,105.8525664,"Bia Khánh Râu, 20 Phố Lương Ngọc Quyến, Hà Nội Old Quarter, Hàng Buồm, Hoàn Kiếm, Hà Nội, 11010",Hà Nội,Hà Nội,"Nhà Hàng Gecko là nhà hàng tại Hà Nội, Hà Nội.",Nhà Hàng Gecko Ẩm thực nhà hàng Hà Nội Hà Nội
HN_00059,Quán Pub Finnegan's Irish,Ẩm thực,quán pub,21.0323539,105.8468029,"Cửa Hàng Bánh Ngọt Âu Á Lộc Tài, 63 Phố Hàng Điếu, Hà Nội Old Quarter, Cửa Đông, Hoàn Kiếm, Hà Nội, 11016",Hà Nội,Hà Nội,"Quán Pub Finnegan's Irish là quán pub tại Hà Nội, Hà Nội.",Quán Pub Finnegan's Irish Ẩm thực quán pub Hà Nội Hà Nội
HN_00060,Quán Pub Irish Wolfhound,Ẩm thực,quán pub,21.0350376,105.8537954,"Khách Sạn Viola Royal, 6 Phố Lương Ngọc Quyến, Hà Nội Old Quarter, Hàng Buồm, Hoàn Kiếm, Hà Nội, 11010",Hà Nội,Hà Nội,"Quán Pub Irish Wolfhound là quán pub tại Hà Nội, Hà Nội.",Quán Pub Irish Wolfhound Ẩm thực quán pub Hà Nội Hà Nội
HN_00061,Tamarind Cafe,Ẩm thực,nhà hàng,21.0341589,105.8533099,"La Siesta, 94 Phố Mã Mây, Hà Nội Old Quarter, Hàng Bạc, Hoàn Kiếm, Hà Nội, 11010",Hà Nội,Hà Nội,"Tamarind Cafe là nhà hàng tại Hà Nội, Hà Nội.",Tamarind Cafe Ẩm thực nhà hàng Hà Nội Hà Nội
HN_00062,R&R Tavern,Ẩm thực,quán pub,21.027487,105.8443647,"Phố Thợ Nhuộm, Cửa Nam, Hoàn Kiếm, Hà Nội, 11018",Hà Nội,Hà Nội,"R&R Tavern là quán pub tại Hà Nội, Hà Nội.",R&R Tavern Ẩm thực quán pub Hà Nội Hà Nội
HN_00063,Nhà Hàng Âu Lạc Brazil II,Ẩm thực,nhà hàng,21.0298564,105.8409205,"Cafe Kim Anh, 16 Phố Cao Bá Quát, Điện Biên, Ba Đình, Hà Nội, 11114",Hà Nội,Hà Nội,"Nhà Hàng Âu Lạc Brazil II là nhà hàng tại Hà Nội, Hà Nội.",Nhà Hàng Âu Lạc Brazil II Ẩm thực nhà hàng Hà Nội Hà Nội
HN_00064,Nhà Hàng Mediterraneo,Ẩm thực,nhà hàng,21.0288946,105.8498777,"Cafe Artisee, 21 Phố Nhà Thờ, Hàng Trống, Hoàn Kiếm, Hà Nội, 11006",Hà Nội,Hà Nội,"Nhà Hàng Mediterraneo là nhà hàng tại Hà Nội, Hà Nội.",Nhà Hàng Mediterraneo Ẩm thực nhà hàng Hà Nội Hà Nội
HN_00065,Nhà Hàng Classico,Ẩm thực,nhà hàng,21.025414,105.8451399,"Nhà Hàng Mondo, 68 Phố Quán Sứ, Trần Hưng Đạo, Hoàn Kiếm, Hà Nội",Hà Nội,Hà Nội,"Nhà Hàng Classico là nhà hàng tại Hà Nội, Hà Nội.",Nhà Hàng Classico Ẩm thực nhà hàng Hà Nội Hà Nội
HN_00066,Nhà Hàng La Badiane,Ẩm thực,nhà hàng,21.0265884,105.8432573,"10 Phố Nam Ngư, Cửa Nam, Hoàn Kiếm, Hà Nội, 11018",Hà Nội,Hà Nội,"Nhà Hàng La Badiane là nhà hàng tại Hà Nội, Hà Nội.",Nhà Hàng La Badiane Ẩm thực nhà hàng Hà Nội Hà Nội
HN_00067,Nhà Hàng Hoa Sữa,Ẩm thực,nhà hàng,21.0212237,105.8474967,"Beauty Salon Quỳnh Quyên, Ngõ Xóm Hà Hồi, Trần Hưng Đạo, Hoàn Kiếm, Hà Nội, 11019",Hà Nội,Hà Nội,"Nhà Hàng Hoa Sữa là nhà hàng tại Hà Nội, Hà Nội.",Nhà Hàng Hoa Sữa Ẩm thực nhà hàng Hà Nội Hà Nội
HN_00068,Nhà Hàng Half Man Half Noodle,Ẩm thực,nhà hàng,21.0350466,105.8530045,"60 Phố Đào Duy Từ, Hà Nội Old Quarter, Hàng Buồm, Hoàn Kiếm, Hà Nội, 11010",Hà Nội,Hà Nội,"Nhà Hàng Half Man Half Noodle là nhà hàng tại Hà Nội, Hà Nội.",Nhà Hàng Half Man Half Noodle Ẩm thực nhà hàng Hà Nội Hà Nội
HN_00069,Quán Bar Dragonfly,Ẩm thực,quán bar,21.0358287,105.8522274,"Cà Phê Vân, 23 Phố Hàng Buồm, Hà Nội Old Quarter, Hàng Buồm, Hoàn Kiếm, Hà Nội, 11010",Hà Nội,Hà Nội,"Quán Bar Dragonfly là quán bar tại Hà Nội, Hà Nội.",Quán Bar Dragonfly Ẩm thực quán bar Hà Nội Hà Nội
HN_00070,Roots Reggae bar,Ẩm thực,quán bar,21.0350376,105.8541586,"Cửa Hàng Nội Thất - Đồ Chơi Ô Tô Quang Nguyễn, 12 Phố Nguyễn Hữu Huân, Hà Nội Old Quarter, Hàng Buồm, Hoàn Kiếm, Hà Nội, 11010",Hà Nội,Hà Nội,"Roots Reggae bar là quán bar tại Hà Nội, Hà Nội.",Roots Reggae bar Ẩm thực quán bar Hà Nội Hà Nội
HN_00071,Phuc Tan Bar,Ẩm thực,quán bar,21.0383923,105.8551456,"Giáo Họ Vạn Thái, 75 Phố Nguyễn Tư Giản, Phúc Tân, Hoàn Kiếm, Hà Nội, 11008",Hà Nội,Hà Nội,"Phuc Tan Bar là quán bar tại Hà Nội, Hà Nội.",Phuc Tan Bar Ẩm thực quán bar Hà Nội Hà Nội
HN_00072,Solace,Ẩm thực,quán bar,21.0301308,105.8609285,"Phố Ngân Restaurant, 42-46 Đường Chương Dương Độ, Chương Dương Độ, Hoàn Kiếm, Hà Nội",Hà Nội,Hà Nội,"Solace là quán bar tại Hà Nội, Hà Nội.",Solace Ẩm thực quán bar Hà Nội Hà Nội
HN_00073,Hybra Ultra Lounge,Ẩm thực,quán bar,21.0356982,105.853259,"Nhà Hàng - Bar Studio Lounge, 32 Phố Mã Mây, Hà Nội Old Quarter, Hàng Buồm, Hoàn Kiếm, Hà Nội, 11010",Hà Nội,Hà Nội,"Hybra Ultra Lounge là quán bar tại Hà Nội, Hà Nội.",Hybra Ultra Lounge Ẩm thực quán bar Hà Nội Hà Nội
HN_00074,Cà Phê AnAn,Ẩm thực,quán cà phê,21.0446359,105.8027367,"Ngân Hàng Tmcp Đầu Tư Và Phát Triển Việt Nam, Phố Phùng Chí Kiên, Nghĩa Đô, Cầu Giấy, Hà Nội, 11307",Hà Nội,Hà Nội,"Cà Phê AnAn là quán cà phê tại Hà Nội, Hà Nội.",Cà Phê AnAn Ẩm thực quán cà phê Hà Nội Hà Nội
HN_00075,Pho 10,Ẩm thực,nhà hàng,21.0304724,105.8488474,"Quán Cafe 12, 12 Phố Lý Quốc Sư, Hàng Trống, Hoàn Kiếm, Hà Nội",Hà Nội,Hà Nội,"Pho 10 là nhà hàng tại Hà Nội, Hà Nội.",Pho 10 Ẩm thực nhà hàng Hà Nội Hà Nội
HN_00076,Puku,Ẩm thực,nhà hàng,21.0294934,105.8435381,"Cửa Hàng Vinamotor, Phố Tống Duy Tân, Hàng Bông, Hoàn Kiếm, Hà Nội",Hà Nội,Hà Nội,"Puku là nhà hàng tại Hà Nội, Hà Nội.",Puku Ẩm thực nhà hàng Hà Nội Hà Nội
HN_00077,Rising Dragon,Du lịch,khách sạn,21.0324116,105.8539573,"Coffee Hằng, 65 Phố Hàng Bè, Hà Nội Old Quarter, Hàng Bạc, Hoàn Kiếm, Hà Nội, 11011",Hà Nội,Hà Nội,"Rising Dragon là khách sạn tại Hà Nội, Hà Nội.",Rising Dragon Du lịch khách sạn Hà Nội Hà Nội
HN_00078,Khách Sạn Hanoi Elegance 2,Du lịch,khách sạn,21.0346906,105.8535697,"Nhà Hàng - Bar - Cafe 69, 69 Phố Mã Mây, Hà Nội Old Quarter, Hàng Buồm, Hoàn Kiếm, Hà Nội",Hà Nội,Hà Nội,"Khách Sạn Hanoi Elegance 2 là khách sạn tại Hà Nội, Hà Nội.",Khách Sạn Hanoi Elegance 2 Du lịch khách sạn Hà Nội Hà Nội
HN_00079,Sunshine Palace,Du lịch,khách sạn,21.0350341,105.8533618,"49 Phố Đào Duy Từ, Hà Nội Old Quarter, Hàng Buồm, Hoàn Kiếm, Hà Nội, 11010",Hà Nội,Hà Nội,"Sunshine Palace là khách sạn tại Hà Nội, Hà Nội.",Sunshine Palace Du lịch khách sạn Hà Nội Hà Nội
HN_00080,Khách Sạn Joseph's,Du lịch,khách sạn,21.0282816,105.8483502,"21 Phố Ấu Triệu, Hàng Trống, Hoàn Kiếm, Hà Nội, 11006",Hà Nội,Hà Nội,"Khách Sạn Joseph's là khách sạn tại Hà Nội, Hà Nội.",Khách Sạn Joseph's Du lịch khách sạn Hà Nội Hà Nội
HN_00081,Khách Sạn Boutique,Du lịch,khách sạn,21.0379401,105.8518102,"Khách Sạn CityGate, 10 Phố Thanh Hà, Hà Nội Old Quarter, Đồng Xuân, Hoàn Kiếm, Hà Nội, 11009",Hà Nội,Hà Nội,"Khách Sạn Boutique là khách sạn tại Hà Nội, Hà Nội.",Khách Sạn Boutique Du lịch khách sạn Hà Nội Hà Nội
HN_00082,Khách Sạn Blue Star,Du lịch,khách sạn,21.0336734,105.8474742,"Khách Sạn Blue Star, Hà Nội Old Quarter, Hàng Bồ, Hoàn Kiếm, Hà Nội, 11014",Hà Nội,Hà Nội,"Khách Sạn Blue Star là khách sạn tại Hà Nội, Hà Nội.",Khách Sạn Blue Star Du lịch khách sạn Hà Nội Hà Nội
HN_00083,Khách Sạn Hanoi Cozy 2,Du lịch,khách sạn,21.0327548,105.8537342,"44 Phố Hàng Bè, Hà Nội Old Quarter, Hàng Bạc, Hoàn Kiếm, Hà Nội, 11011",Hà Nội,Hà Nội,"Khách Sạn Hanoi Cozy 2 là khách sạn tại Hà Nội, Hà Nội.",Khách Sạn Hanoi Cozy 2 Du lịch khách sạn Hà Nội Hà Nội
HN_00084,Cà Phê Hồ Thanh Nhàn,Ẩm thực,quán cà phê,21.005952,105.8591623,"181 Ngõ 281 Trần Khát Chân, Thanh Nhàn, Hai Bà Trưng, Hà Nội, 11624",Hà Nội,Hà Nội,"Cà Phê Hồ Thanh Nhàn là quán cà phê tại Hà Nội, Hà Nội.",Cà Phê Hồ Thanh Nhàn Ẩm thực quán cà phê Hà Nội Hà Nội
HN_00085,Sheraton Hanoi,Du lịch,khách sạn,21.0597444,105.8320123,"Đường Nghi Tàm, Quảng An, Tây Hồ, Hà Nội, 11207",Hà Nội,Hà Nội,"Sheraton Hanoi là khách sạn tại Hà Nội, Hà Nội.",Sheraton Hanoi Du lịch khách sạn Hà Nội Hà Nội
HN_00086,Thai Village,Ẩm thực,nhà hàng,21.0320076,105.8512129,"9 Phố Hàng Gai, Hàng Đào, Hoàn Kiếm, Hà Nội, 11015",Hà Nội,Hà Nội,"Thai Village là nhà hàng tại Hà Nội, Hà Nội.",Thai Village Ẩm thực nhà hàng Hà Nội Hà Nội
HN_00087,Khách Sạn Thaison I,Du lịch,khách sạn,21.0305739,105.8564189,"Dịch Vụ Tẩm Quất - Giác Hơi Bảo Sinh, 15 Phố Hàng Vôi, Lý Thái Tổ, Hoàn Kiếm, Hà Nội",Hà Nội,Hà Nội,"Khách Sạn Thaison I là khách sạn tại Hà Nội, Hà Nội.",Khách Sạn Thaison I Du lịch khách sạn Hà Nội Hà Nội
HN_00088,Khách Sạn Hà Nội Emerald,Du lịch,khách sạn,21.0339948,105.8535544,"Đặc Sản Nộm Thịt Bò Khô Long Vĩ Ốn, 107 Phố Mã Mây, Hà Nội Old Quarter, Hàng Bạc, Hoàn Kiếm, Hà Nội, 11010",Hà Nội,Hà Nội,"Khách Sạn Hà Nội Emerald là khách sạn tại Hà Nội, Hà Nội.",Khách Sạn Hà Nội Emerald Du lịch khách sạn Hà Nội Hà Nội
HN_00089,Sunshine 2,Du lịch,khách sạn,21.0343564,105.8533288,"Tiệm Sửa Xe, 88 Phố Mã Mây, Hà Nội Old Quarter, Hàng Buồm, Hoàn Kiếm, Hà Nội",Hà Nội,Hà Nội,"Sunshine 2 là khách sạn tại Hà Nội, Hà Nội.",Sunshine 2 Du lịch khách sạn Hà Nội Hà Nội
HN_00090,Khách Sạn Especen,Du lịch,khách sạn,21.0333592,105.8537508,"Nhà Hàng Tandoor, 24 Phố Hàng Bè, Hà Nội Old Quarter, Hàng Bạc, Hoàn Kiếm, Hà Nội, 11011",Hà Nội,Hà Nội,"Khách Sạn Especen là khách sạn tại Hà Nội, Hà Nội.",Khách Sạn Especen Du lịch khách sạn Hà Nội Hà Nội
HN_00091,Khách Sạn Bamboo,Du lịch,khách sạn,21.0331185,105.8537687,"Bamboo Hotel - TNK Travel - Restaurant, 32 Phố Hàng Bè, Hà Nội Old Quarter, Hàng Bạc, Hoàn Kiếm, Hà Nội, 11011",Hà Nội,Hà Nội,"Khách Sạn Bamboo là khách sạn tại Hà Nội, Hà Nội.",Khách Sạn Bamboo Du lịch khách sạn Hà Nội Hà Nội
HN_00092,Khách Sạn Golden Wings,Du lịch,khách sạn,21.0340122,105.8532958,"Bar - Nhà Hàng Old Hanoi, 106 Phố Mã Mây, Hà Nội Old Quarter, Hàng Bạc, Hoàn Kiếm, Hà Nội, 11010",Hà Nội,Hà Nội,"Khách Sạn Golden Wings là khách sạn tại Hà Nội, Hà Nội.",Khách Sạn Golden Wings Du lịch khách sạn Hà Nội Hà Nội
HN_00093,Le Pub,Ẩm thực,quán pub,21.033101,105.8539305,"Lasiesta, 27 Phố Hàng Bè, Hà Nội Old Quarter, Hàng Bạc, Hoàn Kiếm, Hà Nội, 11011",Hà Nội,Hà Nội,"Le Pub là quán pub tại Hà Nội, Hà Nội.",Le Pub Ẩm thực quán pub Hà Nội Hà Nội
HN_00094,Khách Sạn Friendly,Du lịch,khách sạn,21.0347247,105.8533643,"72 Phố Mã Mây, Hà Nội Old Quarter, Hàng Buồm, Hoàn Kiếm, Hà Nội, 11010",Hà Nội,Hà Nội,"Khách Sạn Friendly là khách sạn tại Hà Nội, Hà Nội.",Khách Sạn Friendly Du lịch khách sạn Hà Nội Hà Nội
HN_00095,Khách Sạn Hoà Bình Palace,Du lịch,khách sạn,21.0330675,105.8539845,"Lasiesta, 27 Phố Hàng Bè, Hà Nội Old Quarter, Hàng Bạc, Hoàn Kiếm, Hà Nội, 11011",Hà Nội,Hà Nội,"Khách Sạn Hoà Bình Palace là khách sạn tại Hà Nội, Hà Nội.",Khách Sạn Hoà Bình Palace Du lịch khách sạn Hà Nội Hà Nội
HN_00096,Khách Sạn Allura,Du lịch,khách sạn,21.0338753,105.8536358,"10 Phố Hàng Bạc, Hà Nội Old Quarter, Hàng Bạc, Hoàn Kiếm, Hà Nội, 11011",Hà Nội,Hà Nội,"Khách Sạn Allura là khách sạn tại Hà Nội, Hà Nội.",Khách Sạn Allura Du lịch khách sạn Hà Nội Hà Nội
HN_00097,Khách Sạn Golden Wings II,Du lịch,khách sạn,21.0341376,105.8535652,"Duong Dining, 101 Phố Mã Mây, Hà Nội Old Quarter, Hàng Bạc, Hoàn Kiếm, Hà Nội, 11010",Hà Nội,Hà Nội,"Khách Sạn Golden Wings II là khách sạn tại Hà Nội, Hà Nội.",Khách Sạn Golden Wings II Du lịch khách sạn Hà Nội Hà Nội
HN_00098,Trang Anh,Ẩm thực,quán cà phê,21.0329897,105.8528307,"21 Phố Gia Ngư, Hà Nội Old Quarter, Hàng Bạc, Hoàn Kiếm, Hà Nội, 11011",Hà Nội,Hà Nội,"Trang Anh là quán cà phê tại Hà Nội, Hà Nội.",Trang Anh Ẩm thực quán cà phê Hà Nội Hà Nội
HN_00099,Salute Hotel,Du lịch,khách sạn,21.0319667,105.8540409,"Sửa Chữa Giầy Dép Nam Nữ, 9A Phố Hàng Dầu, Hàng Bạc, Hoàn Kiếm, Hà Nội, 11011",Hà Nội,Hà Nội,"Salute Hotel là khách sạn tại Hà Nội, Hà Nội.",Salute Hotel Du lịch khách sạn Hà Nội Hà Nội
HN_00100,Phú Long Hotel,Du lịch,khách sạn,21.0323049,105.8534066,"Phú Long Hotel, 12 Phố Cầu Gỗ, Hà Nội Old Quarter, Hàng Bạc, Hoàn Kiếm, Hà Nội",Hà Nội,Hà Nội,"Phú Long Hotel là khách sạn tại Hà Nội, Hà Nội.",Phú Long Hotel Du lịch khách sạn Hà Nội Hà Nội
HN_00101,Khách Sạn Hanoi A1,Du lịch,khách sạn,21.0320927,105.8536784,"Hanoi A1 Hotel, Ha Nội",,Hà Nội,"Khách Sạn Hanoi A1 là khách sạn tại , Hà Nội.",Khách Sạn Hanoi A1 Du lịch khách sạn  Hà Nội
HN_00102,Khách Sạn Indochina,Du lịch,khách sạn,21.0315137,105.8547329,"Phòng Khám Bùi Nguyên Kiểm, 93 Phố Nguyễn Hữu Huân, Lý Thái Tổ, Hoàn Kiếm, Hà Nội, 11007",Hà Nội,Hà Nội,"Khách Sạn Indochina là khách sạn tại Hà Nội, Hà Nội.",Khách Sạn Indochina Du lịch khách sạn Hà Nội Hà Nội
HN_00103,Khách Sạn Asia Palace,Du lịch,khách sạn,21.0317015,105.8556478,"Khách Sạn Asia Palace, 44A Phố Hàng Tre, Lý Thái Tổ, Hoàn Kiếm, Hà Nội, 11007",Hà Nội,Hà Nội,"Khách Sạn Asia Palace là khách sạn tại Hà Nội, Hà Nội.",Khách Sạn Asia Palace Du lịch khách sạn Hà Nội Hà Nội
HN_00104,Khách Sạn Gia Bảo Grand,Du lịch,khách sạn,21.0314953,105.8549091,"34 Phố Lò Sũ, Lý Thái Tổ, Hoàn Kiếm, Hà Nội, 11007",Hà Nội,Hà Nội,"Khách Sạn Gia Bảo Grand là khách sạn tại Hà Nội, Hà Nội.",Khách Sạn Gia Bảo Grand Du lịch khách sạn Hà Nội Hà Nội
HN_00105,Khách Sạn Hanoi Elegance,Du lịch,khách sạn,21.0314996,105.854844,"Indochina Legend Hotel 2, Ha Nội",,Hà Nội,"Khách Sạn Hanoi Elegance là khách sạn tại , Hà Nội.",Khách Sạn Hanoi Elegance Du lịch khách sạn  Hà Nội
HN_00106,Khách Sạn Hanoi Happy,Du lịch,khách sạn,21.0314439,105.8552823,"22 Phố Lò Sũ, Lý Thái Tổ, Hoàn Kiếm, Hà Nội, 11007",Hà Nội,Hà Nội,"Khách Sạn Hanoi Happy là khách sạn tại Hà Nội, Hà Nội.",Khách Sạn Hanoi Happy Du lịch khách sạn Hà Nội Hà Nội
HN_00107,Nhà Hàng Ba Ba,Ẩm thực,nhà hàng,21.0460387,105.8009777,"Ngõ 93 Hoàng Quốc Việt, Nghĩa Đô, Cầu Giấy, Hà Nội, 11307",Hà Nội,Hà Nội,"Nhà Hàng Ba Ba là nhà hàng tại Hà Nội, Hà Nội.",Nhà Hàng Ba Ba Ẩm thực nhà hàng Hà Nội Hà Nội
HN_00108,Khách Sạn Boss,Du lịch,khách sạn,21.0314436,105.8552453,"22 Phố Lò Sũ, Lý Thái Tổ, Hoàn Kiếm, Hà Nội, 11007",Hà Nội,Hà Nội,"Khách Sạn Boss là khách sạn tại Hà Nội, Hà Nội.",Khách Sạn Boss Du lịch khách sạn Hà Nội Hà Nội
HN_00109,Toshi Fusion,Ẩm thực,nhà hàng,21.0200182,105.8562112,"24C Phố Trần Hưng Đạo, Phan Chu Trinh, Hoàn Kiếm, Hà Nội, 11021",Hà Nội,Hà Nội,"Toshi Fusion là nhà hàng tại Hà Nội, Hà Nội.",Toshi Fusion Ẩm thực nhà hàng Hà Nội Hà Nội
HN_00110,Cà Phê Ete,Ẩm thực,quán pub,21.0337988,105.8269214,"Ngõ 73 Giang Văn Minh, Đội Cấn, Ba Đình, Hà Nội, 11113",Hà Nội,Hà Nội,"Cà Phê Ete là quán pub tại Hà Nội, Hà Nội.",Cà Phê Ete Ẩm thực quán pub Hà Nội Hà Nội
HN_00111,Khách Sạn Astoria,Du lịch,khách sạn,21.0292242,105.8454081,"Khách Sạn Astoria, 151 Phố Hàng Bông, Hàng Bông, Hoàn Kiếm, Hà Nội",Hà Nội,Hà Nội,"Khách Sạn Astoria là khách sạn tại Hà Nội, Hà Nội.",Khách Sạn Astoria Du lịch khách sạn Hà Nội Hà Nội
HN_00112,Trang An,Du lịch,khách sạn,21.0321562,105.85026,"Shop Tô Thanh Ngà, 54 Phố Hàng Gai, Hà Nội Old Quarter, Hàng Gai, Hoàn Kiếm, Hà Nội, 11015",Hà Nội,Hà Nội,"Trang An là khách sạn tại Hà Nội, Hà Nội.",Trang An Du lịch khách sạn Hà Nội Hà Nội
HN_00113,Nhà Hàng Duy Lê Malraux,Ẩm thực,nhà hàng,21.0313388,105.8489482,"Ngọc Sports, 6 Phố Hàng Bông, Hà Nội Old Quarter, Hàng Gai, Hoàn Kiếm, Hà Nội, 11015",Hà Nội,Hà Nội,"Nhà Hàng Duy Lê Malraux là nhà hàng tại Hà Nội, Hà Nội.",Nhà Hàng Duy Lê Malraux Ẩm thực nhà hàng Hà Nội Hà Nội
HN_00114,Khách Sạn Nam Hải,Du lịch,khách sạn,21.0312401,105.8472175,"Công Ty Trách Nhiệm Hữu Hạn Đầu Tư Nguyên Huy - Chocolate Merci Shop, 57 Phố Đường Thành, Hà Nội Old Quarter, Cửa Đông, Hoàn Kiếm, Hà Nội, 11016",Hà Nội,Hà Nội,"Khách Sạn Nam Hải là khách sạn tại Hà Nội, Hà Nội.",Khách Sạn Nam Hải Du lịch khách sạn Hà Nội Hà Nội
HN_00115,Sago,Ẩm thực,quán bar,21.0323292,105.8520426,"Bấm Lỗ Tai Đồ Kẹp Tóc Nữ, Hà Nội Old Quarter, Hàng Bạc, Hoàn Kiếm, Hà Nội, 11011",Hà Nội,Hà Nội,"Sago là quán bar tại Hà Nội, Hà Nội.",Sago Ẩm thực quán bar Hà Nội Hà Nội
HN_00116,PAN,Du lịch,khách sạn,21.0286011,105.8437682,"Tóc Việt Hair Salon, 212 Phố Hàng Bông, Cửa Nam, Hoàn Kiếm, Hà Nội, 11017",Hà Nội,Hà Nội,"PAN là khách sạn tại Hà Nội, Hà Nội.",PAN Du lịch khách sạn Hà Nội Hà Nội
HN_00117,Son Thanh,Ẩm thực,nhà hàng,21.0307814,105.8472039,"Tiệm Bánh Triều Patisserie, Phố Đường Thành, Hà Nội Old Quarter, Cửa Đông, Hoàn Kiếm, Hà Nội, 11016",Hà Nội,Hà Nội,"Son Thanh là nhà hàng tại Hà Nội, Hà Nội.",Son Thanh Ẩm thực nhà hàng Hà Nội Hà Nội
HN_00118,Orick Coffee,Ẩm thực,quán cà phê,21.0242859,105.8476001,"Phố 19 Tháng 12, Trần Hưng Đạo, Hoàn Kiếm, Hà Nội, 11019",Hà Nội,Hà Nội,"Orick Coffee là quán cà phê tại Hà Nội, Hà Nội.",Orick Coffee Ẩm thực quán cà phê Hà Nội Hà Nội
HN_00119,Khách Sạn Hanoi Stars,Du lịch,khách sạn,21.0337024,105.8542552,"Garden Nails, 23 Phố Hàng Mắm, Hà Nội Old Quarter, Lý Thái Tổ, Hoàn Kiếm, Hà Nội, 11007",Hà Nội,Hà Nội,"Khách Sạn Hanoi Stars là khách sạn tại Hà Nội, Hà Nội.",Khách Sạn Hanoi Stars Du lịch khách sạn Hà Nội Hà Nội
HN_00120,Van Viet Cafe,Ẩm thực,quán cà phê,21.0231794,105.8516744,"Cafe Vân Việt, 36 Phố Lý Thường Kiệt, Hàng Bài, Hoàn Kiếm, Hà Nội, 11020",Hà Nội,Hà Nội,"Van Viet Cafe là quán cà phê tại Hà Nội, Hà Nội.",Van Viet Cafe Ẩm thực quán cà phê Hà Nội Hà Nội
HN_00121,Khách Sạn Bảo Anh,Du lịch,khách sạn,21.0294692,105.8479138,"Quán Cafe Giải Khát Hương Tuấn, 21 Phố Phủ Doãn, Hàng Trống, Hoàn Kiếm, Hà Nội, 11006",Hà Nội,Hà Nội,"Khách Sạn Bảo Anh là khách sạn tại Hà Nội, Hà Nội.",Khách Sạn Bảo Anh Du lịch khách sạn Hà Nội Hà Nội
HN_00122,Nhà Hàng Yakiniku Shiki,Ẩm thực,nhà hàng,21.0336059,105.8548258,"Shiki BBQ Restaurant, 8A Phố Hàng Tre, Lý Thái Tổ, Hoàn Kiếm, Hà Nội, 11007",Hà Nội,Hà Nội,"Nhà Hàng Yakiniku Shiki là nhà hàng tại Hà Nội, Hà Nội.",Nhà Hàng Yakiniku Shiki Ẩm thực nhà hàng Hà Nội Hà Nội
HN_00123,Rose Hotel,Du lịch,khách sạn,21.0311286,105.8472821,"Cửa Hàng Thời Trang Túi Xách - Around The World HandBags Fashion, 61 Phố Đường Thành, Hà Nội Old Quarter, Cửa Đông, Hoàn Kiếm, Hà Nội, 11016",Hà Nội,Hà Nội,"Rose Hotel là khách sạn tại Hà Nội, Hà Nội.",Rose Hotel Du lịch khách sạn Hà Nội Hà Nội
HN_00124,Trung Nam Hải,Du lịch,khách sạn,21.029546,105.8479124,"Quán Cafe Giải Khát Hương Tuấn, 21 Phố Phủ Doãn, Hàng Trống, Hoàn Kiếm, Hà Nội, 11006",Hà Nội,Hà Nội,"Trung Nam Hải là khách sạn tại Hà Nội, Hà Nội.",Trung Nam Hải Du lịch khách sạn Hà Nội Hà Nội
HN_00125,Khách Sạn Hanoi Backpackers Palace,Du lịch,khách sạn,21.0336742,105.8475063,"Sinh Cafe In Ha Noi Tour Information And Boongking Office, Hà Nội Old Quarter, Hàng Bồ, Hoàn Kiếm, Hà Nội, 11014",Hà Nội,Hà Nội,"Khách Sạn Hanoi Backpackers Palace là khách sạn tại Hà Nội, Hà Nội.",Khách Sạn Hanoi Backpackers Palace Du lịch khách sạn Hà Nội Hà Nội
HN_00126,Cà Phê Cosa Nostra,Ẩm thực,quán cà phê,21.0255087,105.8579872,"Coffee Food Cocktail Cosa Nostra, Phố Tông Đản, Tràng Tiền, Hoàn Kiếm, Hà Nội, 11022",Hà Nội,Hà Nội,"Cà Phê Cosa Nostra là quán cà phê tại Hà Nội, Hà Nội.",Cà Phê Cosa Nostra Ẩm thực quán cà phê Hà Nội Hà Nội
HN_00127,Rainbow Homestay,Du lịch,nhà khách/homestay,21.0268165,105.8575022,"3 Ngõ 18 Tông Đản, Tràng Tiền, Hoàn Kiếm, Hà Nội, 11022",Hà Nội,Hà Nội,"Rainbow Homestay là nhà khách/homestay tại Hà Nội, Hà Nội.",Rainbow Homestay Du lịch nhà khách/homestay Hà Nội Hà Nội
HN_00128,Khách Sạn Hanoi Spark,Du lịch,khách sạn,21.0323652,105.8547395,"16 Phố Hàng Thùng, Lý Thái Tổ, Hoàn Kiếm, Hà Nội, 11007",Hà Nội,Hà Nội,"Khách Sạn Hanoi Spark là khách sạn tại Hà Nội, Hà Nội.",Khách Sạn Hanoi Spark Du lịch khách sạn Hà Nội Hà Nội
HN_00129,Khách Sạn Cozy,Du lịch,khách sạn,21.0324325,105.8537078,"Hương Mai Cafe, 56 Phố Hàng Bè, Hà Nội Old Quarter, Hàng Bạc, Hoàn Kiếm, Hà Nội, 11011",Hà Nội,Hà Nội,"Khách Sạn Cozy là khách sạn tại Hà Nội, Hà Nội.",Khách Sạn Cozy Du lịch khách sạn Hà Nội Hà Nội
HN_00130,Red bean,Ẩm thực,nhà hàng,21.0342414,105.8533178,"La Siesta, 94 Phố Mã Mây, Hà Nội Old Quarter, Hàng Bạc, Hoàn Kiếm, Hà Nội, 11010",Hà Nội,Hà Nội,"Red bean là nhà hàng tại Hà Nội, Hà Nội.",Red bean Ẩm thực nhà hàng Hà Nội Hà Nội
HN_00131,Khách Sạn Asia Palace,Du lịch,khách sạn,21.0324639,105.8544065,"Thời Trang Do Manh Cuong, Phố Nguyễn Hữu Huân, Hà Nội Old Quarter, Lý Thái Tổ, Hoàn Kiếm, Hà Nội, 11007",Hà Nội,Hà Nội,"Khách Sạn Asia Palace là khách sạn tại Hà Nội, Hà Nội.",Khách Sạn Asia Palace Du lịch khách sạn Hà Nội Hà Nội
HN_00132,Khách Sạn Hanoi Orchid,Du lịch,khách sạn,21.0327409,105.8539635,"45 Phố Hàng Bè, Hà Nội Old Quarter, Hàng Bạc, Hoàn Kiếm, Hà Nội, 11011",Hà Nội,Hà Nội,"Khách Sạn Hanoi Orchid là khách sạn tại Hà Nội, Hà Nội.",Khách Sạn Hanoi Orchid Du lịch khách sạn Hà Nội Hà Nội
HN_00133,Khách Sạn Hanoi Elegance,Du lịch,khách sạn,21.0319655,105.848102,"Hotel Little HaNoi, 1 Phố Hàng Mành, Hà Nội Old Quarter, Hàng Gai, Hoàn Kiếm, Hà Nội, 11015",Hà Nội,Hà Nội,"Khách Sạn Hanoi Elegance là khách sạn tại Hà Nội, Hà Nội.",Khách Sạn Hanoi Elegance Du lịch khách sạn Hà Nội Hà Nội
HN_00134,Nhà Hàng Green Mango,Ẩm thực,nhà hàng,21.0329639,105.8498165,"Green Mango Bar, Hà Nội Old Quarter, Hàng Gai, Hoàn Kiếm, Hà Nội, 11015",Hà Nội,Hà Nội,"Nhà Hàng Green Mango là nhà hàng tại Hà Nội, Hà Nội.",Nhà Hàng Green Mango Ẩm thực nhà hàng Hà Nội Hà Nội
HN_00135,Khách Sạn Charming,Du lịch,khách sạn,21.0319242,105.8479383,"13 Phố Yên Thái, Hà Nội Old Quarter, Hàng Gai, Hoàn Kiếm, Hà Nội, 11015",Hà Nội,Hà Nội,"Khách Sạn Charming là khách sạn tại Hà Nội, Hà Nội.",Khách Sạn Charming Du lịch khách sạn Hà Nội Hà Nội
HN_00136,Khách Sạn Hanoi Eclipse,Du lịch,khách sạn,21.0328812,105.8495832,"Phòng Chẩn Trị Y Học Cổ Truyền Nam Phương, 38 Phố Hàng Quạt, Hà Nội Old Quarter, Hàng Gai, Hoàn Kiếm, Hà Nội",Hà Nội,Hà Nội,"Khách Sạn Hanoi Eclipse là khách sạn tại Hà Nội, Hà Nội.",Khách Sạn Hanoi Eclipse Du lịch khách sạn Hà Nội Hà Nội
HN_00137,Cà Phê HAN,Ẩm thực,quán cà phê,21.0338728,105.8543107,"Cafe Han Mooncake, 46 Phố Nguyễn Hữu Huân, Hà Nội Old Quarter, Lý Thái Tổ, Hoàn Kiếm, Hà Nội, 11007",Hà Nội,Hà Nội,"Cà Phê HAN là quán cà phê tại Hà Nội, Hà Nội.",Cà Phê HAN Ẩm thực quán cà phê Hà Nội Hà Nội
HN_00138,Cà Phê Huy,Ẩm thực,quán cà phê,21.0264433,105.8368669,"Công Ty Tin Học Và Dịch Vụ Sao Mai, 27G Phố Quốc Tử Giám, Văn Chương, Đống Đa, Hà Nội",Hà Nội,Hà Nội,"Cà Phê Huy là quán cà phê tại Hà Nội, Hà Nội.",Cà Phê Huy Ẩm thực quán cà phê Hà Nội Hà Nội
HN_00139,Nhà Hàng Chả Cá Văn Miếu,Ẩm thực,nhà hàng,21.0296628,105.8369362,"9 Phố Văn Miếu, Điện Biên, Đống Đa, Hà Nội, 11508",Hà Nội,Hà Nội,"Nhà Hàng Chả Cá Văn Miếu là nhà hàng tại Hà Nội, Hà Nội.",Nhà Hàng Chả Cá Văn Miếu Ẩm thực nhà hàng Hà Nội Hà Nội
HN_00140,Vanmieu Hotel,Du lịch,khách sạn,21.0266394,105.8370864,"Văn Miếu Hotel, 54B Phố Quốc Tử Giám, Văn Miếu, Đống Đa, Hà Nội, 11508",Hà Nội,Hà Nội,"Vanmieu Hotel là khách sạn tại Hà Nội, Hà Nội.",Vanmieu Hotel Du lịch khách sạn Hà Nội Hà Nội
HN_00141,Khách Sạn Hanoi Deluxe,Du lịch,khách sạn,21.0346071,105.8472826,"Khách Sạn Asia Pearl Hotel, 46 Phố Bát Sứ, Hà Nội Old Quarter, Hàng Bồ, Hoàn Kiếm, Hà Nội",Hà Nội,Hà Nội,"Khách Sạn Hanoi Deluxe là khách sạn tại Hà Nội, Hà Nội.",Khách Sạn Hanoi Deluxe Du lịch khách sạn Hà Nội Hà Nội
HN_00142,Cà Phê Newlife,Ẩm thực,quán cà phê,21.01139,105.831552,"Quán Tre Làng, 106 Phố Đặng Văn Ngữ, Trung Tự, Đống Đa, Hà Nội, 11521",Hà Nội,Hà Nội,"Cà Phê Newlife là quán cà phê tại Hà Nội, Hà Nội.",Cà Phê Newlife Ẩm thực quán cà phê Hà Nội Hà Nội
HN_00143,Cà Phê 4 Seasons,Ẩm thực,quán cà phê,21.039025,105.79953,"Thời Trang Viet Brothers, 168 Đường Nguyễn Khánh Toàn, Cầu Giấy, Hà Nội, 11306",Hà Nội,Hà Nội,"Cà Phê 4 Seasons là quán cà phê tại Hà Nội, Hà Nội.",Cà Phê 4 Seasons Ẩm thực quán cà phê Hà Nội Hà Nội
HN_00144,Nhà Hàng Thượng Hải,Ẩm thực,nhà hàng,20.996956,105.811593,"Công Ty Viễn Thông Quân Đội - Cửa Hàng Điện Thoại Di Động, 231 Đường Nguyễn Trãi, Thượng Đình, Thanh Xuân, Hà Nội, 11414",Hà Nội,Hà Nội,"Nhà Hàng Thượng Hải là nhà hàng tại Hà Nội, Hà Nội.",Nhà Hàng Thượng Hải Ẩm thực nhà hàng Hà Nội Hà Nội
HN_00145,Cà Phê MVTTS,Ẩm thực,quán cà phê,21.0284992,105.8484194,"Indochina Travel&Hotel, 13 Phố Ấu Triệu, Hàng Trống, Hoàn Kiếm, Hà Nội",Hà Nội,Hà Nội,"Cà Phê MVTTS là quán cà phê tại Hà Nội, Hà Nội.",Cà Phê MVTTS Ẩm thực quán cà phê Hà Nội Hà Nội
HN_00146,Khách Sạn Heart,Du lịch,khách sạn,21.0315071,105.8505621,"17 Ngõ Hàng Hành, Hàng Trống, Hoàn Kiếm, Hà Nội, 11006",Hà Nội,Hà Nội,"Khách Sạn Heart là khách sạn tại Hà Nội, Hà Nội.",Khách Sạn Heart Du lịch khách sạn Hà Nội Hà Nội
HN_00147,Khách Sạn Golden Sunrise,Du lịch,khách sạn,21.0314747,105.850246,"Nhà Thuốc Gia Truyền Tưa Trớ, 28 Ngõ Hàng Hành, Hàng Trống, Hoàn Kiếm, Hà Nội, 11006",Hà Nội,Hà Nội,"Khách Sạn Golden Sunrise là khách sạn tại Hà Nội, Hà Nội.",Khách Sạn Golden Sunrise Du lịch khách sạn Hà Nội Hà Nội
HN_00148,Khách Sạn Morning Star,Du lịch,khách sạn,21.0317073,105.8507545,"Ngõ Hàng Hành, Hàng Trống, Hoàn Kiếm, Hà Nội, 11006",Hà Nội,Hà Nội,"Khách Sạn Morning Star là khách sạn tại Hà Nội, Hà Nội.",Khách Sạn Morning Star Du lịch khách sạn Hà Nội Hà Nội
HN_00149,Win Hotel,Du lịch,khách sạn,21.0314317,105.8502016,"Công Ty Thương Mại Hoàng Đạo - Bar & Souvenir Dấu Ấn, 30 Đường Hàng Hành, Hàng Trống, Hoàn Kiếm, Hà Nội",Hà Nội,Hà Nội,"Win Hotel là khách sạn tại Hà Nội, Hà Nội.",Win Hotel Du lịch khách sạn Hà Nội Hà Nội
HN_00150,Royal Hotel,Du lịch,khách sạn,21.0295866,105.8349908,"Khách Sạn Hoàng Ngọc, 19 Phố Hàng Cháo, Cát Linh, Đống Đa, Hà Nội",Hà Nội,Hà Nội,"Royal Hotel là khách sạn tại Hà Nội, Hà Nội.",Royal Hotel Du lịch khách sạn Hà Nội Hà Nội
HN_00151,Especen Hotel,Du lịch,khách sạn,21.029055,105.8485059,"Ngõ Thọ Xương, Hàng Trống, Hoàn Kiếm, Hà Nội, 11006",Hà Nội,Hà Nội,"Especen Hotel là khách sạn tại Hà Nội, Hà Nội.",Especen Hotel Du lịch khách sạn Hà Nội Hà Nội
HN_00152,Cà Phê Trang,Ẩm thực,quán cà phê,21.027956,105.8363073,"Quán Ăn Cây Bàng, Phố Ngô Tất Tố, Văn Miếu, Đống Đa, Hà Nội, 11508",Hà Nội,Hà Nội,"Cà Phê Trang là quán cà phê tại Hà Nội, Hà Nội.",Cà Phê Trang Ẩm thực quán cà phê Hà Nội Hà Nội
HN_00153,Silk Path,Du lịch,khách sạn,21.0288266,105.844549,"Silk Path Hotel, 195-199 Phố Hàng Bông, Hàng Bông, Hoàn Kiếm, Hà Nội",Hà Nội,Hà Nội,"Silk Path là khách sạn tại Hà Nội, Hà Nội.",Silk Path Du lịch khách sạn Hà Nội Hà Nội
HN_00154,Cà Phê AnAn,Ẩm thực,quán cà phê,21.0301997,105.848958,"Flower Fashion, 22B Phố Lý Quốc Sư, Hàng Trống, Hoàn Kiếm, Hà Nội",Hà Nội,Hà Nội,"Cà Phê AnAn là quán cà phê tại Hà Nội, Hà Nội.",Cà Phê AnAn Ẩm thực quán cà phê Hà Nội Hà Nội
HN_00155,Rising Dragon Villa,Du lịch,khách sạn,21.0345522,105.8474998,"Angela Boutique, 43 Phố Bát Sứ, Hà Nội Old Quarter, Hàng Bồ, Hoàn Kiếm, Hà Nội, 11014",Hà Nội,Hà Nội,"Rising Dragon Villa là khách sạn tại Hà Nội, Hà Nội.",Rising Dragon Villa Du lịch khách sạn Hà Nội Hà Nội
HN_00156,Nhà Hàng Chả Cá Thủy Hồng,Ẩm thực,nhà hàng,21.0361852,105.8469741,"Bánh Cuốn Gia Truyền Thanh Vân, 12-14 Phố Hàng Gà, Hà Nội Old Quarter, Hàng Bồ, Hoàn Kiếm, Hà Nội",Hà Nội,Hà Nội,"Nhà Hàng Chả Cá Thủy Hồng là nhà hàng tại Hà Nội, Hà Nội.",Nhà Hàng Chả Cá Thủy Hồng Ẩm thực nhà hàng Hà Nội Hà Nội
HN_00157,Chợ Chiều Thắng Lợi,Du lịch,chợ truyền thống,20.9723698,105.7455509,"Đường Ỷ La, Dương Nội, Hà Đông, Hà Nội, 12114",Hà Nội,Hà Nội,"Chợ Chiều Thắng Lợi là chợ truyền thống tại Hà Nội, Hà Nội.",Chợ Chiều Thắng Lợi Du lịch chợ truyền thống Hà Nội Hà Nội
HN_00158,Cơm Trịnh,Ẩm thực,khu ẩm thực,21.0029067,105.8547467,"Trạm Xăng Dầu - Petrolimex - 79 Thanh Nhàn, 48 Phố Thanh Nhàn, Thanh Nhàn, Hai Bà Trưng, Hà Nội, 11624",Hà Nội,Hà Nội,"Cơm Trịnh là khu ẩm thực tại Hà Nội, Hà Nội.",Cơm Trịnh Ẩm thực khu ẩm thực Hà Nội Hà Nội
HN_00159,Nhà Hàng Lâm Ký,Ẩm thực,nhà hàng,21.1342272,105.503133,"Ngõ 1 Nguyễn Thái Học, Quang Trung, Sơn Tây, Hà Nội, 12718",Hà Nội,Hà Nội,"Nhà Hàng Lâm Ký là nhà hàng tại Hà Nội, Hà Nội.",Nhà Hàng Lâm Ký Ẩm thực nhà hàng Hà Nội Hà Nội
HN_00160,Siêu thị Thành Sơn,Du lịch,chợ truyền thống,21.1389727,105.5072008,"2 Phố Phạm Hồng Thái, Sơn Tây, Hà Nội, 12706",Hà Nội,Hà Nội,"Siêu thị Thành Sơn là chợ truyền thống tại Hà Nội, Hà Nội.",Siêu thị Thành Sơn Du lịch chợ truyền thống Hà Nội Hà Nội
HN_00161,Nhà hàng Đông Thành,Ẩm thực,nhà hàng,21.1360235,105.505606,"Cửa Hàng Quần Áo Trẻ Em Carters, Quang Trung, Sơn Tây, Hà Nội, 12719",Hà Nội,Hà Nội,"Nhà hàng Đông Thành là nhà hàng tại Hà Nội, Hà Nội.",Nhà hàng Đông Thành Ẩm thực nhà hàng Hà Nội Hà Nội
HN_00162,Nhà Hàng BBQ Chicken,Ẩm thực,quán thức ăn nhanh,21.034519,105.8287829,"Giày Dép Phụ Kiện Huệ Túi, 98 Phố Đội Cấn, Đội Cấn, Ba Đình, Hà Nội, 11113",Hà Nội,Hà Nội,"Nhà Hàng BBQ Chicken là quán thức ăn nhanh tại Hà Nội, Hà Nội.",Nhà Hàng BBQ Chicken Ẩm thực quán thức ăn nhanh Hà Nội Hà Nội
HN_00163,Khách Sạn Golden LakeView,Du lịch,khách sạn,21.0315942,105.8507125,"Tiệm Tóc Duy - Duy Hair Dressing, 11 Ngõ Hàng Hành, Hàng Trống, Hoàn Kiếm, Hà Nội, 11006",Hà Nội,Hà Nội,"Khách Sạn Golden LakeView là khách sạn tại Hà Nội, Hà Nội.",Khách Sạn Golden LakeView Du lịch khách sạn Hà Nội Hà Nội
HN_00164,Hanoi Blue Sky,Du lịch,khách sạn,21.0369374,105.8472445,"Ngân Hàng Phát Triển Nhà Hà Nội - HABUBANK - Chi Nhánh Thanh Quan, 57 Phố Hàng Cót, Hà Nội Old Quarter, Hàng Mã, Hoàn Kiếm, Hà Nội, 11013",Hà Nội,Hà Nội,"Hanoi Blue Sky là khách sạn tại Hà Nội, Hà Nội.",Hanoi Blue Sky Du lịch khách sạn Hà Nội Hà Nội
HN_00165,Quán Bar 21 North,Ẩm thực,quán bar,21.0532288,105.8340964,"73 Phố Vũ Miện, Yên Phụ, Tây Hồ, Hà Nội, 11213",Hà Nội,Hà Nội,"Quán Bar 21 North là quán bar tại Hà Nội, Hà Nội.",Quán Bar 21 North Ẩm thực quán bar Hà Nội Hà Nội
HN_00166,Chợ Hoa Quảng Bá,Du lịch,chợ truyền thống,21.0682495,105.8272643,"Chợ Dân Sinh Quảng An, 238 Ngõ 238 đường Âu Cơ, Quảng An, Tây Hồ, Hà Nội, 11207",Hà Nội,Hà Nội,"Chợ Hoa Quảng Bá là chợ truyền thống tại Hà Nội, Hà Nội.",Chợ Hoa Quảng Bá Du lịch chợ truyền thống Hà Nội Hà Nội
HN_00167,Osihi,Ẩm thực,nhà hàng,21.0675537,105.8212455,"Đường Tô Ngọc Vân, Quảng An, Tây Hồ, Hà Nội, 11207",Hà Nội,Hà Nội,"Osihi là nhà hàng tại Hà Nội, Hà Nội.",Osihi Ẩm thực nhà hàng Hà Nội Hà Nội
HN_00168,Nhà Hàng Highway 4,Ẩm thực,nhà hàng,21.029439,105.8092811,"Quán Highway 4, Phố Kim Mã, Ngọc Khánh, Ba Đình, Hà Nội, 11109",Hà Nội,Hà Nội,"Nhà Hàng Highway 4 là nhà hàng tại Hà Nội, Hà Nội.",Nhà Hàng Highway 4 Ẩm thực nhà hàng Hà Nội Hà Nội
HN_00169,Khách Sạn Calypso Grand,Du lịch,khách sạn,21.0344421,105.8462418,"Hanoi Calyspo Hotel, 27 Phố Cửa Đông, Hà Nội Old Quarter, Cửa Đông, Hoàn Kiếm, Hà Nội",Hà Nội,Hà Nội,"Khách Sạn Calypso Grand là khách sạn tại Hà Nội, Hà Nội.",Khách Sạn Calypso Grand Du lịch khách sạn Hà Nội Hà Nội
HN_00170,Khách Sạn La Dolce Vita,Du lịch,khách sạn,21.0338037,105.8489454,"La Dolce Vita Hotel Private Enterprise, Ha Nội",,Hà Nội,"Khách Sạn La Dolce Vita là khách sạn tại , Hà Nội.",Khách Sạn La Dolce Vita Du lịch khách sạn  Hà Nội
HN_00171,Khách Sạn Danly,Du lịch,khách sạn,21.0326893,105.8088142,"Ngõ 24 Đào Tấn, Cống Vị, Ba Đình, Hà Nội, 11108",Hà Nội,Hà Nội,"Khách Sạn Danly là khách sạn tại Hà Nội, Hà Nội.",Khách Sạn Danly Du lịch khách sạn Hà Nội Hà Nội
HN_00172,Khách Sạn Mai,Du lịch,khách sạn,21.0332046,105.846031,"Quán Ăn Bún Bò Hải Sẹo, Hà Nội Old Quarter, Cửa Đông, Hoàn Kiếm, Hà Nội, 11016",Hà Nội,Hà Nội,"Khách Sạn Mai là khách sạn tại Hà Nội, Hà Nội.",Khách Sạn Mai Du lịch khách sạn Hà Nội Hà Nội
HN_00173,Khách Sạn Green Diamond,Du lịch,khách sạn,21.0340919,105.8515126,"100 Phố Hàng Bạc, Hà Nội Old Quarter, Hàng Bạc, Hoàn Kiếm, Hà Nội, 11011",Hà Nội,Hà Nội,"Khách Sạn Green Diamond là khách sạn tại Hà Nội, Hà Nội.",Khách Sạn Green Diamond Du lịch khách sạn Hà Nội Hà Nội
HN_00174,Nhà Hàng Gecko,Ẩm thực,nhà hàng,21.0337414,105.8481224,"Đăng Thường, 11 Phố Hàng Thiếc, Hà Nội Old Quarter, Hàng Gai, Hoàn Kiếm, Hà Nội, 11015",Hà Nội,Hà Nội,"Nhà Hàng Gecko là nhà hàng tại Hà Nội, Hà Nội.",Nhà Hàng Gecko Ẩm thực nhà hàng Hà Nội Hà Nội
HN_00175,Cà Phê Linh,Ẩm thực,quán cà phê,21.0356987,105.8513898,"Nhà Hàng Con Bướm Xanh, 61 Phố Hàng Buồm, Hà Nội Old Quarter, Hàng Buồm, Hoàn Kiếm, Hà Nội",Hà Nội,Hà Nội,"Cà Phê Linh là quán cà phê tại Hà Nội, Hà Nội.",Cà Phê Linh Ẩm thực quán cà phê Hà Nội Hà Nội
HN_00176,Media Central,Du lịch,khách sạn,21.0341357,105.8513362,"Tiệm Mỹ Nghệ Vàng Bạc Mỹ Lợi, 112 Phố Hàng Bạc, Hà Nội Old Quarter, Hàng Bạc, Hoàn Kiếm, Hà Nội, 11011",Hà Nội,Hà Nội,"Media Central là khách sạn tại Hà Nội, Hà Nội.",Media Central Du lịch khách sạn Hà Nội Hà Nội
HN_00177,Khách Sạn Asian Ruby,Du lịch,khách sạn,21.0346357,105.852058,"Quán Bia 20, Phố Tạ Hiện, Hà Nội Old Quarter, Hàng Buồm, Hoàn Kiếm, Hà Nội, 11010",Hà Nội,Hà Nội,"Khách Sạn Asian Ruby là khách sạn tại Hà Nội, Hà Nội.",Khách Sạn Asian Ruby Du lịch khách sạn Hà Nội Hà Nội
HN_00178,Khách Sạn Hanoi Moment,Du lịch,khách sạn,21.0346758,105.8497899,"Bún Ốc 21, 21 Phố Hàng Cân, Hà Nội Old Quarter, Hàng Đào, Hoàn Kiếm, Hà Nội, 11012",Hà Nội,Hà Nội,"Khách Sạn Hanoi Moment là khách sạn tại Hà Nội, Hà Nội.",Khách Sạn Hanoi Moment Du lịch khách sạn Hà Nội Hà Nội
HN_00179,Nhà Hàng Blue Butterfly,Ẩm thực,nhà hàng,21.0347487,105.8535038,"Nhà Hàng Blue Butterfly, 69 Phố Mã Mây, Hà Nội Old Quarter, Hàng Buồm, Hoàn Kiếm, Hà Nội, 11010",Hà Nội,Hà Nội,"Nhà Hàng Blue Butterfly là nhà hàng tại Hà Nội, Hà Nội.",Nhà Hàng Blue Butterfly Ẩm thực nhà hàng Hà Nội Hà Nội
HN_00180,Nhà Hàng Essence,Ẩm thực,nhà hàng,21.0345271,105.852037,"Dịch Vụ Sauna Massage Hương Sen, 22 Phố Tạ Hiện, Hà Nội Old Quarter, Hàng Buồm, Hoàn Kiếm, Hà Nội",Hà Nội,Hà Nội,"Nhà Hàng Essence là nhà hàng tại Hà Nội, Hà Nội.",Nhà Hàng Essence Ẩm thực nhà hàng Hà Nội Hà Nội
HN_00181,Khách Sạn Indochina Queen II,Du lịch,khách sạn,21.0346204,105.8481915,"Phòng Khám Đông Y Bác Sĩ Thịnh, 83 Phố Thuốc Bắc, Hà Nội Old Quarter, Hàng Bồ, Hoàn Kiếm, Hà Nội, 11014",Hà Nội,Hà Nội,"Khách Sạn Indochina Queen II là khách sạn tại Hà Nội, Hà Nội.",Khách Sạn Indochina Queen II Du lịch khách sạn Hà Nội Hà Nội
HN_00182,Oscar Hotel,Du lịch,khách sạn,21.0333615,105.8479638,"23 Phố Hàng Thiếc, Hà Nội Old Quarter, Hàng Gai, Hoàn Kiếm, Hà Nội, 11015",Hà Nội,Hà Nội,"Oscar Hotel là khách sạn tại Hà Nội, Hà Nội.",Oscar Hotel Du lịch khách sạn Hà Nội Hà Nội
HN_00183,Chả Cá Cà Cuống,Ẩm thực,nhà hàng,21.0356006,105.8492956,"Bánh Mì-Bánh Ngọt S-Hope Bakery, 15 Phố Chả Cá, Hà Nội Old Quarter, Hàng Đào, Hoàn Kiếm, Hà Nội, 11012",Hà Nội,Hà Nội,"Chả Cá Cà Cuống là nhà hàng tại Hà Nội, Hà Nội.",Chả Cá Cà Cuống Ẩm thực nhà hàng Hà Nội Hà Nội
HN_00184,Quoc Hoa Hanoi Hotel,Du lịch,khách sạn,21.0338392,105.8476882,"Quoc Hoa Hotel, Ha Nội",,Hà Nội,"Quoc Hoa Hanoi Hotel là khách sạn tại , Hà Nội.",Quoc Hoa Hanoi Hotel Du lịch khách sạn  Hà Nội
HN_00185,Khách Sạn Golden Sun Palace,Du lịch,khách sạn,21.0326664,105.8496242,"Bống, 21 Phố Hàng Quạt, Hà Nội Old Quarter, Hàng Gai, Hoàn Kiếm, Hà Nội, 11015",Hà Nội,Hà Nội,"Khách Sạn Golden Sun Palace là khách sạn tại Hà Nội, Hà Nội.",Khách Sạn Golden Sun Palace Du lịch khách sạn Hà Nội Hà Nội
HN_00186,Victory Hotel,Du lịch,khách sạn,21.0329421,105.8502358,"Fashion Mai Hảo, 1 Phố Hàng Quạt, Hà Nội Old Quarter, Hàng Gai, Hoàn Kiếm, Hà Nội, 11015",Hà Nội,Hà Nội,"Victory Hotel là khách sạn tại Hà Nội, Hà Nội.",Victory Hotel Du lịch khách sạn Hà Nội Hà Nội
HN_00187,Rainbow Hotel,Du lịch,khách sạn,21.0348688,105.8495282,"Fashion Show Nini, 16 Phố Hàng Cân, Hà Nội Old Quarter, Hàng Đào, Hoàn Kiếm, Hà Nội, 11012",Hà Nội,Hà Nội,"Rainbow Hotel là khách sạn tại Hà Nội, Hà Nội.",Rainbow Hotel Du lịch khách sạn Hà Nội Hà Nội
HN_00188,Khách Sạn A25,Du lịch,khách sạn,21.0331192,105.8477167,"36 Phố Hàng Thiếc, Hà Nội Old Quarter, Hàng Gai, Hoàn Kiếm, Hà Nội, 11015",Hà Nội,Hà Nội,"Khách Sạn A25 là khách sạn tại Hà Nội, Hà Nội.",Khách Sạn A25 Du lịch khách sạn Hà Nội Hà Nội
HN_00189,Cà Phê Aha,Ẩm thực,quán cà phê,21.0343276,105.8471067,"ATM - Ngân Hàng Sài Gòn - SCB, Hà Nội Old Quarter, Hàng Bồ, Hoàn Kiếm, Hà Nội",Hà Nội,Hà Nội,"Cà Phê Aha là quán cà phê tại Hà Nội, Hà Nội.",Cà Phê Aha Ẩm thực quán cà phê Hà Nội Hà Nội
HN_00190,Cà Phê Kiến,Ẩm thực,quán cà phê,21.0092618,105.8476382,"Công Ty Cổ Phần Chứng Khoán Sjc - Chi Nhánh Hà Nội, 10 Phố Hoa Lư, Hai Bà Trưng, Hà Nội, 11606",Hà Nội,Hà Nội,"Cà Phê Kiến là quán cà phê tại Hà Nội, Hà Nội.",Cà Phê Kiến Ẩm thực quán cà phê Hà Nội Hà Nội
HN_00191,Quán rượu Dân tộc,Ẩm thực,quán pub,21.0217027,105.8528801,"7B Phố Vọng Đức, Hàng Bài, Hoàn Kiếm, Hà Nội, 11020",Hà Nội,Hà Nội,"Quán rượu Dân tộc là quán pub tại Hà Nội, Hà Nội.",Quán rượu Dân tộc Ẩm thực quán pub Hà Nội Hà Nội
HN_00192,Khách Sạn Đông Thanh,Du lịch,khách sạn,21.034422,105.8463831,"27 Phố Cửa Đông, Hà Nội Old Quarter, Cửa Đông, Hoàn Kiếm, Hà Nội, 11016",Hà Nội,Hà Nội,"Khách Sạn Đông Thanh là khách sạn tại Hà Nội, Hà Nội.",Khách Sạn Đông Thanh Du lịch khách sạn Hà Nội Hà Nội
HN_00193,Cà Phê Aroi,Ẩm thực,quán cà phê,21.0344932,105.8471336,"In Nhung Trường, 73B Phố Hàng Gà, Hà Nội Old Quarter, Hàng Bồ, Hoàn Kiếm, Hà Nội, 11014",Hà Nội,Hà Nội,"Cà Phê Aroi là quán cà phê tại Hà Nội, Hà Nội.",Cà Phê Aroi Ẩm thực quán cà phê Hà Nội Hà Nội
HN_00194,Ngog Mai Hotel,Du lịch,khách sạn,21.0344071,105.8464358,"Icon 36 Hotel, 19 Phố Cửa Đông, Hà Nội Old Quarter, Cửa Đông, Hoàn Kiếm, Hà Nội, 11016",Hà Nội,Hà Nội,"Ngog Mai Hotel là khách sạn tại Hà Nội, Hà Nội.",Ngog Mai Hotel Du lịch khách sạn Hà Nội Hà Nội
HN_00195,Khách Sạn First Eden,Du lịch,khách sạn,21.0417959,105.8451291,"Atm Msb, Phố Hàng Bún, Nguyễn Trung Trực, Ba Đình, Hà Nội, 11115",Hà Nội,Hà Nội,"Khách Sạn First Eden là khách sạn tại Hà Nội, Hà Nội.",Khách Sạn First Eden Du lịch khách sạn Hà Nội Hà Nội
HN_00196,Quán Bar Bamboo,Ẩm thực,quán bar,21.0257273,105.8563025,"Sofitel Legend Metropole Hanoi, Ha Nội",,Hà Nội,"Quán Bar Bamboo là quán bar tại , Hà Nội.",Quán Bar Bamboo Ẩm thực quán bar  Hà Nội
HN_00197,Khách Sạn Green Park,Du lịch,khách sạn,21.0171605,105.848638,"Highlands Coffee, Phố Trần Nhân Tông, Nguyễn Du, Hai Bà Trưng, Hà Nội, 11614",Hà Nội,Hà Nội,"Khách Sạn Green Park là khách sạn tại Hà Nội, Hà Nội.",Khách Sạn Green Park Du lịch khách sạn Hà Nội Hà Nội
HN_00198,Cà Phê Mai,Ẩm thực,quán cà phê,21.0190238,105.8482211,"Dịch Vụ Phương Loan, 50 Phố Nguyễn Du, Trần Hưng Đạo, Hoàn Kiếm, Hà Nội",Hà Nội,Hà Nội,"Cà Phê Mai là quán cà phê tại Hà Nội, Hà Nội.",Cà Phê Mai Ẩm thực quán cà phê Hà Nội Hà Nội
HN_00199,Cơm Cường,Ẩm thực,nhà hàng,21.0174867,105.8484165,"Cơm Ngọc Cường, 14 Phố Nguyễn Bỉnh Khiêm, Nguyễn Du, Hai Bà Trưng, Hà Nội",Hà Nội,Hà Nội,"Cơm Cường là nhà hàng tại Hà Nội, Hà Nội.",Cơm Cường Ẩm thực nhà hàng Hà Nội Hà Nội
HN_00200,Quán Bia Hơi Cường Nga,Ẩm thực,quán pub,21.018964,105.8413005,"Cửa Hàng 136 Lê Duẩn, 136 Phố Khâm Tiên, Khâm Thiên, Đống Đa, Hà Nội, 11526",Hà Nội,Hà Nội,"Quán Bia Hơi Cường Nga là quán pub tại Hà Nội, Hà Nội.",Quán Bia Hơi Cường Nga Ẩm thực quán pub Hà Nội Hà Nội
HN_00201,Quán Bia Hơi Lan Chín,Ẩm thực,quán pub,21.0180126,105.858464,"Nhà Hàng Lan Chín, Phố Tăng Bạt Hổ, Phạm Đình Hổ, Hai Bà Trưng, Hà Nội, 11611",Hà Nội,Hà Nội,"Quán Bia Hơi Lan Chín là quán pub tại Hà Nội, Hà Nội.",Quán Bia Hơi Lan Chín Ẩm thực quán pub Hà Nội Hà Nội
HN_00202,Nhà Hàng New Sake 1,Ẩm thực,nhà hàng,21.0307862,105.8194213,"Kinh Đô Bar - Lounge Kyo, Phố Kim Mã, Giảng Võ, Ba Đình, Hà Nội",Hà Nội,Hà Nội,"Nhà Hàng New Sake 1 là nhà hàng tại Hà Nội, Hà Nội.",Nhà Hàng New Sake 1 Ẩm thực nhà hàng Hà Nội Hà Nội
HN_00203,PAKU PAKU(波食波食）,Ẩm thực,nhà hàng,21.0307817,105.8193586,"Nhà Hàng Tre Xanh 4, 101A5 Phố Kim Mã, Giảng Võ, Ba Đình, Hà Nội, 11110",Hà Nội,Hà Nội,"PAKU PAKU(波食波食） là nhà hàng tại Hà Nội, Hà Nội.",PAKU PAKU(波食波食） Ẩm thực nhà hàng Hà Nội Hà Nội
HN_00204,Pizza Hut,Ẩm thực,nhà hàng,21.0303431,105.8159146,"Công Ty TNHH Máy Lọc Nước Trường Tiền-Văn Phòng Đại Diện Thành Phố Hà Nội, 393 Phố Kim Mã, Ngọc Khánh, Ba Đình, Hà Nội, 11109",Hà Nội,Hà Nội,"Pizza Hut là nhà hàng tại Hà Nội, Hà Nội.",Pizza Hut Ẩm thực nhà hàng Hà Nội Hà Nội
HN_00205,Nhà Hàng Koto,Ẩm thực,nhà hàng,21.0296823,105.8102219,"Công Ty Chứng Khoán Thiên Việt, 535 Phố Kim Mã, Ngọc Khánh, Ba Đình, Hà Nội, 11109",Hà Nội,Hà Nội,"Nhà Hàng Koto là nhà hàng tại Hà Nội, Hà Nội.",Nhà Hàng Koto Ẩm thực nhà hàng Hà Nội Hà Nội
HN_00206,Nhà Hàng Kurama(蔵馬）,Ẩm thực,nhà hàng,21.029746,105.810586,"Quần Áo Trang Hannah, 529 Phố Kim Mã, Ngọc Khánh, Ba Đình, Hà Nội, 11109",Hà Nội,Hà Nội,"Nhà Hàng Kurama(蔵馬） là nhà hàng tại Hà Nội, Hà Nội.",Nhà Hàng Kurama(蔵馬） Ẩm thực nhà hàng Hà Nội Hà Nội
HN_00207,Totoya(ととや）,Ẩm thực,nhà hàng,21.029967,105.812293,"Nem, 503 Phố Kim Mã, Ngọc Khánh, Ba Đình, Hà Nội, 11109",Hà Nội,Hà Nội,"Totoya(ととや） là nhà hàng tại Hà Nội, Hà Nội.",Totoya(ととや） Ẩm thực nhà hàng Hà Nội Hà Nội
HN_00208,Izakaya Yancha,Ẩm thực,nhà hàng,21.0294166,105.8090898,"Quán Trà Đạo F28 Club, 581 Phố Kim Mã, Ngọc Khánh, Ba Đình, Hà Nội, 11109",Hà Nội,Hà Nội,"Izakaya Yancha là nhà hàng tại Hà Nội, Hà Nội.",Izakaya Yancha Ẩm thực nhà hàng Hà Nội Hà Nội
HN_00209,Kitaguni,Ẩm thực,nhà hàng,21.0292029,105.8074289,"Cửa Hàng Thực Phẩm Và Ăn Uống Oregano, 637A Phố Kim Mã, Ngọc Khánh, Ba Đình, Hà Nội, 11109",Hà Nội,Hà Nội,"Kitaguni là nhà hàng tại Hà Nội, Hà Nội.",Kitaguni Ẩm thực nhà hàng Hà Nội Hà Nội
HN_00210,Ofukuro,Ẩm thực,nhà hàng,21.0285111,105.806208,"Tiệm Bánh Riz Auster, Đường La Thành, Ngọc Khánh, Ba Đình, Hà Nội, 11109",Hà Nội,Hà Nội,"Ofukuro là nhà hàng tại Hà Nội, Hà Nội.",Ofukuro Ẩm thực nhà hàng Hà Nội Hà Nội
HN_00211,Khách Sạn Hanoi Holiday Silver,Du lịch,khách sạn,21.0295372,105.8488609,"Hanoi Lucky Hotel, 11 Ngõ Huyện, Hàng Trống, Hoàn Kiếm, Hà Nội",Hà Nội,Hà Nội,"Khách Sạn Hanoi Holiday Silver là khách sạn tại Hà Nội, Hà Nội.",Khách Sạn Hanoi Holiday Silver Du lịch khách sạn Hà Nội Hà Nội
HN_00212,Khách Sạn Hanoi 3B,Du lịch,khách sạn,21.0342102,105.8535067,"97 Phố Mã Mây, Hà Nội Old Quarter, Hàng Buồm, Hoàn Kiếm, Hà Nội, 11010",Hà Nội,Hà Nội,"Khách Sạn Hanoi 3B là khách sạn tại Hà Nội, Hà Nội.",Khách Sạn Hanoi 3B Du lịch khách sạn Hà Nội Hà Nội
HN_00213,Khách Sạn Friendly Backpacker,Du lịch,khách sạn,21.0346404,105.8544732,"7 Phố Nguyễn Hữu Huân, Lý Thái Tổ, Hoàn Kiếm, Hà Nội, 11007",Hà Nội,Hà Nội,"Khách Sạn Friendly Backpacker là khách sạn tại Hà Nội, Hà Nội.",Khách Sạn Friendly Backpacker Du lịch khách sạn Hà Nội Hà Nội
HN_00214,Chợ Phùng Khoang,Du lịch,chợ truyền thống,20.9858966,105.7937986,"Phố Phùng Khoang, Trung Văn, Quận Nam Từ Liêm, Hà Nội, 12011",Hà Nội,Hà Nội,"Chợ Phùng Khoang là chợ truyền thống tại Hà Nội, Hà Nội.",Chợ Phùng Khoang Du lịch chợ truyền thống Hà Nội Hà Nội
HN_00215,Khách Sạn Golden Cyclo,Du lịch,khách sạn,21.030567,105.845517,"Tiệm Bánh Crepe Cake, Ngõ Trạm, Hà Nội Old Quarter, Hàng Bông, Hoàn Kiếm, Hà Nội, 11017",Hà Nội,Hà Nội,"Khách Sạn Golden Cyclo là khách sạn tại Hà Nội, Hà Nội.",Khách Sạn Golden Cyclo Du lịch khách sạn Hà Nội Hà Nội
HN_00216,Khách Sạn Art Trendy,Du lịch,khách sạn,21.0349537,105.8480111,"Hair Salon Sang Sài Gòn, 4A Phố Hàng Bút, Hà Nội Old Quarter, Hàng Bồ, Hoàn Kiếm, Hà Nội, 11014",Hà Nội,Hà Nội,"Khách Sạn Art Trendy là khách sạn tại Hà Nội, Hà Nội.",Khách Sạn Art Trendy Du lịch khách sạn Hà Nội Hà Nội
HN_00217,Tu Linh Palace Hotel,Du lịch,khách sạn,21.0364254,105.8470343,"Quán Cafe Đậu Đỏ, 2 Phố Hàng Gà, Hà Nội Old Quarter, Hàng Bồ, Hoàn Kiếm, Hà Nội, 11014",Hà Nội,Hà Nội,"Tu Linh Palace Hotel là khách sạn tại Hà Nội, Hà Nội.",Tu Linh Palace Hotel Du lịch khách sạn Hà Nội Hà Nội
HN_00218,True Viet,Ẩm thực,nhà hàng,21.0645792,105.8313838,"Nhà Hàng True Viet, 156 Đường Âu Cơ, Tứ Liên, Tây Hồ, Hà Nội, 11208",Hà Nội,Hà Nội,"True Viet là nhà hàng tại Hà Nội, Hà Nội.",True Viet Ẩm thực nhà hàng Hà Nội Hà Nội
HN_00219,Cà Phê Giang,Ẩm thực,quán cà phê,21.041456,105.848997,"Cafe Giang 1946, Đường Trần Nhật Duật, Nguyễn Trung Trực, Ba Đình, Hà Nội, 11009",Hà Nội,Hà Nội,"Cà Phê Giang là quán cà phê tại Hà Nội, Hà Nội.",Cà Phê Giang Ẩm thực quán cà phê Hà Nội Hà Nội
HN_00220,Minh's Jazz Club,Ẩm thực,quán pub,21.0239498,105.8448963,"Golden Key Hotel Hanoi, Ha Nội",,Hà Nội,"Minh's Jazz Club là quán pub tại , Hà Nội.",Minh's Jazz Club Ẩm thực quán pub  Hà Nội
HN_00221,Khách Sạn Cầu Giấy,Du lịch,khách sạn,21.0325542,105.7992324,"Ngõ 132 Cầu Giấy, Cầu Giấy, Hà Nội, 11306",Hà Nội,Hà Nội,"Khách Sạn Cầu Giấy là khách sạn tại Hà Nội, Hà Nội.",Khách Sạn Cầu Giấy Du lịch khách sạn Hà Nội Hà Nội
HN_00222,Quán Ăn Nhanh Lam Giang,Ẩm thực,nhà hàng,20.9790479,105.7830759,"25 Ngách 108/43 Trần Phú, Mộ Lao, Hà Đông, Hà Nội, 12110",Hà Nội,Hà Nội,"Quán Ăn Nhanh Lam Giang là nhà hàng tại Hà Nội, Hà Nội.",Quán Ăn Nhanh Lam Giang Ẩm thực nhà hàng Hà Nội Hà Nội
HN_00223,Santa Barbara Hotel,Du lịch,khách sạn,21.0411871,105.8444866,"Santa Barbara, Ha Nội",,Hà Nội,"Santa Barbara Hotel là khách sạn tại , Hà Nội.",Santa Barbara Hotel Du lịch khách sạn  Hà Nội
HN_00224,Cà Phê Chuối,Ẩm thực,quán cà phê,21.0131504,105.8617279,"Nails It, 9A Phố Lê Quý Đôn, Bạch Đằng, Hai Bà Trưng, Hà Nội, 11610",Hà Nội,Hà Nội,"Cà Phê Chuối là quán cà phê tại Hà Nội, Hà Nội.",Cà Phê Chuối Ẩm thực quán cà phê Hà Nội Hà Nội
HN_00225,Khách Sạn Hồ Hoàn Kiếm,Du lịch,khách sạn,21.0305634,105.8495539,"Brilliant Hotel, Hàng Trống, Hoàn Kiếm, Hà Nội, 11006",Hà Nội,Hà Nội,"Khách Sạn Hồ Hoàn Kiếm là khách sạn tại Hà Nội, Hà Nội.",Khách Sạn Hồ Hoàn Kiếm Du lịch khách sạn Hà Nội Hà Nội
HN_00226,Phở Cường,Ẩm thực,nhà hàng,21.0339341,105.8548223,"Quán Cơm Gia Đình Lan, 25 Phố Hàng Muối, Lý Thái Tổ, Hoàn Kiếm, Hà Nội, 11007",Hà Nội,Hà Nội,"Phở Cường là nhà hàng tại Hà Nội, Hà Nội.",Phở Cường Ẩm thực nhà hàng Hà Nội Hà Nội
HN_00227,Khách Sạn Moon View,Du lịch,khách sạn,21.042821,105.8428755,"Nhà Thuốc Hải Linh, 61 Phố Cửa Bắc, Trúc Bạch, Ba Đình, Hà Nội, 11117",Hà Nội,Hà Nội,"Khách Sạn Moon View là khách sạn tại Hà Nội, Hà Nội.",Khách Sạn Moon View Du lịch khách sạn Hà Nội Hà Nội
HN_00228,Cầu Mậu Lương,Du lịch,địa điểm du lịch,20.952708,105.786903,"Đường Phúc La Văn Phú, Kiến Hưng, Hà Đông, Hà Nội, 12121",Hà Nội,Hà Nội,"Cầu Mậu Lương là địa điểm du lịch tại Hà Nội, Hà Nội.",Cầu Mậu Lương Du lịch địa điểm du lịch Hà Nội Hà Nội
HN_00229,Cà Phê Yến,Ẩm thực,quán cà phê,20.9799784,105.7954967,"Tiệm Sửa Xe Máy, 134 Đường Chiến Thắng, Tân Triều, Hà Đông, Hà Nội",Hà Nội,Hà Nội,"Cà Phê Yến là quán cà phê tại Hà Nội, Hà Nội.",Cà Phê Yến Ẩm thực quán cà phê Hà Nội Hà Nội
HN_00230,Bảo tàng Binh chủng Thông tin liên lạc,Du lịch,bảo tàng,21.0303429,105.8266305,"23 Phố Giang Văn Minh, Kim Mã, Ba Đình, Hà Nội, 11112",Hà Nội,Hà Nội,"Bảo tàng Binh chủng Thông tin liên lạc là bảo tàng tại Hà Nội, Hà Nội.",Bảo tàng Binh chủng Thông tin liên lạc Du lịch bảo tàng Hà Nội Hà Nội
HN_00231,Khách Sạn Marriotte Ibiz City Hotel,Du lịch,khách sạn,21.0347635,105.8518089,"49 Phố Lương Ngọc Quyến, Hà Nội Old Quarter, Hàng Buồm, Hoàn Kiếm, Hà Nội, 11010",Hà Nội,Hà Nội,"Khách Sạn Marriotte Ibiz City Hotel là khách sạn tại Hà Nội, Hà Nội.",Khách Sạn Marriotte Ibiz City Hotel Du lịch khách sạn Hà Nội Hà Nội
HN_00232,Nhà Khách Madam Moon 2,Du lịch,khách sạn,21.0315703,105.8506713,"Khách Sạn Hiếu Linh, 13 Ngõ Hàng Hành, Hàng Trống, Hoàn Kiếm, Hà Nội, 11006",Hà Nội,Hà Nội,"Nhà Khách Madam Moon 2 là khách sạn tại Hà Nội, Hà Nội.",Nhà Khách Madam Moon 2 Du lịch khách sạn Hà Nội Hà Nội
HN_00233,Nhà Khách Hanoi Guesthouse,Du lịch,khách sạn,21.0344162,105.8535098,"Nhà Cổ Mã Mây, 87 Phố Mã Mây, Hà Nội Old Quarter, Hàng Buồm, Hoàn Kiếm, Hà Nội, 11010",Hà Nội,Hà Nội,"Nhà Khách Hanoi Guesthouse là khách sạn tại Hà Nội, Hà Nội.",Nhà Khách Hanoi Guesthouse Du lịch khách sạn Hà Nội Hà Nội
HN_00234,Highlands Coffee,Ẩm thực,quán cà phê,21.0188481,105.8249754,"Phố Hoàng Cầu, Ô Chợ Dừa, Đống Đa, Hà Nội, 11511",Hà Nội,Hà Nội,"Highlands Coffee là quán cà phê tại Hà Nội, Hà Nội.",Highlands Coffee Ẩm thực quán cà phê Hà Nội Hà Nội
HN_00235,Khách Sạn Hanoi Golden Moon,Du lịch,khách sạn,21.0327085,105.8545846,"Bưu Điện, 67 Phố Nguyễn Hữu Huân, Lý Thái Tổ, Hoàn Kiếm, Hà Nội, 11007",Hà Nội,Hà Nội,"Khách Sạn Hanoi Golden Moon là khách sạn tại Hà Nội, Hà Nội.",Khách Sạn Hanoi Golden Moon Du lịch khách sạn Hà Nội Hà Nội
HN_00236,San Ho,Ẩm thực,nhà hàng,21.0249031,105.8452599,"Phố Lý Thường Kiệt, Trần Hưng Đạo, Hoàn Kiếm, Hà Nội, 11019",Hà Nội,Hà Nội,"San Ho là nhà hàng tại Hà Nội, Hà Nội.",San Ho Ẩm thực nhà hàng Hà Nội Hà Nội
HN_00237,Khách Sạn Medallion,Du lịch,khách sạn,21.0360324,105.8532614,"Medallion Hanoi Hotel, 11 Phố Mã Mây, Hà Nội Old Quarter, Hàng Buồm, Hoàn Kiếm, Hà Nội",Hà Nội,Hà Nội,"Khách Sạn Medallion là khách sạn tại Hà Nội, Hà Nội.",Khách Sạn Medallion Du lịch khách sạn Hà Nội Hà Nội
HN_00238,Lavender Central Hotel,Du lịch,khách sạn,21.0337956,105.8530368,"45 Phố Hàng Bạc, Hà Nội Old Quarter, Hàng Bạc, Hoàn Kiếm, Hà Nội, 11011",Hà Nội,Hà Nội,"Lavender Central Hotel là khách sạn tại Hà Nội, Hà Nội.",Lavender Central Hotel Du lịch khách sạn Hà Nội Hà Nội
HN_00239,Oriental Suites Hotel,Du lịch,khách sạn,21.0330899,105.8510332,"Thời Trang Giang Sơn, 70 Phố Hàng Đào, Hà Nội Old Quarter, Hàng Đào, Hoàn Kiếm, Hà Nội, 11012",Hà Nội,Hà Nội,"Oriental Suites Hotel là khách sạn tại Hà Nội, Hà Nội.",Oriental Suites Hotel Du lịch khách sạn Hà Nội Hà Nội
HN_00240,Khách Sạn Art Boutique,Du lịch,khách sạn,21.0323445,105.8469581,"63 Phố Hàng Điếu, Hà Nội Old Quarter, Cửa Đông, Hoàn Kiếm, Hà Nội, 11016",Hà Nội,Hà Nội,"Khách Sạn Art Boutique là khách sạn tại Hà Nội, Hà Nội.",Khách Sạn Art Boutique Du lịch khách sạn Hà Nội Hà Nội
HN_00241,Hanoi La Palm Premier Hotel & Spa,Du lịch,khách sạn,21.0325304,105.8493275,"Cafe Red Darling, 33 Phố Hàng Quạt, Hà Nội Old Quarter, Hàng Gai, Hoàn Kiếm, Hà Nội, 11015",Hà Nội,Hà Nội,"Hanoi La Palm Premier Hotel & Spa là khách sạn tại Hà Nội, Hà Nội.",Hanoi La Palm Premier Hotel & Spa Du lịch khách sạn Hà Nội Hà Nội
HN_00242,Trung Nguyên Coffee,Ẩm thực,quán cà phê,21.0347133,105.8523133,"Phố Lương Ngọc Quyến, Hà Nội Old Quarter, Hàng Buồm, Hoàn Kiếm, Hà Nội, 11010",Hà Nội,Hà Nội,"Trung Nguyên Coffee là quán cà phê tại Hà Nội, Hà Nội.",Trung Nguyên Coffee Ẩm thực quán cà phê Hà Nội Hà Nội
HN_00243,Nhà Hàng La Bicicleta - Barcelona Bistro,Ẩm thực,nhà hàng,21.061389,105.8273413,"48 Ngách 31/38 Xuân Diệu, Quảng An, Tây Hồ, Hà Nội, 11207",Hà Nội,Hà Nội,"Nhà Hàng La Bicicleta - Barcelona Bistro là nhà hàng tại Hà Nội, Hà Nội.",Nhà Hàng La Bicicleta - Barcelona Bistro Ẩm thực nhà hàng Hà Nội Hà Nội
HN_00244,The Palmy Hotel & Spa,Du lịch,khách sạn,21.0305847,105.8501334,"Hà Nội Pearl Hotel, 6 Ngõ Báo Khánh, Hàng Trống, Hoàn Kiếm, Hà Nội, 11006",Hà Nội,Hà Nội,"The Palmy Hotel & Spa là khách sạn tại Hà Nội, Hà Nội.",The Palmy Hotel & Spa Du lịch khách sạn Hà Nội Hà Nội
HN_00245,NP Green,Ẩm thực,nhà hàng,21.0348897,105.8538788,"Viola Royal Hotel, 6 Phố Lương Ngọc Quyến, Hà Nội Old Quarter, Hàng Buồm, Hoàn Kiếm, Hà Nội, 11010",Hà Nội,Hà Nội,"NP Green là nhà hàng tại Hà Nội, Hà Nội.",NP Green Ẩm thực nhà hàng Hà Nội Hà Nội
HN_00246,Bún Đậu Phố Cổ,Ẩm thực,khu ẩm thực,21.0229285,105.8161781,"Quán Minh Đức, 48 Phố Thành Công, Thành Công, Ba Đình, Hà Nội",Hà Nội,Hà Nội,"Bún Đậu Phố Cổ là khu ẩm thực tại Hà Nội, Hà Nội.",Bún Đậu Phố Cổ Ẩm thực khu ẩm thực Hà Nội Hà Nội
HN_00247,Nhà Hàng Wa Japanese Cuisine,Ẩm thực,nhà hàng,21.049334,105.839318,"Phụ Kiện Xe Đạp, 3 Phố Trúc Bạch, Trúc Bạch, Ba Đình, Hà Nội, 11117",Hà Nội,Hà Nội,"Nhà Hàng Wa Japanese Cuisine là nhà hàng tại Hà Nội, Hà Nội.",Nhà Hàng Wa Japanese Cuisine Ẩm thực nhà hàng Hà Nội Hà Nội
HN_00248,Khách Sạn Aurora,Du lịch,khách sạn,21.0349803,105.8531725,"49 Phố Đào Duy Từ, Hà Nội Old Quarter, Hàng Buồm, Hoàn Kiếm, Hà Nội, 11010",Hà Nội,Hà Nội,"Khách Sạn Aurora là khách sạn tại Hà Nội, Hà Nội.",Khách Sạn Aurora Du lịch khách sạn Hà Nội Hà Nội
HN_00249,Chợ Nhân Chính,Du lịch,chợ truyền thống,20.9983875,105.8093027,"Phòng Khám Răng Hàm Mặt Bác Sĩ Nga, Phố Quan Nhân, Thanh Xuân Trung, Thanh Xuân, Hà Nội, 11416",Hà Nội,Hà Nội,"Chợ Nhân Chính là chợ truyền thống tại Hà Nội, Hà Nội.",Chợ Nhân Chính Du lịch chợ truyền thống Hà Nội Hà Nội
HN_00250,Nhà Hàng Da Paolo Westlake,Ẩm thực,nhà hàng,21.0551789,105.82136,"Maxx Coffee 17, Quảng An, Tây Hồ, Hà Nội, 11207",Hà Nội,Hà Nội,"Nhà Hàng Da Paolo Westlake là nhà hàng tại Hà Nội, Hà Nội.",Nhà Hàng Da Paolo Westlake Ẩm thực nhà hàng Hà Nội Hà Nội
HN_00251,Twitterbeans Coffee,Ẩm thực,quán cà phê,21.0305112,105.7848108,"Công Ty Tnhh Dịch Thuật Chuyên Nghiệp Win-Win, 9 Phố Duy Tân, Dịch Vọng Hậu, Cầu Giấy, Hà Nội, 11310",Hà Nội,Hà Nội,"Twitterbeans Coffee là quán cà phê tại Hà Nội, Hà Nội.",Twitterbeans Coffee Ẩm thực quán cà phê Hà Nội Hà Nội
HN_00252,Twitterbeans Coffee,Ẩm thực,quán cà phê,21.0030132,105.7931707,"Chung Jung Won Mart, Trung Hòa, Cầu Giấy, Hà Nội, 11313",Hà Nội,Hà Nội,"Twitterbeans Coffee là quán cà phê tại Hà Nội, Hà Nội.",Twitterbeans Coffee Ẩm thực quán cà phê Hà Nội Hà Nội
HN_00253,TwitterBeans Coffee,Ẩm thực,quán cà phê,21.0068031,105.8035686,"ATM - Ngân Hàng ANZ, Phố Hoàng Đạo Thúy, Trung Hòa, Thanh Xuân, Hà Nội, 11415",Hà Nội,Hà Nội,"TwitterBeans Coffee là quán cà phê tại Hà Nội, Hà Nội.",TwitterBeans Coffee Ẩm thực quán cà phê Hà Nội Hà Nội
HN_00254,Cà Phê 46,Ẩm thực,quán cà phê,21.0448185,105.7992606,"Cafe 46, 46 Phố Hoàng Sâm, Nghĩa Đô, Cầu Giấy, Hà Nội",Hà Nội,Hà Nội,"Cà Phê 46 là quán cà phê tại Hà Nội, Hà Nội.",Cà Phê 46 Ẩm thực quán cà phê Hà Nội Hà Nội
HN_00255,Quán Bia Hơi 234,Ẩm thực,quán bar,21.045403,105.7992694,"Quán Ăn, 20 Phố Hoàng Sâm, Nghĩa Đô, Cầu Giấy, Hà Nội",Hà Nội,Hà Nội,"Quán Bia Hơi 234 là quán bar tại Hà Nội, Hà Nội.",Quán Bia Hơi 234 Ẩm thực quán bar Hà Nội Hà Nội
HN_00256,True Coffee,Ẩm thực,quán cà phê,21.0440864,105.7992714,"84 Phố Hoàng Sâm, Nghĩa Đô, Cầu Giấy, Hà Nội, 11307",Hà Nội,Hà Nội,"True Coffee là quán cà phê tại Hà Nội, Hà Nội.",True Coffee Ẩm thực quán cà phê Hà Nội Hà Nội
HN_00257,Tirant Hotel,Du lịch,khách sạn,21.0331407,105.8524023,"Đặc Sản Mắm Tép Chưng Thịt Bà Phán Thái Lan, Phố Gia Ngư, Hà Nội Old Quarter, Hàng Bạc, Hoàn Kiếm, Hà Nội, 11011",Hà Nội,Hà Nội,"Tirant Hotel là khách sạn tại Hà Nội, Hà Nội.",Tirant Hotel Du lịch khách sạn Hà Nội Hà Nội
HN_00258,Khách Sạn Hanoi Holiday Gold,Du lịch,khách sạn,21.0317751,105.8482993,"Holiday Gold Hotel, Ha Nội",,Hà Nội,"Khách Sạn Hanoi Holiday Gold là khách sạn tại , Hà Nội.",Khách Sạn Hanoi Holiday Gold Du lịch khách sạn  Hà Nội
HN_00259,Nhà Hàng Foodshop 45,Ẩm thực,nhà hàng,21.0479061,105.8414891,"Phố Trúc Bạch, Trúc Bạch, Ba Đình, Hà Nội, 11117",Hà Nội,Hà Nội,"Nhà Hàng Foodshop 45 là nhà hàng tại Hà Nội, Hà Nội.",Nhà Hàng Foodshop 45 Ẩm thực nhà hàng Hà Nội Hà Nội
HN_00260,Quán Cơm Mậu Dịch,Ẩm thực,nhà hàng,21.0455452,105.8405476,"Phòng Khám Răng Hàm Mặt Dental Clinic, 45 Phố Nam Tràng, Trúc Bạch, Ba Đình, Hà Nội, 11117",Hà Nội,Hà Nội,"Quán Cơm Mậu Dịch là nhà hàng tại Hà Nội, Hà Nội.",Quán Cơm Mậu Dịch Ẩm thực nhà hàng Hà Nội Hà Nội
HN_00261,Quan An Ngon,Ẩm thực,nhà hàng,21.0406918,105.8425141,"Nhà Hàng Kem Cool Teen, Phố Phan Đình Phùng, Quán Thánh, Ba Đình, Hà Nội, 11118",Hà Nội,Hà Nội,"Quan An Ngon là nhà hàng tại Hà Nội, Hà Nội.",Quan An Ngon Ẩm thực nhà hàng Hà Nội Hà Nội
HN_00262,Bánh Mì 25,Ẩm thực,quán thức ăn nhanh,21.0360802,105.8486929,"Thời Trang Kid's Corner, 23 Phố Hàng Cá, Hà Nội Old Quarter, Hàng Bồ, Hoàn Kiếm, Hà Nội, 11012",Hà Nội,Hà Nội,"Bánh Mì 25 là quán thức ăn nhanh tại Hà Nội, Hà Nội.",Bánh Mì 25 Ẩm thực quán thức ăn nhanh Hà Nội Hà Nội
HN_00263,Khách Sạn Box,Du lịch,khách sạn,21.03609,105.8525434,"Bar - Café - Fast Food Phương Thảo, 8 Phố Hàng Buồm, Hà Nội Old Quarter, Hàng Buồm, Hoàn Kiếm, Hà Nội, 11010",Hà Nội,Hà Nội,"Khách Sạn Box là khách sạn tại Hà Nội, Hà Nội.",Khách Sạn Box Du lịch khách sạn Hà Nội Hà Nội
HN_00264,Nhà Khách Drift Backpackers,Du lịch,nhà khách/homestay,21.0345089,105.84749,"Shop My Kitty, 47 Phố Bát Sứ, Hà Nội Old Quarter, Hàng Bồ, Hoàn Kiếm, Hà Nội, 11014",Hà Nội,Hà Nội,"Nhà Khách Drift Backpackers là nhà khách/homestay tại Hà Nội, Hà Nội.",Nhà Khách Drift Backpackers Du lịch nhà khách/homestay Hà Nội Hà Nội
HN_00265,Cà Phê Việt,Ẩm thực,quán cà phê,21.0178206,105.7972188,"Viet Coffee, 6 Phố Trần Kim Xuyến, Yên Hòa, Cầu Giấy, Hà Nội, 11312",Hà Nội,Hà Nội,"Cà Phê Việt là quán cà phê tại Hà Nội, Hà Nội.",Cà Phê Việt Ẩm thực quán cà phê Hà Nội Hà Nội
HN_00266,Phở 24,Ẩm thực,nhà hàng,21.0178536,105.7960898,"Cafe Nhạc Xưa-Xe Cổ, 7 Phố Trần Kim Xuyến, Yên Hòa, Cầu Giấy, Hà Nội, 11312",Hà Nội,Hà Nội,"Phở 24 là nhà hàng tại Hà Nội, Hà Nội.",Phở 24 Ẩm thực nhà hàng Hà Nội Hà Nội
HN_00267,R&R Tavern,Ẩm thực,quán bar,21.0561475,105.836556,"Giặt Ủi Ong Mật, Đường Nghi Tàm, Yên Phụ, Tây Hồ, Hà Nội, 11213",Hà Nội,Hà Nội,"R&R Tavern là quán bar tại Hà Nội, Hà Nội.",R&R Tavern Ẩm thực quán bar Hà Nội Hà Nội
HN_00268,Onion Cellar Ham Hanh,Ẩm thực,quán cà phê,21.0347878,105.8255659,"Không Gian Sách Quản Trị Kinh Doanh, 164B Phố Đội Cấn, Đội Cấn, Ba Đình, Hà Nội, 11113",Hà Nội,Hà Nội,"Onion Cellar Ham Hanh là quán cà phê tại Hà Nội, Hà Nội.",Onion Cellar Ham Hanh Ẩm thực quán cà phê Hà Nội Hà Nội
HN_00269,Manzi Art Space and Cafe,Ẩm thực,quán cà phê,21.0414885,105.8455896,"Công Ty Tnhh Đầu Tư Và Tổng Hợp Nhật Anh, Nguyễn Trung Trực, Ba Đình, Hà Nội, 11115",Hà Nội,Hà Nội,"Manzi Art Space and Cafe là quán cà phê tại Hà Nội, Hà Nội.",Manzi Art Space and Cafe Ẩm thực quán cà phê Hà Nội Hà Nội
HN_00270,Windmill microbrewery pub,Ẩm thực,quán pub,21.0268782,105.8329725,"Nhà Hàng Cối Xay Gió, 31 Phố Đặng Trần Côn, Quốc Tử Giám, Đống Đa, Hà Nội, 11509",Hà Nội,Hà Nội,"Windmill microbrewery pub là quán pub tại Hà Nội, Hà Nội.",Windmill microbrewery pub Ẩm thực quán pub Hà Nội Hà Nội
HN_00271,Quán Beer 2ku,Ẩm thực,quán bar,21.0437015,105.8223081,"Tiệm Gà Tràng An, Đường Ven Hồ, Thụy Khuê, Tây Hồ, Hà Nội, 11212",Hà Nội,Hà Nội,"Quán Beer 2ku là quán bar tại Hà Nội, Hà Nội.",Quán Beer 2ku Ẩm thực quán bar Hà Nội Hà Nội
HN_00272,Lẩu Gà Ó O - Chicken Hotpot,Ẩm thực,nhà hàng,21.0014898,105.8042979,"Quán Cơm Đông Bắc Cơ Sở 2, 89 Phố Ngụy Như Kon Tum, Nhân Chính, Thanh Xuân, Hà Nội, 11415",Hà Nội,Hà Nội,"Lẩu Gà Ó O - Chicken Hotpot là nhà hàng tại Hà Nội, Hà Nội.",Lẩu Gà Ó O - Chicken Hotpot Ẩm thực nhà hàng Hà Nội Hà Nội
HN_00273,Nhà Hàng Moto-san,Ẩm thực,nhà hàng,21.0254125,105.8577493,"Phố Lý Đạo Thành, Tràng Tiền, Hoàn Kiếm, Hà Nội, 11022",Hà Nội,Hà Nội,"Nhà Hàng Moto-san là nhà hàng tại Hà Nội, Hà Nội.",Nhà Hàng Moto-san Ẩm thực nhà hàng Hà Nội Hà Nội
HN_00274,Tadioto Bar,Ẩm thực,quán bar,21.0256893,105.8578211,"Quán Café - Bar Manneken Pis, 24 Phố Tông Đản, Tràng Tiền, Hoàn Kiếm, Hà Nội, 11022",Hà Nội,Hà Nội,"Tadioto Bar là quán bar tại Hà Nội, Hà Nội.",Tadioto Bar Ẩm thực quán bar Hà Nội Hà Nội
HN_00275,The Hanoi Social Club,Ẩm thực,quán cà phê,21.0291515,105.8461905,"Hair Salon Minh Nguyệt, 18 Ngõ Hội Vũ, Hàng Bông, Hoàn Kiếm, Hà Nội, 11017",Hà Nội,Hà Nội,"The Hanoi Social Club là quán cà phê tại Hà Nội, Hà Nội.",The Hanoi Social Club Ẩm thực quán cà phê Hà Nội Hà Nội
HN_00276,Nhà Hàng Kamasutra,Ẩm thực,nhà hàng,21.0343488,105.8474994,"Phố Hàng Phèn, Hà Nội Old Quarter, Hàng Bồ, Hoàn Kiếm, Hà Nội, 11014",Hà Nội,Hà Nội,"Nhà Hàng Kamasutra là nhà hàng tại Hà Nội, Hà Nội.",Nhà Hàng Kamasutra Ẩm thực nhà hàng Hà Nội Hà Nội
HN_00277,Cà Phê Goethe,Ẩm thực,quán cà phê,21.030058,105.8378196,"Cafe Goethe, 56 Phố Nguyễn Thái Học, Điện Biên, Ba Đình, Hà Nội, 11114",Hà Nội,Hà Nội,"Cà Phê Goethe là quán cà phê tại Hà Nội, Hà Nội.",Cà Phê Goethe Ẩm thực quán cà phê Hà Nội Hà Nội
HN_00278,Quán Thị Mẹt,Ẩm thực,nhà hàng,20.9969779,105.8459666,"Coffee 23, 23 Ngách 126E/19 phố Đại La, Đồng Tâm, Hai Bà Trưng, Hà Nội, 11616",Hà Nội,Hà Nội,"Quán Thị Mẹt là nhà hàng tại Hà Nội, Hà Nội.",Quán Thị Mẹt Ẩm thực nhà hàng Hà Nội Hà Nội
HN_00279,Quán Thị Mẹt,Ẩm thực,nhà hàng,21.0185659,105.8230246,"24 Phố Mai Anh Tuấn, Ô Chợ Dừa, Đống Đa, Hà Nội, 11511",Hà Nội,Hà Nội,"Quán Thị Mẹt là nhà hàng tại Hà Nội, Hà Nội.",Quán Thị Mẹt Ẩm thực nhà hàng Hà Nội Hà Nội
HN_00280,Nhà hàng Yumi,Ẩm thực,nhà hàng,21.0151072,105.7814958,"Quán Gió Kengnam, 20-BT1 Phố Mễ Trì Hạ, Mễ Trì, Quận Nam Từ Liêm, Hà Nội, 12012",Hà Nội,Hà Nội,"Nhà hàng Yumi là nhà hàng tại Hà Nội, Hà Nội.",Nhà hàng Yumi Ẩm thực nhà hàng Hà Nội Hà Nội
HN_00281,Cà Phê Lion,Ẩm thực,quán cà phê,21.001284,105.8039288,"Phố Ngụy Như Kon Tum, Nhân Chính, Thanh Xuân, Hà Nội, 11415",Hà Nội,Hà Nội,"Cà Phê Lion là quán cà phê tại Hà Nội, Hà Nội.",Cà Phê Lion Ẩm thực quán cà phê Hà Nội Hà Nội
HN_00282,KFC,Ẩm thực,quán thức ăn nhanh,21.0506781,105.8397787,"Dịch Vụ Games Online - Điểm Bán Thẻ Tự Động, 9 Phố Yên Phụ, Yên Phụ, Tây Hồ, Hà Nội, 11213",Hà Nội,Hà Nội,"KFC là quán thức ăn nhanh tại Hà Nội, Hà Nội.",KFC Ẩm thực quán thức ăn nhanh Hà Nội Hà Nội
HN_00283,Cà Phê Havanna,Ẩm thực,quán cà phê,21.0494459,105.8391985,"Cafe Bảo Oanh, 1 Phố Trúc Bạch, Trúc Bạch, Ba Đình, Hà Nội",Hà Nội,Hà Nội,"Cà Phê Havanna là quán cà phê tại Hà Nội, Hà Nội.",Cà Phê Havanna Ẩm thực quán cà phê Hà Nội Hà Nội
HN_00284,Cà Phê GaraFun,Ẩm thực,quán cà phê,21.0175323,105.7970415,"5 Phố Trần Kim Xuyến, Yên Hòa, Cầu Giấy, Hà Nội, 11312",Hà Nội,Hà Nội,"Cà Phê GaraFun là quán cà phê tại Hà Nội, Hà Nội.",Cà Phê GaraFun Ẩm thực quán cà phê Hà Nội Hà Nội
HN_00285,Cà Phê KOK,Ẩm thực,quán cà phê,20.9839177,105.8155864,"Ngõ 583 Vũ Tông Phan, Khương Đình, Thanh Xuân, Hà Nội, 11410",Hà Nội,Hà Nội,"Cà Phê KOK là quán cà phê tại Hà Nội, Hà Nội.",Cà Phê KOK Ẩm thực quán cà phê Hà Nội Hà Nội
HN_00286,Cà Phê Grazio's,Ẩm thực,quán cà phê,21.0128634,105.8176699,"Quán Ốc 29 Cơ Sở 2, Láng Hạ, Đống Đa, Hà Nội, 11513",Hà Nội,Hà Nội,"Cà Phê Grazio's là quán cà phê tại Hà Nội, Hà Nội.",Cà Phê Grazio's Ẩm thực quán cà phê Hà Nội Hà Nội
HN_00287,Nhà Hàng Bò Đội Nón,Ẩm thực,nhà hàng,21.0367552,105.7941995,"Oris Boutique, 64 Phố Trần Đăng Ninh, Dịch Vọng, Cầu Giấy, Hà Nội, 11311",Hà Nội,Hà Nội,"Nhà Hàng Bò Đội Nón là nhà hàng tại Hà Nội, Hà Nội.",Nhà Hàng Bò Đội Nón Ẩm thực nhà hàng Hà Nội Hà Nội
HN_00288,Khách Sạn Rendezvous,Du lịch,khách sạn,21.0331384,105.8470696,"25 Phố Hàng Điếu, Hà Nội Old Quarter, Cửa Đông, Hoàn Kiếm, Hà Nội, 11016",Hà Nội,Hà Nội,"Khách Sạn Rendezvous là khách sạn tại Hà Nội, Hà Nội.",Khách Sạn Rendezvous Du lịch khách sạn Hà Nội Hà Nội
HN_00289,Nhà Hàng Bún Việt,Ẩm thực,nhà hàng,21.0117249,105.8119169,"Pepper Beauty Care - Chăm Sóc Da Chuyên Nghiệp, 129 Phố Láng Hạ, Láng Hạ, Đống Đa, Hà Nội, 11513",Hà Nội,Hà Nội,"Nhà Hàng Bún Việt là nhà hàng tại Hà Nội, Hà Nội.",Nhà Hàng Bún Việt Ẩm thực nhà hàng Hà Nội Hà Nội
HN_00290,Khách Sạn Camel City,Du lịch,khách sạn,21.0353948,105.8525004,"Nhà Nghỉ Happy Feet, 8A/50 Ngõ Đào Duy Từ, Hà Nội Old Quarter, Hàng Buồm, Hoàn Kiếm, Hà Nội, 11010",Hà Nội,Hà Nội,"Khách Sạn Camel City là khách sạn tại Hà Nội, Hà Nội.",Khách Sạn Camel City Du lịch khách sạn Hà Nội Hà Nội
HN_00291,Bánh Mì Bami,Ẩm thực,quán thức ăn nhanh,21.0340956,105.8514826,"102 Phố Hàng Bạc, Hà Nội Old Quarter, Hàng Bạc, Hoàn Kiếm, Hà Nội, 11011",Hà Nội,Hà Nội,"Bánh Mì Bami là quán thức ăn nhanh tại Hà Nội, Hà Nội.",Bánh Mì Bami Ẩm thực quán thức ăn nhanh Hà Nội Hà Nội
HN_00292,Supremacy,Ẩm thực,quán cà phê,20.9877755,105.7969824,"Quán Bún Đậu Mẹt Ngọc Hà, 12 Ngõ 1 Đại Học Hà Nội, Trung Văn, Quận Nam Từ Liêm, Hà Nội, 12011",Hà Nội,Hà Nội,"Supremacy là quán cà phê tại Hà Nội, Hà Nội.",Supremacy Ẩm thực quán cà phê Hà Nội Hà Nội
HN_00293,Trekking Coffee,Ẩm thực,quán cà phê,21.010401,105.8148684,"Ngõ 120 Yên Lãng, Thịnh Quang, Đống Đa, Hà Nội, 11516",Hà Nội,Hà Nội,"Trekking Coffee là quán cà phê tại Hà Nội, Hà Nội.",Trekking Coffee Ẩm thực quán cà phê Hà Nội Hà Nội
HN_00294,Khách Sạn Mercure,Du lịch,khách sạn,21.0261665,105.8416648,"Dịch Vụ Photocopy Nghiên Hưởng, 65 Đường Lê Duẩn, Cửa Nam, Hoàn Kiếm, Hà Nội",Hà Nội,Hà Nội,"Khách Sạn Mercure là khách sạn tại Hà Nội, Hà Nội.",Khách Sạn Mercure Du lịch khách sạn Hà Nội Hà Nội
HN_00295,Cà Phê Bạch Thảo,Ẩm thực,quán cà phê,21.0415864,105.8335171,"Ngõ 1B Hoàng Hoa Thám, Ngọc Hà, Ba Đình, Hà Nội, 11119",Hà Nội,Hà Nội,"Cà Phê Bạch Thảo là quán cà phê tại Hà Nội, Hà Nội.",Cà Phê Bạch Thảo Ẩm thực quán cà phê Hà Nội Hà Nội
HN_00296,Nhà Hàng GoldMalt Sài Đồng,Ẩm thực,nhà hàng,21.0387571,105.9044083,"24 Phố Hoàng Thế Thiện, Phúc Đồng, Long Biên, Hà Nội, 11819",Hà Nội,Hà Nội,"Nhà Hàng GoldMalt Sài Đồng là nhà hàng tại Hà Nội, Hà Nội.",Nhà Hàng GoldMalt Sài Đồng Ẩm thực nhà hàng Hà Nội Hà Nội
HN_00297,Cà Phê MV,Ẩm thực,quán cà phê,21.0639821,105.7820879,"Ngách 178/54 Cổ Nhuế, Cổ Nhuế 2, Quận Bắc Từ Liêm, Hà Nội, 11907",Hà Nội,Hà Nội,"Cà Phê MV là quán cà phê tại Hà Nội, Hà Nội.",Cà Phê MV Ẩm thực quán cà phê Hà Nội Hà Nội
HN_00298,Nhà Khách Hanoi Lucky,Du lịch,khách sạn,21.0352497,105.847496,"Shop & Go, Phố Bát Sứ, Hà Nội Old Quarter, Hàng Bồ, Hoàn Kiếm, Hà Nội, 11014",Hà Nội,Hà Nội,"Nhà Khách Hanoi Lucky là khách sạn tại Hà Nội, Hà Nội.",Nhà Khách Hanoi Lucky Du lịch khách sạn Hà Nội Hà Nội
HN_00299,Pizza Hut,Ẩm thực,nhà hàng,21.0258945,105.8334587,"Trung Tâm Sửa Chữa Xe Đạp Điện Hưng Đức, 63C Phố Tôn Đức Thắng, Quốc Tử Giám, Đống Đa, Hà Nội, 11509",Hà Nội,Hà Nội,"Pizza Hut là nhà hàng tại Hà Nội, Hà Nội.",Pizza Hut Ẩm thực nhà hàng Hà Nội Hà Nội
HN_00300,Pizza Hut,Ẩm thực,nhà hàng,21.0031239,105.816661,"Highland Coffee Royal City 2, 72A Ngõ 72 Nguyễn Trãi, Thượng Đình, Thanh Xuân, Hà Nội, 11414",Hà Nội,Hà Nội,"Pizza Hut là nhà hàng tại Hà Nội, Hà Nội.",Pizza Hut Ẩm thực nhà hàng Hà Nội Hà Nội
HN_00301,Pizza Hut,Ẩm thực,nhà hàng,20.9969652,105.8683844,"Đường Số 4, Vĩnh Tuy, Hai Bà Trưng, Hà Nội, 11622",Hà Nội,Hà Nội,"Pizza Hut là nhà hàng tại Hà Nội, Hà Nội.",Pizza Hut Ẩm thực nhà hàng Hà Nội Hà Nội
HN_00302,Pizza Hut,Ẩm thực,nhà hàng,21.0072356,105.7930282,"Komonoya, Trung Hòa, Cầu Giấy, Hà Nội, 11313",Hà Nội,Hà Nội,"Pizza Hut là nhà hàng tại Hà Nội, Hà Nội.",Pizza Hut Ẩm thực nhà hàng Hà Nội Hà Nội
HN_00303,Pizza Hut,Ẩm thực,nhà hàng,21.011391,105.8492805,"Công Ty Chứng Khoán Vincom, 191 Phố Bà Triệu, Hai Bà Trưng, Hà Nội, 11606",Hà Nội,Hà Nội,"Pizza Hut là nhà hàng tại Hà Nội, Hà Nội.",Pizza Hut Ẩm thực nhà hàng Hà Nội Hà Nội
HN_00304,Pizza Hut,Ẩm thực,nhà hàng,21.0504678,105.8932462,"Showroom Kims Full House, Long Biên, Hà Nội, 11812",Hà Nội,Hà Nội,"Pizza Hut là nhà hàng tại Hà Nội, Hà Nội.",Pizza Hut Ẩm thực nhà hàng Hà Nội Hà Nội
HN_00305,Pizza Hut,Ẩm thực,nhà hàng,20.9642392,105.7718101,"Trung Tâm Mua Sắm và Giải Trí Mê Linh Plaza Hà Đông - Me Linh Plaza Hà Đông, Đường Tô Hiệu, Hà Cầu, Hà Đông, Hà Nội",Hà Nội,Hà Nội,"Pizza Hut là nhà hàng tại Hà Nội, Hà Nội.",Pizza Hut Ẩm thực nhà hàng Hà Nội Hà Nội
HN_00306,Pizza Hut,Ẩm thực,nhà hàng,21.0171583,105.799144,"Chả Cá Anh Vũ, 103 Phố Trung Hòa, Yên Hòa, Cầu Giấy, Hà Nội, 11312",Hà Nội,Hà Nội,"Pizza Hut là nhà hàng tại Hà Nội, Hà Nội.",Pizza Hut Ẩm thực nhà hàng Hà Nội Hà Nội
HN_00307,Pizza Hut,Ẩm thực,nhà hàng,20.9804803,105.8447867,"Công Ty Cổ Phần Công Nghệ Thiên Lương, 609 Đường Trương Định, Hoàng Mai, Hà Nội, 11706",Hà Nội,Hà Nội,"Pizza Hut là nhà hàng tại Hà Nội, Hà Nội.",Pizza Hut Ẩm thực nhà hàng Hà Nội Hà Nội
HN_00308,Pizza Hut,Ẩm thực,nhà hàng,20.9791502,105.785428,"Phố Vũ Trọng Khánh, Mộ Lao, Hà Đông, Hà Nội, 12110",Hà Nội,Hà Nội,"Pizza Hut là nhà hàng tại Hà Nội, Hà Nội.",Pizza Hut Ẩm thực nhà hàng Hà Nội Hà Nội
HN_00309,Pizza Hut,Ẩm thực,nhà hàng,21.0188607,105.8552418,"ATM - Ngân Hàng Á Châu - ACB, Phố Phan Chu Trinh, Phan Chu Trinh, Hoàn Kiếm, Hà Nội, 11021",Hà Nội,Hà Nội,"Pizza Hut là nhà hàng tại Hà Nội, Hà Nội.",Pizza Hut Ẩm thực nhà hàng Hà Nội Hà Nội
HN_00310,Sua Ba Vi,Ẩm thực,nhà hàng,21.1286063,105.5150576,"Đường Lạc Trị, Tích Giang, Phúc Thọ, Hà Nội, 12820",Hà Nội,Hà Nội,"Sua Ba Vi là nhà hàng tại Hà Nội, Hà Nội.",Sua Ba Vi Ẩm thực nhà hàng Hà Nội Hà Nội
HN_00311,Pho Co BaVi,Ẩm thực,nhà hàng,21.0811234,105.6797269,"Tiệm Sửa Xe, Phố Tây Sơn, Đức Thượng, Hoài Đức, Hà Nội",Hà Nội,Hà Nội,"Pho Co BaVi là nhà hàng tại Hà Nội, Hà Nội.",Pho Co BaVi Ẩm thực nhà hàng Hà Nội Hà Nội
HN_00312,Sua Ba Vi ThanhHoa,Ẩm thực,nhà hàng,21.1208847,105.5233813,"Đường Lạc Trị, Tích Giang, Phúc Thọ, Hà Nội, 12820",Hà Nội,Hà Nội,"Sua Ba Vi ThanhHoa là nhà hàng tại Hà Nội, Hà Nội.",Sua Ba Vi ThanhHoa Ẩm thực nhà hàng Hà Nội Hà Nội
HN_00313,Cama ATK,Ẩm thực,quán bar,21.0142409,105.8511946,"73A Phố Mai Hắc Đế, Bùi Thị Xuân, Hai Bà Trưng, Hà Nội, 11613",Hà Nội,Hà Nội,"Cama ATK là quán bar tại Hà Nội, Hà Nội.",Cama ATK Ẩm thực quán bar Hà Nội Hà Nội
HN_00314,Nhà Hàng A La Folie,Ẩm thực,nhà hàng,21.0146587,105.8522123,"53 Ngõ Huế, Ngô Thì Nhậm, Hai Bà Trưng, Hà Nội, 11612",Hà Nội,Hà Nội,"Nhà Hàng A La Folie là nhà hàng tại Hà Nội, Hà Nội.",Nhà Hàng A La Folie Ẩm thực nhà hàng Hà Nội Hà Nội
HN_00315,Tom's Bar - Cheap Beer,Ẩm thực,quán bar,21.0433487,105.7752796,"Quán Nhậu Huy Quân, Mai Dịch, Cầu Giấy, Hà Nội, 11309",Hà Nội,Hà Nội,"Tom's Bar - Cheap Beer là quán bar tại Hà Nội, Hà Nội.",Tom's Bar - Cheap Beer Ẩm thực quán bar Hà Nội Hà Nội
HN_00316,Nhà Hàng Little Vietnam,Ẩm thực,nhà hàng,21.0302779,105.8489208,"Anan Coffee, Phố Lý Quốc Sư, Hàng Trống, Hoàn Kiếm, Hà Nội, 11006",Hà Nội,Hà Nội,"Nhà Hàng Little Vietnam là nhà hàng tại Hà Nội, Hà Nội.",Nhà Hàng Little Vietnam Ẩm thực nhà hàng Hà Nội Hà Nội
HN_00317,Trà 3L Tân cương Thái nguyên,Ẩm thực,quán cà phê,20.9475342,105.7484947,"Sửa Chữa Xe Máy Mạnh Quang, 168A Ngách 1/20 Thanh Lãm, Phú Lãm, Hà Đông, Hà Nội, 12119",Hà Nội,Hà Nội,"Trà 3L Tân cương Thái nguyên là quán cà phê tại Hà Nội, Hà Nội.",Trà 3L Tân cương Thái nguyên Ẩm thực quán cà phê Hà Nội Hà Nội
HN_00318,하노이 부라더스,Ẩm thực,nhà hàng,21.0289139,105.8408568,"Khung Tranh King Avy, 59 Phố Nguyễn Thái Học, Điện Biên, Ba Đình, Hà Nội, 11114",Hà Nội,Hà Nội,"하노이 부라더스 là nhà hàng tại Hà Nội, Hà Nội.",하노이 부라더스 Ẩm thực nhà hàng Hà Nội Hà Nội
HN_00319,VIET VILLAGE HOTEL,Du lịch,khách sạn,21.204441,105.8302191,"Đường Võ Nguyên Giáp, Phú Minh, Sóc Sơn, Hà Nội, 12223",Hà Nội,Hà Nội,"VIET VILLAGE HOTEL là khách sạn tại Hà Nội, Hà Nội.",VIET VILLAGE HOTEL Du lịch khách sạn Hà Nội Hà Nội
HN_00320,Nhà Hàng ATMan,Ẩm thực,nhà hàng,21.0915545,105.7843466,"Dịch Vụ Internet, Ngõ 35 Đông Ngạc, Đông Ngạc, Quận Bắc Từ Liêm, Hà Nội, 11909",Hà Nội,Hà Nội,"Nhà Hàng ATMan là nhà hàng tại Hà Nội, Hà Nội.",Nhà Hàng ATMan Ẩm thực nhà hàng Hà Nội Hà Nội
HN_00321,Khách Sạn Hanoi Imperial,Du lịch,khách sạn,21.0312566,105.849998,"Đình Phả Trúc Lâm, Phố Bảo Khánh, Hàng Trống, Hoàn Kiếm, Hà Nội",Hà Nội,Hà Nội,"Khách Sạn Hanoi Imperial là khách sạn tại Hà Nội, Hà Nội.",Khách Sạn Hanoi Imperial Du lịch khách sạn Hà Nội Hà Nội
HN_00322,The American Club,Ẩm thực,nhà hàng,21.023697,105.8541656,"Club American, 19-21 Phố Hai Bà Trưng, Tràng Tiền, Hoàn Kiếm, Hà Nội, 11022",Hà Nội,Hà Nội,"The American Club là nhà hàng tại Hà Nội, Hà Nội.",The American Club Ẩm thực nhà hàng Hà Nội Hà Nội
HN_00323,Cà Phê Canopee,Ẩm thực,quán cà phê,21.0303946,105.8496718,"Mỹ Phẩm Yves Rocher, Hàng Trống, Hoàn Kiếm, Hà Nội, 11006",Hà Nội,Hà Nội,"Cà Phê Canopee là quán cà phê tại Hà Nội, Hà Nội.",Cà Phê Canopee Ẩm thực quán cà phê Hà Nội Hà Nội
HN_00324,Nhà Hàng Linh's Kitchen,Ẩm thực,nhà hàng,21.035829,105.8532485,"Sinh Tố Nước Ép Nga, 22 Phố Mã Mây, Hà Nội Old Quarter, Hàng Buồm, Hoàn Kiếm, Hà Nội, 11010",Hà Nội,Hà Nội,"Nhà Hàng Linh's Kitchen là nhà hàng tại Hà Nội, Hà Nội.",Nhà Hàng Linh's Kitchen Ẩm thực nhà hàng Hà Nội Hà Nội
HN_00325,Bún Chẳ Đắc Kim,Ẩm thực,nhà hàng,21.0310565,105.8472795,"Quán Hải Sản Quaithao, 63 Phố Đường Thành, Hà Nội Old Quarter, Cửa Đông, Hoàn Kiếm, Hà Nội, 11016",Hà Nội,Hà Nội,"Bún Chẳ Đắc Kim là nhà hàng tại Hà Nội, Hà Nội.",Bún Chẳ Đắc Kim Ẩm thực nhà hàng Hà Nội Hà Nội
HN_00326,Nhà Hàng Gecko,Ẩm thực,nhà hàng,21.0314523,105.8491848,"Shop Balô Túi Sách Made In Vietnam, 106 Phố Hàng Gai, Hà Nội Old Quarter, Hàng Gai, Hoàn Kiếm, Hà Nội, 11015",Hà Nội,Hà Nội,"Nhà Hàng Gecko là nhà hàng tại Hà Nội, Hà Nội.",Nhà Hàng Gecko Ẩm thực nhà hàng Hà Nội Hà Nội
HN_00327,Quán Bia Light & Dark,Ẩm thực,quán bar,21.077656,105.8174694,"Phố Trịnh Công Sơn, Nhật Tân, Tây Hồ, Hà Nội, 11209",Hà Nội,Hà Nội,"Quán Bia Light & Dark là quán bar tại Hà Nội, Hà Nội.",Quán Bia Light & Dark Ẩm thực quán bar Hà Nội Hà Nội
HN_00328,Nhà Hàng Daluva,Ẩm thực,nhà hàng,21.068552,105.8244602,"Đường Tô Ngọc Vân, Quảng An, Tây Hồ, Hà Nội, 11207",Hà Nội,Hà Nội,"Nhà Hàng Daluva là nhà hàng tại Hà Nội, Hà Nội.",Nhà Hàng Daluva Ẩm thực nhà hàng Hà Nội Hà Nội
HN_00329,Khách Sạn Golden Diamond,Du lịch,khách sạn,21.0391927,105.8511387,"18 Đường Trần Nhật Duật, Hà Nội Old Quarter, Đồng Xuân, Hoàn Kiếm, Hà Nội, 11009",Hà Nội,Hà Nội,"Khách Sạn Golden Diamond là khách sạn tại Hà Nội, Hà Nội.",Khách Sạn Golden Diamond Du lịch khách sạn Hà Nội Hà Nội
HN_00330,Curry House Maiya,Ẩm thực,nhà hàng,21.0371094,105.8522312,"Phố Đào Duy Từ, Hà Nội Old Quarter, Đồng Xuân, Hoàn Kiếm, Hà Nội, 11010",Hà Nội,Hà Nội,"Curry House Maiya là nhà hàng tại Hà Nội, Hà Nội.",Curry House Maiya Ẩm thực nhà hàng Hà Nội Hà Nội
HN_00331,Chops,Ẩm thực,nhà hàng,21.0625869,105.8291428,"Phố Quảng An, Quảng An, Tây Hồ, Hà Nội, 11207",Hà Nội,Hà Nội,"Chops là nhà hàng tại Hà Nội, Hà Nội.",Chops Ẩm thực nhà hàng Hà Nội Hà Nội
HN_00332,Nhà Hàng The Moose & Roo Pub & Grill,Ẩm thực,nhà hàng,21.0613457,105.8317362,"Đường Xuân Diệu, Tứ Liên, Tây Hồ, Hà Nội, 11208",Hà Nội,Hà Nội,"Nhà Hàng The Moose & Roo Pub & Grill là nhà hàng tại Hà Nội, Hà Nội.",Nhà Hàng The Moose & Roo Pub & Grill Ẩm thực nhà hàng Hà Nội Hà Nội
HN_00333,Khách Sạn Le Petit,Du lịch,khách sạn,21.0302942,105.8489131,"Anan Coffee, Phố Lý Quốc Sư, Hàng Trống, Hoàn Kiếm, Hà Nội, 11006",Hà Nội,Hà Nội,"Khách Sạn Le Petit là khách sạn tại Hà Nội, Hà Nội.",Khách Sạn Le Petit Du lịch khách sạn Hà Nội Hà Nội
HN_00334,Thanh Chuong Viet Palace,Du lịch,địa điểm du lịch,21.2769005,105.8031488,"Việt Phủ Thành Chương, Hiền Ninh, Sóc Sơn, Hà Nội, 12218",Hà Nội,Hà Nội,"Thanh Chuong Viet Palace là địa điểm du lịch tại Hà Nội, Hà Nội.",Thanh Chuong Viet Palace Du lịch địa điểm du lịch Hà Nội Hà Nội
HN_00335,Vincom Mega Mall Royal City,Du lịch,trung tâm thương mại,21.0022833,105.8160462,"Ngõ 72 Nguyễn Trãi, Thượng Đình, Thanh Xuân, Hà Nội, 11414",Hà Nội,Hà Nội,"Vincom Mega Mall Royal City là trung tâm thương mại tại Hà Nội, Hà Nội.",Vincom Mega Mall Royal City Du lịch trung tâm thương mại Hà Nội Hà Nội
HN_00336,Splendid Star Grand Hotel,Du lịch,khách sạn,21.0291318,105.8487007,"Ngõ Thọ Xương, Hàng Trống, Hoàn Kiếm, Hà Nội, 11006",Hà Nội,Hà Nội,"Splendid Star Grand Hotel là khách sạn tại Hà Nội, Hà Nội.",Splendid Star Grand Hotel Du lịch khách sạn Hà Nội Hà Nội
HN_00337,Rue Lamblot,Ẩm thực,nhà hàng,21.0306212,105.8487741,"8 Phố Lý Quốc Sư, Hàng Trống, Hoàn Kiếm, Hà Nội, 11006",Hà Nội,Hà Nội,"Rue Lamblot là nhà hàng tại Hà Nội, Hà Nội.",Rue Lamblot Ẩm thực nhà hàng Hà Nội Hà Nội
HN_00338,Nhà Hàng Green Tangerine,Ẩm thực,nhà hàng,21.0326873,105.8537575,"46 Phố Hàng Bè, Hà Nội Old Quarter, Hàng Bạc, Hoàn Kiếm, Hà Nội, 11011",Hà Nội,Hà Nội,"Nhà Hàng Green Tangerine là nhà hàng tại Hà Nội, Hà Nội.",Nhà Hàng Green Tangerine Ẩm thực nhà hàng Hà Nội Hà Nội
HN_00339,Skyline Hotel,Du lịch,khách sạn,21.0335223,105.8524153,"16 Ngõ Trung Yên, Hà Nội Old Quarter, Hàng Bạc, Hoàn Kiếm, Hà Nội, 11011",Hà Nội,Hà Nội,"Skyline Hotel là khách sạn tại Hà Nội, Hà Nội.",Skyline Hotel Du lịch khách sạn Hà Nội Hà Nội
HN_00340,Quán Bar Local,Ẩm thực,quán bar,21.0297675,105.855063,"Phúc Cafe, Phố Lý Thái Tổ, Lý Thái Tổ, Hoàn Kiếm, Hà Nội, 11007",Hà Nội,Hà Nội,"Quán Bar Local là quán bar tại Hà Nội, Hà Nội.",Quán Bar Local Ẩm thực quán bar Hà Nội Hà Nội
HN_00341,number 1,Ẩm thực,nhà hàng,21.0323464,105.84816,"Shop Hạnh, 11C Phố Hàng Nón, Hà Nội Old Quarter, Hàng Gai, Hoàn Kiếm, Hà Nội",Hà Nội,Hà Nội,"number 1 là nhà hàng tại Hà Nội, Hà Nội.",number 1 Ẩm thực nhà hàng Hà Nội Hà Nội
HN_00342,Khách Sạn New Amely & Resident,Du lịch,khách sạn,21.0290827,105.769259,"Truong Gia Building, Quận Bắc Từ Liêm, Quận Nam Từ Liêm, Hà Nội, 12014",Hà Nội,Hà Nội,"Khách Sạn New Amely & Resident là khách sạn tại Hà Nội, Hà Nội.",Khách Sạn New Amely & Resident Du lịch khách sạn Hà Nội Hà Nội
HN_00343,Khách Sạn Hanoi Old Town,Du lịch,khách sạn,21.036835,105.8497883,"Ha Noi Old Town Hotel, 95 Phố Hàng Chiếu, Hà Nội Old Quarter, Đồng Xuân, Hoàn Kiếm, Hà Nội",Hà Nội,Hà Nội,"Khách Sạn Hanoi Old Town là khách sạn tại Hà Nội, Hà Nội.",Khách Sạn Hanoi Old Town Du lịch khách sạn Hà Nội Hà Nội
HN_00344,Cà Phê Heaven,Ẩm thực,quán cà phê,21.0552262,105.8214245,"Phố Quảng Khánh, Quảng An, Tây Hồ, Hà Nội, 11207",Hà Nội,Hà Nội,"Cà Phê Heaven là quán cà phê tại Hà Nội, Hà Nội.",Cà Phê Heaven Ẩm thực quán cà phê Hà Nội Hà Nội
HN_00345,Pho Thin,Ẩm thực,nhà hàng,21.0170351,105.8559963,"39A Phố Lò Đúc, Phạm Đình Hổ, Hai Bà Trưng, Hà Nội, 11611",Hà Nội,Hà Nội,"Pho Thin là nhà hàng tại Hà Nội, Hà Nội.",Pho Thin Ẩm thực nhà hàng Hà Nội Hà Nội
HN_00346,Nhà Hàng Lotus Blanc,Ẩm thực,nhà hàng,21.0306071,105.8487452,"8 Phố Lý Quốc Sư, Hàng Trống, Hoàn Kiếm, Hà Nội, 11006",Hà Nội,Hà Nội,"Nhà Hàng Lotus Blanc là nhà hàng tại Hà Nội, Hà Nội.",Nhà Hàng Lotus Blanc Ẩm thực nhà hàng Hà Nội Hà Nội
HN_00347,DIY Box,Ẩm thực,quán cà phê,21.0354519,105.8278222,"Drink & Food Tường An, Ngọc Hà, Ba Đình, Hà Nội, 11119",Hà Nội,Hà Nội,"DIY Box là quán cà phê tại Hà Nội, Hà Nội.",DIY Box Ẩm thực quán cà phê Hà Nội Hà Nội
HN_00348,Khách Sạn Hanoi Alibaba,Du lịch,khách sạn,21.0327185,105.8537322,"46 Phố Hàng Bè, Hà Nội Old Quarter, Hàng Bạc, Hoàn Kiếm, Hà Nội, 11011",Hà Nội,Hà Nội,"Khách Sạn Hanoi Alibaba là khách sạn tại Hà Nội, Hà Nội.",Khách Sạn Hanoi Alibaba Du lịch khách sạn Hà Nội Hà Nội
HN_00349,Vườn sinh thái Ngọc Linh,Ẩm thực,nhà hàng,21.2718578,105.8155193,"Quang Tiến, Sóc Sơn, Hà Nội",Hà Nội,Hà Nội,"Vườn sinh thái Ngọc Linh là nhà hàng tại Hà Nội, Hà Nội.",Vườn sinh thái Ngọc Linh Ẩm thực nhà hàng Hà Nội Hà Nội
HN_00350,Khách Sạn Haneul,Ẩm thực,nhà hàng,21.0140828,105.8479487,"Shop Mộc, 15 Phố Thể Giao, Hai Bà Trưng, Hà Nội, 11606",Hà Nội,Hà Nội,"Khách Sạn Haneul là nhà hàng tại Hà Nội, Hà Nội.",Khách Sạn Haneul Ẩm thực nhà hàng Hà Nội Hà Nội
HN_00351,Xoi Yen,Ẩm thực,nhà hàng,21.0337675,105.8545363,"Quán Xôi Yến, 35B Phố Nguyễn Hữu Huân, Lý Thái Tổ, Hoàn Kiếm, Hà Nội",Hà Nội,Hà Nội,"Xoi Yen là nhà hàng tại Hà Nội, Hà Nội.",Xoi Yen Ẩm thực nhà hàng Hà Nội Hà Nội
HN_00352,Khách Sạn Và Spa Matilda Boutique,Du lịch,khách sạn,21.0345574,105.8535202,"Công Ty Du Lịch Phú Hoa - Sunshine 3 Hotel, 73 Phố Mã Mây, Hà Nội Old Quarter, Hàng Buồm, Hoàn Kiếm, Hà Nội",Hà Nội,Hà Nội,"Khách Sạn Và Spa Matilda Boutique là khách sạn tại Hà Nội, Hà Nội.",Khách Sạn Và Spa Matilda Boutique Du lịch khách sạn Hà Nội Hà Nội
HN_00353,Nhà chị Luân,Du lịch,nhà nghỉ,21.1242687,105.6771411,"Đường Ô Diên, Hạ Mỗ, Đan Phượng, Hà Nội, 13009",Hà Nội,Hà Nội,"Nhà chị Luân là nhà nghỉ tại Hà Nội, Hà Nội.",Nhà chị Luân Du lịch nhà nghỉ Hà Nội Hà Nội
HN_00354,Cà Phê HD,Ẩm thực,quán cà phê,20.9616966,105.7720993,"Sen Cafe, Phú La, Hà Đông, Hà Nội, 12122",Hà Nội,Hà Nội,"Cà Phê HD là quán cà phê tại Hà Nội, Hà Nội.",Cà Phê HD Ẩm thực quán cà phê Hà Nội Hà Nội
HN_00355,Cà Phê AnAn,Ẩm thực,quán cà phê,21.0250058,105.8545563,"Fashion Kimmay, 41 Phố Tràng Tiền, Tràng Tiền, Hoàn Kiếm, Hà Nội, 11022",Hà Nội,Hà Nội,"Cà Phê AnAn là quán cà phê tại Hà Nội, Hà Nội.",Cà Phê AnAn Ẩm thực quán cà phê Hà Nội Hà Nội
HN_00356,Cà Phê AnAn,Ẩm thực,quán cà phê,21.0283707,105.8496623,"20 Phố Nhà Chung, Hàng Trống, Hoàn Kiếm, Hà Nội, 11006",Hà Nội,Hà Nội,"Cà Phê AnAn là quán cà phê tại Hà Nội, Hà Nội.",Cà Phê AnAn Ẩm thực quán cà phê Hà Nội Hà Nội
HN_00357,Quán thịt trâu,Ẩm thực,nhà hàng,21.0637554,105.9079524,"Đường Kẻ Tạnh, Giang Biên, Long Biên, Hà Nội, 11807",Hà Nội,Hà Nội,"Quán thịt trâu là nhà hàng tại Hà Nội, Hà Nội.",Quán thịt trâu Ẩm thực nhà hàng Hà Nội Hà Nội
HN_00358,Nhà Khách Murray's,Du lịch,nhà khách/homestay,21.0451166,105.8159394,"Phố Trích Sài, Thụy Khuê, Tây Hồ, Hà Nội, 11212",Hà Nội,Hà Nội,"Nhà Khách Murray's là nhà khách/homestay tại Hà Nội, Hà Nội.",Nhà Khách Murray's Du lịch nhà khách/homestay Hà Nội Hà Nội
HN_00359,The sushi club,Ẩm thực,nhà hàng,21.0625927,105.8291621,"Phố Quảng An, Quảng An, Tây Hồ, Hà Nội, 11207",Hà Nội,Hà Nội,"The sushi club là nhà hàng tại Hà Nội, Hà Nội.",The sushi club Ẩm thực nhà hàng Hà Nội Hà Nội
HN_00360,Cửa Hàng Bia Hơi Hà Nội,Ẩm thực,nhà hàng,21.0336801,105.8462281,"Phố Bát Đàn, Hà Nội Old Quarter, Cửa Đông, Hoàn Kiếm, Hà Nội, 11016",Hà Nội,Hà Nội,"Cửa Hàng Bia Hơi Hà Nội là nhà hàng tại Hà Nội, Hà Nội.",Cửa Hàng Bia Hơi Hà Nội Ẩm thực nhà hàng Hà Nội Hà Nội
HN_00361,Tổ Chim Xanh,Ẩm thực,quán cà phê,21.0419209,105.8415411,"Cafe Bar, 17-19 Phố Đặng Dung, Quán Thánh, Ba Đình, Hà Nội",Hà Nội,Hà Nội,"Tổ Chim Xanh là quán cà phê tại Hà Nội, Hà Nội.",Tổ Chim Xanh Ẩm thực quán cà phê Hà Nội Hà Nội
HN_00362,Quan kien - bug place,Ẩm thực,nhà hàng,21.0542709,105.8371458,"Đường Nghi Tàm, Yên Phụ, Tây Hồ, Hà Nội, 11213",Hà Nội,Hà Nội,"Quan kien - bug place là nhà hàng tại Hà Nội, Hà Nội.",Quan kien - bug place Ẩm thực nhà hàng Hà Nội Hà Nội
HN_00363,Ray Quan,Ẩm thực,nhà hàng,21.0278549,105.8412825,"Kính Mắt Tùng Ngọc, 50 Đường Lê Duẩn, Văn Miếu, Đống Đa, Hà Nội, 11508",Hà Nội,Hà Nội,"Ray Quan là nhà hàng tại Hà Nội, Hà Nội.",Ray Quan Ẩm thực nhà hàng Hà Nội Hà Nội
HN_00364,Nhà Khách Jacks,Du lịch,nhà khách/homestay,21.0392752,105.8160157,"Mai Ly Make Up Store, 5 Ngõ 97 Văn Cao, Ba Đình, Hà Nội, 11106",Hà Nội,Hà Nội,"Nhà Khách Jacks là nhà khách/homestay tại Hà Nội, Hà Nội.",Nhà Khách Jacks Du lịch nhà khách/homestay Hà Nội Hà Nội
HN_00365,Cà Phê Gardenista,Ẩm thực,quán cà phê,21.0309402,105.8171637,"Văn Phòng Đại Diện Của Celi Tại Việt Nam, 3/2C Phố Kim Mã, Ngọc Khánh, Ba Đình, Hà Nội, 11109",Hà Nội,Hà Nội,"Cà Phê Gardenista là quán cà phê tại Hà Nội, Hà Nội.",Cà Phê Gardenista Ẩm thực quán cà phê Hà Nội Hà Nội
HN_00366,Khách Sạn Hanoi Serenity Diamond,Du lịch,khách sạn,21.0344096,105.8467548,"Khách Sạn Ico Luxury, 17 Phố Cửa Đông, Hà Nội Old Quarter, Cửa Đông, Hoàn Kiếm, Hà Nội",Hà Nội,Hà Nội,"Khách Sạn Hanoi Serenity Diamond là khách sạn tại Hà Nội, Hà Nội.",Khách Sạn Hanoi Serenity Diamond Du lịch khách sạn Hà Nội Hà Nội
HN_00367,Cà Phê Apple Tart,Ẩm thực,quán cà phê,21.0311596,105.8501553,"Vnpt Phòng Tiếp Thị Bán Hàng Số 1, Ngõ Hàng Hành, Hàng Trống, Hoàn Kiếm, Hà Nội, 11006",Hà Nội,Hà Nội,"Cà Phê Apple Tart là quán cà phê tại Hà Nội, Hà Nội.",Cà Phê Apple Tart Ẩm thực quán cà phê Hà Nội Hà Nội
HN_00368,Oasis Hotel,Du lịch,khách sạn,21.0210013,105.8183853,"ATM - Ngân Hàng Phương Nam - Southern Bank, Phố Láng Hạ, Thành Công, Ba Đình, Hà Nội, 11111",Hà Nội,Hà Nội,"Oasis Hotel là khách sạn tại Hà Nội, Hà Nội.",Oasis Hotel Du lịch khách sạn Hà Nội Hà Nội
HN_00369,Khách Sạn Luxury,Du lịch,khách sạn,21.0300134,105.8481407,"Phố Phủ Doãn, Hàng Trống, Hoàn Kiếm, Hà Nội, 11006",Hà Nội,Hà Nội,"Khách Sạn Luxury là khách sạn tại Hà Nội, Hà Nội.",Khách Sạn Luxury Du lịch khách sạn Hà Nội Hà Nội
HN_00370,Quán Bar Factory,Ẩm thực,quán bar,21.030133,105.8507166,"Nhà Hàng 0079, 1 Ngõ Báo Khánh, Hàng Trống, Hoàn Kiếm, Hà Nội, 11006",Hà Nội,Hà Nội,"Quán Bar Factory là quán bar tại Hà Nội, Hà Nội.",Quán Bar Factory Ẩm thực quán bar Hà Nội Hà Nội
HN_00371,Nhà Hàng Gia Ngu,Ẩm thực,nhà hàng,21.0331038,105.8525285,"Đặc Sản Mắm Tép Chưng Thịt Bà Phán Thái Lan, Phố Gia Ngư, Hà Nội Old Quarter, Hàng Bạc, Hoàn Kiếm, Hà Nội, 11011",Hà Nội,Hà Nội,"Nhà Hàng Gia Ngu là nhà hàng tại Hà Nội, Hà Nội.",Nhà Hàng Gia Ngu Ẩm thực nhà hàng Hà Nội Hà Nội
HN_00372,GC Bar,Ẩm thực,quán bar,21.0304068,105.8510117,"Ngân Hàng Việt Nam Thịnh Vượng - VP Bank, 2 Phố Lê Thái Tổ, Hàng Trống, Hoàn Kiếm, Hà Nội, 11006",Hà Nội,Hà Nội,"GC Bar là quán bar tại Hà Nội, Hà Nội.",GC Bar Ẩm thực quán bar Hà Nội Hà Nội
HN_00373,Nun Changed Dac Kim-분짜,Ẩm thực,nhà hàng,21.0322599,105.8482188,"11C Phố Hàng Mành, Hà Nội Old Quarter, Hàng Gai, Hoàn Kiếm, Hà Nội, 11015",Hà Nội,Hà Nội,"Nun Changed Dac Kim-분짜 là nhà hàng tại Hà Nội, Hà Nội.",Nun Changed Dac Kim-분짜 Ẩm thực nhà hàng Hà Nội Hà Nội
HN_00374,Khách Sạn La Siesta,Du lịch,khách sạn,21.0342811,105.8533216,"La Siesta, 94 Phố Mã Mây, Hà Nội Old Quarter, Hàng Bạc, Hoàn Kiếm, Hà Nội, 11010",Hà Nội,Hà Nội,"Khách Sạn La Siesta là khách sạn tại Hà Nội, Hà Nội.",Khách Sạn La Siesta Du lịch khách sạn Hà Nội Hà Nội
HN_00375,Wanna Waffle?,Ẩm thực,quán cà phê,21.0319807,105.8524977,"Hội Kiến Trúc Sư Việt Nam - Tạp Chí Kiến Trúc, 23 Phố Đinh Tiên Hoàng, Hàng Bạc, Hoàn Kiếm, Hà Nội, 11011",Hà Nội,Hà Nội,"Wanna Waffle? là quán cà phê tại Hà Nội, Hà Nội.",Wanna Waffle? Ẩm thực quán cà phê Hà Nội Hà Nội
HN_00376,Vcb hang khoai,Ẩm thực,quán bar,21.0378873,105.8481828,"Tiệm Phở Vi, 31 Phố Hàng Khoai, Hà Nội Old Quarter, Hàng Mã, Hoàn Kiếm, Hà Nội",Hà Nội,Hà Nội,"Vcb hang khoai là quán bar tại Hà Nội, Hà Nội.",Vcb hang khoai Ẩm thực quán bar Hà Nội Hà Nội
HN_00377,Khách Sạn Hanoi Party Backpacker,Du lịch,khách sạn,21.0330335,105.8460897,"Cafe Muối Cơ Sở 3, Hà Nội Old Quarter, Cửa Đông, Hoàn Kiếm, Hà Nội, 11016",Hà Nội,Hà Nội,"Khách Sạn Hanoi Party Backpacker là khách sạn tại Hà Nội, Hà Nội.",Khách Sạn Hanoi Party Backpacker Du lịch khách sạn Hà Nội Hà Nội
HN_00378,The Hung Snake Rétaurant,Ẩm thực,nhà hàng,21.0560448,105.8982143,"Nhà Hàng Trọng Khách, Ngách 161/64 Hoa Lâm, Việt Hưng, Long Biên, Hà Nội, 11806",Hà Nội,Hà Nội,"The Hung Snake Rétaurant là nhà hàng tại Hà Nội, Hà Nội.",The Hung Snake Rétaurant Ẩm thực nhà hàng Hà Nội Hà Nội
HN_00379,She Coffe,Ẩm thực,quán cà phê,21.0078452,105.9369243,"Kem Bơ Trân Châu Cô Tuyết Béo, Gia Lâm, Hà Nội, 12406",Hà Nội,Hà Nội,"She Coffe là quán cà phê tại Hà Nội, Hà Nội.",She Coffe Ẩm thực quán cà phê Hà Nội Hà Nội
HN_00380,Bánh Xèo Zòn,Ẩm thực,nhà hàng,21.0312016,105.8557772,"Quán Rượu Quê Mình, 25 Phố Lò Sũ, Lý Thái Tổ, Hoàn Kiếm, Hà Nội",Hà Nội,Hà Nội,"Bánh Xèo Zòn là nhà hàng tại Hà Nội, Hà Nội.",Bánh Xèo Zòn Ẩm thực nhà hàng Hà Nội Hà Nội
HN_00381,Khách Sạn Family Transit,Du lịch,khách sạn,21.2167372,105.7810839,"Quang Tiến, Sóc Sơn, Hà Nội",Hà Nội,Hà Nội,"Khách Sạn Family Transit là khách sạn tại Hà Nội, Hà Nội.",Khách Sạn Family Transit Du lịch khách sạn Hà Nội Hà Nội
HN_00382,Cà Phê Mộc 92,Ẩm thực,quán cà phê,21.0107646,105.8062701,"Ngõ 170 Hoàng Ngân, Trung Hòa, Cầu Giấy, Hà Nội, 11313",Hà Nội,Hà Nội,"Cà Phê Mộc 92 là quán cà phê tại Hà Nội, Hà Nội.",Cà Phê Mộc 92 Ẩm thực quán cà phê Hà Nội Hà Nội
HN_00383,Cà Phê Bigone,Ẩm thực,quán cà phê,21.0354013,105.8196451,"Cafe Tú Còi, Phố Đội Cấn, Ba Đình, Hà Nội, 11106",Hà Nội,Hà Nội,"Cà Phê Bigone là quán cà phê tại Hà Nội, Hà Nội.",Cà Phê Bigone Ẩm thực quán cà phê Hà Nội Hà Nội
