id,name,domain,category_vi,latitude,longitude,address,district,province_new,description,search_text
TN_00001,Cafe Bờ Kè,Ẩm thực,quán cà phê,10.5414354,106.4130991,"Nhà Khách, Đường Phan Văn Đạt, Phường 1, Tân An, Long An, 82106",Tân An,Tây Ninh,"Cafe Bờ Kè là quán cà phê tại Tân An, Tây Ninh.",Cafe Bờ Kè Ẩm thực quán cà phê Tân An Tây Ninh
TN_00002,Hủ Tiếu Phở Chay,Ẩm thực,quán thức ăn nhanh,10.5339089,106.4123085,"Đường Nguyễn An Ninh, Phường 3, Tân An, Long An, 82118",Tân An,Tây Ninh,"Hủ Tiếu Phở Chay là quán thức ăn nhanh tại Tân An, Tây Ninh.",Hủ Tiếu Phở Chay Ẩm thực quán thức ăn nhanh Tân An Tây Ninh
TN_00003,Lẩu Gà 458,Ẩm thực,quán thức ăn nhanh,10.5448957,106.3882272,"Tạp Hóa Phương Anh, 468 Đường Quốc Lộ 62, Phường 6, Tân An, Long An, 82110",Tân An,Tây Ninh,"Lẩu Gà 458 là quán thức ăn nhanh tại Tân An, Tây Ninh.",Lẩu Gà 458 Ẩm thực quán thức ăn nhanh Tân An Tây Ninh
TN_00004,Quán Cà Phê Kem,Ẩm thực,quán cà phê,10.5318969,106.4236516,"Đường Nguyễn Thông, Phường 3, Tân An, Long An, 82118",Tân An,Tây Ninh,"Quán Cà Phê Kem là quán cà phê tại Tân An, Tây Ninh.",Quán Cà Phê Kem Ẩm thực quán cà phê Tân An Tây Ninh
TN_00005,Quán Ăn Sân Vườn Đại Nam Phát,Ẩm thực,khu ẩm thực,10.5307089,106.4295424,"276 Đường Nguyễn Thông, Phường 3, Tân An, Long An, 82118",Tân An,Tây Ninh,"Quán Ăn Sân Vườn Đại Nam Phát là khu ẩm thực tại Tân An, Tây Ninh.",Quán Ăn Sân Vườn Đại Nam Phát Ẩm thực khu ẩm thực Tân An Tây Ninh
TN_00006,Cơm Dương Châu,Ẩm thực,khu ẩm thực,10.5372703,106.4169109,"Đại Lý Bưu Điện 37, 158 Đường Thủ Khoa Huân, Phường 1, Tân An, Long An, 82106",Tân An,Tây Ninh,"Cơm Dương Châu là khu ẩm thực tại Tân An, Tây Ninh.",Cơm Dương Châu Ẩm thực khu ẩm thực Tân An Tây Ninh
TN_00007,Massage Đại Ngọc Xông Hơi Xoa Bóp,Du lịch,khách sạn,10.5446799,106.3899219,"Café Windows 2007, 438 Đường Quốc Lộ 62, Phường 6, Tân An, Long An, 82110",Tân An,Tây Ninh,"Massage Đại Ngọc Xông Hơi Xoa Bóp là khách sạn tại Tân An, Tây Ninh.",Massage Đại Ngọc Xông Hơi Xoa Bóp Du lịch khách sạn Tân An Tây Ninh
TN_00008,Hủ Tiếu Chay Phước Lộc,Ẩm thực,quán thức ăn nhanh,10.5422533,106.4039831,"Quốc Lộ 62, Phường 2, Tân An, Long An, 82111",Tân An,Tây Ninh,"Hủ Tiếu Chay Phước Lộc là quán thức ăn nhanh tại Tân An, Tây Ninh.",Hủ Tiếu Chay Phước Lộc Ẩm thực quán thức ăn nhanh Tân An Tây Ninh
TN_00009,Quán Ăn Phở Bò Tái Viên,Ẩm thực,khu ẩm thực,10.5313373,106.4209662,"Nhà Sách Thúy Liễu, 95 Đường Huỳnh Văn Đảnh, Phường 3, Tân An, Long An, 82118",Tân An,Tây Ninh,"Quán Ăn Phở Bò Tái Viên là khu ẩm thực tại Tân An, Tây Ninh.",Quán Ăn Phở Bò Tái Viên Ẩm thực khu ẩm thực Tân An Tây Ninh
TN_00010,Cafe Tuấn,Ẩm thực,quán cà phê,10.5294555,106.4175361,"62 Đường Huỳnh Văn Tạo, Phường 3, Tân An, Long An, 82118",Tân An,Tây Ninh,"Cafe Tuấn là quán cà phê tại Tân An, Tây Ninh.",Cafe Tuấn Ẩm thực quán cà phê Tân An Tây Ninh
TN_00011,Nhà Trọ Xóm Vườn,Du lịch,nhà khách/homestay,10.53119,106.4273784,"Đường Nguyễn Thông, Phường 3, Tân An, Long An, 82118",Tân An,Tây Ninh,"Nhà Trọ Xóm Vườn là nhà khách/homestay tại Tân An, Tây Ninh.",Nhà Trọ Xóm Vườn Du lịch nhà khách/homestay Tân An Tây Ninh
TN_00012,Cà Phê Sân Vườn Bin Bin,Ẩm thực,quán cà phê,10.5329108,106.4246871,"88 Đường Trần Văn Nam, Phường 3, Tân An, Long An, 82118",Tân An,Tây Ninh,"Cà Phê Sân Vườn Bin Bin là quán cà phê tại Tân An, Tây Ninh.",Cà Phê Sân Vườn Bin Bin Ẩm thực quán cà phê Tân An Tây Ninh
TN_00013,Quán Cà Phê Giải Khát Chín Long,Ẩm thực,quán cà phê,10.516566,106.4604045,"Đường Nguyễn Thông, Bình Quới, Châu Thành, Long An, 82212",Châu Thành,Tây Ninh,"Quán Cà Phê Giải Khát Chín Long là quán cà phê tại Châu Thành, Tây Ninh.",Quán Cà Phê Giải Khát Chín Long Ẩm thực quán cà phê Châu Thành Tây Ninh
TN_00014,Hủ Tiếu Bánh Canh Hoành Thánh,Ẩm thực,quán thức ăn nhanh,10.5320957,106.4226386,"Lớp Mẫu Giáo Sao Việt, 165 Đường Nguyễn Thông, Phường 3, Tân An, Long An, 82118",Tân An,Tây Ninh,"Hủ Tiếu Bánh Canh Hoành Thánh là quán thức ăn nhanh tại Tân An, Tây Ninh.",Hủ Tiếu Bánh Canh Hoành Thánh Ẩm thực quán thức ăn nhanh Tân An Tây Ninh
TN_00015,Cafe Kem Trường Thịnh,Ẩm thực,quán cà phê,10.530809,106.4279331,"248 Đường Nguyễn Thông, Phường 3, Tân An, Long An, 82118",Tân An,Tây Ninh,"Cafe Kem Trường Thịnh là quán cà phê tại Tân An, Tây Ninh.",Cafe Kem Trường Thịnh Ẩm thực quán cà phê Tân An Tây Ninh
TN_00016,Quán Thịt Cầy,Ẩm thực,khu ẩm thực,10.5150032,106.4621615,"Đường Nguyễn Thông, Bình Quới, Châu Thành, Long An, 82212",Châu Thành,Tây Ninh,"Quán Thịt Cầy là khu ẩm thực tại Châu Thành, Tây Ninh.",Quán Thịt Cầy Ẩm thực khu ẩm thực Châu Thành Tây Ninh
TN_00017,Nhà Nghỉ Như Ý,Du lịch,nhà khách/homestay,10.5449924,106.3874232,"Cửa Hàng Thuốc Thú Y Kim Vân, Đường Quốc Lộ 62, Phường 6, Tân An, Long An, 82110",Tân An,Tây Ninh,"Nhà Nghỉ Như Ý là nhà khách/homestay tại Tân An, Tây Ninh.",Nhà Nghỉ Như Ý Du lịch nhà khách/homestay Tân An Tây Ninh
TN_00018,Quán Kì Viên,Ẩm thực,khu ẩm thực,10.5439923,106.3951104,"2 Đường Nguyễn Thị Bảy, Phường 6, Tân An, Long An, 82110",Tân An,Tây Ninh,"Quán Kì Viên là khu ẩm thực tại Tân An, Tây Ninh.",Quán Kì Viên Ẩm thực khu ẩm thực Tân An Tây Ninh
TN_00019,Quán Cà Phê Không Tên,Ẩm thực,quán cà phê,10.5299816,106.4237727,"Đường Nguyễn Minh Trường, Phường 3, Tân An, Long An, 82118",Tân An,Tây Ninh,"Quán Cà Phê Không Tên là quán cà phê tại Tân An, Tây Ninh.",Quán Cà Phê Không Tên Ẩm thực quán cà phê Tân An Tây Ninh
TN_00020,Cafe Trung Nguyên,Ẩm thực,quán cà phê,10.5089033,106.4662183,"Tỉnh Lộ 827, Bình Quới, Châu Thành, Long An, 82212",Châu Thành,Tây Ninh,"Cafe Trung Nguyên là quán cà phê tại Châu Thành, Tây Ninh.",Cafe Trung Nguyên Ẩm thực quán cà phê Châu Thành Tây Ninh
TN_00021,Quán Tiến Do,Ẩm thực,quán thức ăn nhanh,10.5384798,106.4195544,"Đường Nguyễn Thái Bình, Phường 1, Tân An, Long An, 82106",Tân An,Tây Ninh,"Quán Tiến Do là quán thức ăn nhanh tại Tân An, Tây Ninh.",Quán Tiến Do Ẩm thực quán thức ăn nhanh Tân An Tây Ninh
TN_00022,Mỹ Hương,Ẩm thực,quán cà phê,10.5452797,106.3943656,"Đường Nguyễn Thị Bảy, Phường 6, Tân An, Long An, 82110",Tân An,Tây Ninh,"Mỹ Hương là quán cà phê tại Tân An, Tây Ninh.",Mỹ Hương Ẩm thực quán cà phê Tân An Tây Ninh
TN_00023,Quán Cà Phê Chi Hội Cá Cảnh,Ẩm thực,quán cà phê,10.5279167,106.4228094,"Đường Nguyễn Minh Trường, Phường 3, Tân An, Long An, 82118",Tân An,Tây Ninh,"Quán Cà Phê Chi Hội Cá Cảnh là quán cà phê tại Tân An, Tây Ninh.",Quán Cà Phê Chi Hội Cá Cảnh Ẩm thực quán cà phê Tân An Tây Ninh
TN_00024,Cafe Ao Quang,Ẩm thực,quán cà phê,10.5377626,106.4177485,"Trường Mầm Non 1-6, 83 Đường Thủ Khoa Huân, Phường 1, Tân An, Long An, 82106",Tân An,Tây Ninh,"Cafe Ao Quang là quán cà phê tại Tân An, Tây Ninh.",Cafe Ao Quang Ẩm thực quán cà phê Tân An Tây Ninh
TN_00025,Zorok bia quán nhậu,Ẩm thực,quán bar,10.5405201,106.4079012,"Cửa Hàng Điện Cơ Số 5 Minh Hiền, 15 Đường Quốc Lộ 62, Phường 2, Tân An, Long An, 82111",Tân An,Tây Ninh,"Zorok bia quán nhậu là quán bar tại Tân An, Tây Ninh.",Zorok bia quán nhậu Ẩm thực quán bar Tân An Tây Ninh
TN_00026,Bánh Hỏi Heo Quay Tám An,Ẩm thực,khu ẩm thực,10.5374994,106.4147561,"Đại Lý Vé Số Năm Danh, 76 Đường Cách Mạng Tháng Tám, Phường 1, Tân An, Long An, 82106",Tân An,Tây Ninh,"Bánh Hỏi Heo Quay Tám An là khu ẩm thực tại Tân An, Tây Ninh.",Bánh Hỏi Heo Quay Tám An Ẩm thực khu ẩm thực Tân An Tây Ninh
TN_00027,Phở Bắc,Ẩm thực,quán thức ăn nhanh,10.5441732,106.3950086,"Đường Nguyễn Thị Bảy, Phường 6, Tân An, Long An, 82110",Tân An,Tây Ninh,"Phở Bắc là quán thức ăn nhanh tại Tân An, Tây Ninh.",Phở Bắc Ẩm thực quán thức ăn nhanh Tân An Tây Ninh
TN_00028,Quán Ăn Như Quỳnh,Ẩm thực,khu ẩm thực,10.5288751,106.4232295,"Đường Nguyễn Minh Trường, Phường 3, Tân An, Long An, 82118",Tân An,Tây Ninh,"Quán Ăn Như Quỳnh là khu ẩm thực tại Tân An, Tây Ninh.",Quán Ăn Như Quỳnh Ẩm thực khu ẩm thực Tân An Tây Ninh
TN_00029,Nhà Trọ Hồng Thủy,Du lịch,nhà khách/homestay,10.5449082,106.3872698,"Garage Hữu Nhân, 261 Đường Quốc Lộ 62, Phường 6, Tân An, Long An, 82110",Tân An,Tây Ninh,"Nhà Trọ Hồng Thủy là nhà khách/homestay tại Tân An, Tây Ninh.",Nhà Trọ Hồng Thủy Du lịch nhà khách/homestay Tân An Tây Ninh
TN_00030,Cafe Asean,Ẩm thực,quán cà phê,10.5303844,106.4150183,"120 Đường Huỳnh Văn Tạo, Phường 3, Tân An, Long An, 82118",Tân An,Tây Ninh,"Cafe Asean là quán cà phê tại Tân An, Tây Ninh.",Cafe Asean Ẩm thực quán cà phê Tân An Tây Ninh
TN_00031,Lẩu Dê Thanh Tú,Ẩm thực,khu ẩm thực,10.5367432,106.4227821,"Quán Lẩu Dê Anh Tú, 128 Đường Nguyễn Thái Bình, Phường 3, Tân An, Long An, 82118",Tân An,Tây Ninh,"Lẩu Dê Thanh Tú là khu ẩm thực tại Tân An, Tây Ninh.",Lẩu Dê Thanh Tú Ẩm thực khu ẩm thực Tân An Tây Ninh
TN_00032,Cút Nướng Gà Nướng,Ẩm thực,quán thức ăn nhanh,10.536641,106.4093664,"Cửa Hàng Điện Thoại Di Động Duy Thanh, 9 Đường Trương Định, Phường 2, Tân An, Long An, 82111",Tân An,Tây Ninh,"Cút Nướng Gà Nướng là quán thức ăn nhanh tại Tân An, Tây Ninh.",Cút Nướng Gà Nướng Ẩm thực quán thức ăn nhanh Tân An Tây Ninh
TN_00033,Quán Lẩu Rắn Cây Dương,Ẩm thực,khu ẩm thực,10.5311194,106.424465,"73 Đường Nguyễn Minh Trường, Phường 3, Tân An, Long An, 82118",Tân An,Tây Ninh,"Quán Lẩu Rắn Cây Dương là khu ẩm thực tại Tân An, Tây Ninh.",Quán Lẩu Rắn Cây Dương Ẩm thực khu ẩm thực Tân An Tây Ninh
TN_00034,Cháo Huyết Huyệt Hậu,Ẩm thực,quán thức ăn nhanh,10.5298832,106.43416,"135 Đường Nguyễn Thông, Bình Tâm, Tân An, Long An, 82119",Tân An,Tây Ninh,"Cháo Huyết Huyệt Hậu là quán thức ăn nhanh tại Tân An, Tây Ninh.",Cháo Huyết Huyệt Hậu Ẩm thực quán thức ăn nhanh Tân An Tây Ninh
TN_00035,Cà Phê Giải Khát Điểm Tâm Wifi Hội Quán Trẻ,Ẩm thực,quán cà phê,10.5297833,106.4160023,"49 Đường Huỳnh Văn Tạo, Phường 3, Tân An, Long An, 82118",Tân An,Tây Ninh,"Cà Phê Giải Khát Điểm Tâm Wifi Hội Quán Trẻ là quán cà phê tại Tân An, Tây Ninh.",Cà Phê Giải Khát Điểm Tâm Wifi Hội Quán Trẻ Ẩm thực quán cà phê Tân An Tây Ninh
TN_00036,Hủ Tiếu Chay Thanh Trúc,Ẩm thực,quán thức ăn nhanh,10.5422708,106.4038434,"Quốc Lộ 62, Phường 2, Tân An, Long An, 82111",Tân An,Tây Ninh,"Hủ Tiếu Chay Thanh Trúc là quán thức ăn nhanh tại Tân An, Tây Ninh.",Hủ Tiếu Chay Thanh Trúc Ẩm thực quán thức ăn nhanh Tân An Tây Ninh
TN_00037,Quán Ăn Chay,Ẩm thực,khu ẩm thực,10.5381672,106.4177977,"Đường Nguyễn Huệ, Phường 1, Tân An, Long An, 82106",Tân An,Tây Ninh,"Quán Ăn Chay là khu ẩm thực tại Tân An, Tây Ninh.",Quán Ăn Chay Ẩm thực khu ẩm thực Tân An Tây Ninh
TN_00038,Cà Phê Sân Vườn Mỹ Đình,Ẩm thực,quán cà phê,10.5375692,106.4059619,"ATM ACB, 123C Đường Trà Quí Bình, Phường 2, Tân An, Long An, 82111",Tân An,Tây Ninh,"Cà Phê Sân Vườn Mỹ Đình là quán cà phê tại Tân An, Tây Ninh.",Cà Phê Sân Vườn Mỹ Đình Ẩm thực quán cà phê Tân An Tây Ninh
TN_00039,Hủ Tiếu Bánh Canh Chay,Ẩm thực,khu ẩm thực,10.5337241,106.4122067,"Đường Nguyễn An Ninh, Phường 3, Tân An, Long An, 82118",Tân An,Tây Ninh,"Hủ Tiếu Bánh Canh Chay là khu ẩm thực tại Tân An, Tây Ninh.",Hủ Tiếu Bánh Canh Chay Ẩm thực khu ẩm thực Tân An Tây Ninh
TN_00040,Phở Bò Beefsteak,Ẩm thực,quán thức ăn nhanh,10.5372058,106.4143989,"Tiệm Rửa Xe - Thay Nhớt Phát Khương, 48 Đường Cách Mạng Tháng Tám, Phường 1, Tân An, Long An, 82106",Tân An,Tây Ninh,"Phở Bò Beefsteak là quán thức ăn nhanh tại Tân An, Tây Ninh.",Phở Bò Beefsteak Ẩm thực quán thức ăn nhanh Tân An Tây Ninh
TN_00041,Bánh Xèo 6000,Ẩm thực,quán thức ăn nhanh,10.5416463,106.4034408,"Cửa Hàng Liên Kết, 12 Đường Hùng Vương, Phường 2, Tân An, Long An, 82111",Tân An,Tây Ninh,"Bánh Xèo 6000 là quán thức ăn nhanh tại Tân An, Tây Ninh.",Bánh Xèo 6000 Ẩm thực quán thức ăn nhanh Tân An Tây Ninh
TN_00042,Quán 407 Chuyên Doanh Quán Nhậu,Ẩm thực,khu ẩm thực,10.5271661,106.4225722,"25 Đường Nguyễn Minh Trường, Phường 3, Tân An, Long An, 82118",Tân An,Tây Ninh,"Quán 407 Chuyên Doanh Quán Nhậu là khu ẩm thực tại Tân An, Tây Ninh.",Quán 407 Chuyên Doanh Quán Nhậu Ẩm thực khu ẩm thực Tân An Tây Ninh
TN_00043,Chợ Đêm Tân An,Du lịch,chợ truyền thống,10.5313746,106.4165997,"Câu Lạc Bộ Thể Dục Thẩm Mỹ Thảo Nga, 191 Đường Hùng Vương, Phường 3, Tân An, Long An, 82118",Tân An,Tây Ninh,"Chợ Đêm Tân An là chợ truyền thống tại Tân An, Tây Ninh.",Chợ Đêm Tân An Du lịch chợ truyền thống Tân An Tây Ninh
TN_00044,Quán Thịt Cầy Bờ Kinh,Ẩm thực,khu ẩm thực,10.5335831,106.4250204,"95 Đường Trần Văn Nam, Phường 3, Tân An, Long An, 82118",Tân An,Tây Ninh,"Quán Thịt Cầy Bờ Kinh là khu ẩm thực tại Tân An, Tây Ninh.",Quán Thịt Cầy Bờ Kinh Ẩm thực khu ẩm thực Tân An Tây Ninh
TN_00045,Cafe Huỳnh Anh,Ẩm thực,quán cà phê,10.5284877,106.4230525,"Đường Nguyễn Minh Trường, Phường 3, Tân An, Long An, 82118",Tân An,Tây Ninh,"Cafe Huỳnh Anh là quán cà phê tại Tân An, Tây Ninh.",Cafe Huỳnh Anh Ẩm thực quán cà phê Tân An Tây Ninh
TN_00046,Cơm Bình Dân 177,Ẩm thực,khu ẩm thực,10.5320614,106.4228213,"Nhà Trọ Bình Dân, 165 Đường Nguyễn Thông, Phường 3, Tân An, Long An",Tân An,Tây Ninh,"Cơm Bình Dân 177 là khu ẩm thực tại Tân An, Tây Ninh.",Cơm Bình Dân 177 Ẩm thực khu ẩm thực Tân An Tây Ninh
TN_00047,Quán Ăn Quán Nhậu Miệt Vườn,Ẩm thực,quán bar,10.5316201,106.412727,"Đường Huỳnh Văn Tạo, Phường 3, Tân An, Long An, 82118",Tân An,Tây Ninh,"Quán Ăn Quán Nhậu Miệt Vườn là quán bar tại Tân An, Tây Ninh.",Quán Ăn Quán Nhậu Miệt Vườn Ẩm thực quán bar Tân An Tây Ninh
TN_00048,Quán Nhậu Lao Động,Ẩm thực,quán bar,10.5310831,106.4280836,"229 Đường Nguyễn Thông, Phường 3, Tân An, Long An, 82118",Tân An,Tây Ninh,"Quán Nhậu Lao Động là quán bar tại Tân An, Tây Ninh.",Quán Nhậu Lao Động Ẩm thực quán bar Tân An Tây Ninh
TN_00049,Cà Phê Sân Vườn 51B,Ẩm thực,quán cà phê,10.5481135,106.3921687,"45 Đường Nguyễn Thị Bảy, Phường 6, Tân An, Long An, 82110",Tân An,Tây Ninh,"Cà Phê Sân Vườn 51B là quán cà phê tại Tân An, Tây Ninh.",Cà Phê Sân Vườn 51B Ẩm thực quán cà phê Tân An Tây Ninh
TN_00050,Cà phê Thảo Vy,Ẩm thực,quán cà phê,10.5367781,106.4224473,"130 Đường Nguyễn Thái Bình, Phường 3, Tân An, Long An, 82118",Tân An,Tây Ninh,"Cà phê Thảo Vy là quán cà phê tại Tân An, Tây Ninh.",Cà phê Thảo Vy Ẩm thực quán cà phê Tân An Tây Ninh
TN_00051,Nhà Trọ 69 Bình Dân 24/24,Du lịch,nhà khách/homestay,10.5301902,106.4232155,"Dịch Vụ Nhà Trọ 68, 68 Đường Trần Văn Nam, Phường 3, Tân An, Long An",Tân An,Tây Ninh,"Nhà Trọ 69 Bình Dân 24/24 là nhà khách/homestay tại Tân An, Tây Ninh.",Nhà Trọ 69 Bình Dân 24/24 Du lịch nhà khách/homestay Tân An Tây Ninh
TN_00052,Hotel Quỳnh Anh,Du lịch,khách sạn,10.5349867,106.4142275,"Đường Nguyễn An Ninh, Phường 1, Tân An, Long An, 82106",Tân An,Tây Ninh,"Hotel Quỳnh Anh là khách sạn tại Tân An, Tây Ninh.",Hotel Quỳnh Anh Du lịch khách sạn Tân An Tây Ninh
TN_00053,Quán Cà Phê Sinh Tố,Ẩm thực,quán cà phê,10.5218709,106.4534148,"Đường Nguyễn Thông, Bình Quới, Châu Thành, Long An, 82212",Châu Thành,Tây Ninh,"Quán Cà Phê Sinh Tố là quán cà phê tại Châu Thành, Tây Ninh.",Quán Cà Phê Sinh Tố Ẩm thực quán cà phê Châu Thành Tây Ninh
TN_00054,Cafe 51,Ẩm thực,quán cà phê,10.5482876,106.3918422,"120A Đường Nguyễn Thị Bảy, Phường 6, Tân An, Long An, 82110",Tân An,Tây Ninh,"Cafe 51 là quán cà phê tại Tân An, Tây Ninh.",Cafe 51 Ẩm thực quán cà phê Tân An Tây Ninh
TN_00055,Quán Cơm Bình Dân,Ẩm thực,khu ẩm thực,10.542798,106.4013037,"Café - Giải Khát Phượng Trang, 270 Đường Quốc Lộ 62, Phường 2, Tân An, Long An, 82111",Tân An,Tây Ninh,"Quán Cơm Bình Dân là khu ẩm thực tại Tân An, Tây Ninh.",Quán Cơm Bình Dân Ẩm thực khu ẩm thực Tân An Tây Ninh
TN_00056,Coopmart Tân An,Du lịch,chợ truyền thống,10.5345475,106.4107415,"Cửa Hàng Thực Phẩm Tươi Sống Huỳnh Thảo, Đường Mai Thị Tốt, Phường 2, Tân An, Long An, 82111",Tân An,Tây Ninh,"Coopmart Tân An là chợ truyền thống tại Tân An, Tây Ninh.",Coopmart Tân An Du lịch chợ truyền thống Tân An Tây Ninh
TN_00057,Gỏi Cuốn Mì Cuốn,Ẩm thực,quán thức ăn nhanh,10.5363808,106.4096856,"Tiệm Cá Kiểng Hữu Phát, 21 Đường Trương Định, Phường 2, Tân An, Long An, 82111",Tân An,Tây Ninh,"Gỏi Cuốn Mì Cuốn là quán thức ăn nhanh tại Tân An, Tây Ninh.",Gỏi Cuốn Mì Cuốn Ẩm thực quán thức ăn nhanh Tân An Tây Ninh
TN_00058,Quán Sơn Dương Lẩu Dê,Ẩm thực,khu ẩm thực,10.5325987,106.4200816,"Nhà Thuốc Tây Nguyễn Thông, 61 Đường Nguyễn Thông, Phường 3, Tân An, Long An, 82118",Tân An,Tây Ninh,"Quán Sơn Dương Lẩu Dê là khu ẩm thực tại Tân An, Tây Ninh.",Quán Sơn Dương Lẩu Dê Ẩm thực khu ẩm thực Tân An Tây Ninh
TN_00059,Nhà Hàng Khách Sạn Mỹ Đình,Ẩm thực,nhà hàng,10.5375242,106.4058578,"ATM ACB, 123C Đường Trà Quí Bình, Phường 2, Tân An, Long An, 82111",Tân An,Tây Ninh,"Nhà Hàng Khách Sạn Mỹ Đình là nhà hàng tại Tân An, Tây Ninh.",Nhà Hàng Khách Sạn Mỹ Đình Ẩm thực nhà hàng Tân An Tây Ninh
TN_00060,Quán Nước Ven Đường,Ẩm thực,quán cà phê,10.5289498,106.4227873,"46 Đường Trần Văn Nam, Phường 3, Tân An, Long An, 82118",Tân An,Tây Ninh,"Quán Nước Ven Đường là quán cà phê tại Tân An, Tây Ninh.",Quán Nước Ven Đường Ẩm thực quán cà phê Tân An Tây Ninh
TN_00061,Cơm Tấm Bún Thịt Nướng Riêu Cua,Ẩm thực,quán thức ăn nhanh,10.533778,106.4122263,"Đường Nguyễn An Ninh, Phường 3, Tân An, Long An, 82118",Tân An,Tây Ninh,"Cơm Tấm Bún Thịt Nướng Riêu Cua là quán thức ăn nhanh tại Tân An, Tây Ninh.",Cơm Tấm Bún Thịt Nướng Riêu Cua Ẩm thực quán thức ăn nhanh Tân An Tây Ninh
TN_00062,Ngọc Sương 3,Du lịch,khách sạn,10.5372459,106.4059385,"Tiệm Vàng Ngọc Sương, 129 Đường Hùng Vương, Phường 2, Tân An, Long An, 82111",Tân An,Tây Ninh,"Ngọc Sương 3 là khách sạn tại Tân An, Tây Ninh.",Ngọc Sương 3 Du lịch khách sạn Tân An Tây Ninh
TN_00063,Quán Cơm Chay Âu Lạc,Ẩm thực,quán thức ăn nhanh,10.5388927,106.4063226,"Cửa Hàng Nghĩa Tiến, 176 Đường Quốc Lộ 1, Phường 2, Tân An, Long An, 82111",Tân An,Tây Ninh,"Quán Cơm Chay Âu Lạc là quán thức ăn nhanh tại Tân An, Tây Ninh.",Quán Cơm Chay Âu Lạc Ẩm thực quán thức ăn nhanh Tân An Tây Ninh
TN_00064,Cơm Tấm Bánh Ướt,Ẩm thực,khu ẩm thực,10.536987,106.416327,"Đường Thủ Khoa Huân, Phường 1, Tân An, Long An, 82106",Tân An,Tây Ninh,"Cơm Tấm Bánh Ướt là khu ẩm thực tại Tân An, Tây Ninh.",Cơm Tấm Bánh Ướt Ẩm thực khu ẩm thực Tân An Tây Ninh
TN_00065,Nhà Trọ Hoài Trang,Du lịch,nhà khách/homestay,10.5445961,106.390346,"Công Ty Trách Nhiệm Hữu Hạn Đại Ngọc, Đường Quốc Lộ 62, Phường 6, Tân An, Long An, 82110",Tân An,Tây Ninh,"Nhà Trọ Hoài Trang là nhà khách/homestay tại Tân An, Tây Ninh.",Nhà Trọ Hoài Trang Du lịch nhà khách/homestay Tân An Tây Ninh
TN_00066,Cafe Anh Đào,Ẩm thực,quán cà phê,10.5392824,106.4047539,"Đại Lý Vé Số Ba Xuyên, 69 Đường Hùng Vương, Phường 2, Tân An, Long An, 82111",Tân An,Tây Ninh,"Cafe Anh Đào là quán cà phê tại Tân An, Tây Ninh.",Cafe Anh Đào Ẩm thực quán cà phê Tân An Tây Ninh
TN_00067,Quán Ăn Bình Dân 9 Có,Ẩm thực,khu ẩm thực,10.5336826,106.4250274,"96 Đường Trần Văn Nam, Phường 3, Tân An, Long An, 82118",Tân An,Tây Ninh,"Quán Ăn Bình Dân 9 Có là khu ẩm thực tại Tân An, Tây Ninh.",Quán Ăn Bình Dân 9 Có Ẩm thực khu ẩm thực Tân An Tây Ninh
TN_00068,Thằng Bờm,Ẩm thực,quán cà phê,10.5436412,106.3961039,"Cửa Hàng Điện Thoại Di Động Tiến Phúc, 352 Đường Quốc Lộ 62, Phường 6, Tân An, Long An, 82110",Tân An,Tây Ninh,"Thằng Bờm là quán cà phê tại Tân An, Tây Ninh.",Thằng Bờm Ẩm thực quán cà phê Tân An Tây Ninh
TN_00069,Phở 999,Ẩm thực,quán thức ăn nhanh,10.5368274,106.4135958,"Đường Nguyễn Trung Trực, Phường 1, Tân An, Long An, 82106",Tân An,Tây Ninh,"Phở 999 là quán thức ăn nhanh tại Tân An, Tây Ninh.",Phở 999 Ẩm thực quán thức ăn nhanh Tân An Tây Ninh
TN_00070,Cafe Chuông Gió,Ẩm thực,quán cà phê,10.537496,106.4070012,"Đường Đỗ Tường Phong, Phường 2, Tân An, Long An, 82111",Tân An,Tây Ninh,"Cafe Chuông Gió là quán cà phê tại Tân An, Tây Ninh.",Cafe Chuông Gió Ẩm thực quán cà phê Tân An Tây Ninh
TN_00071,Cafe Sân Vườn Thảo Nguyên,Ẩm thực,quán cà phê,10.5257935,106.4214984,"4 Đường Nguyễn Minh Trường, Phường 3, Tân An, Long An, 82118",Tân An,Tây Ninh,"Cafe Sân Vườn Thảo Nguyên là quán cà phê tại Tân An, Tây Ninh.",Cafe Sân Vườn Thảo Nguyên Ẩm thực quán cà phê Tân An Tây Ninh
TN_00072,Bún Riêu Hiền Hiếu,Ẩm thực,quán thức ăn nhanh,10.53741,106.4146494,"Shop Tự Chọn, 68 Đường Cách Mạng Tháng Tám, Phường 1, Tân An, Long An, 82106",Tân An,Tây Ninh,"Bún Riêu Hiền Hiếu là quán thức ăn nhanh tại Tân An, Tây Ninh.",Bún Riêu Hiền Hiếu Ẩm thực quán thức ăn nhanh Tân An Tây Ninh
TN_00073,Nhà Hàng Cao Xanh,Ẩm thực,nhà hàng,10.5407942,106.4037972,"Đường Hùng Vương, Phường 2, Tân An, Long An, 82111",Tân An,Tây Ninh,"Nhà Hàng Cao Xanh là nhà hàng tại Tân An, Tây Ninh.",Nhà Hàng Cao Xanh Ẩm thực nhà hàng Tân An Tây Ninh
TN_00074,Quán Cơm Chay Cây Sung,Ẩm thực,khu ẩm thực,10.5360254,106.425277,"165 Đường Nguyễn Thái Bình, Phường 3, Tân An, Long An, 82118",Tân An,Tây Ninh,"Quán Cơm Chay Cây Sung là khu ẩm thực tại Tân An, Tây Ninh.",Quán Cơm Chay Cây Sung Ẩm thực khu ẩm thực Tân An Tây Ninh
TN_00075,Quán Khánh,Ẩm thực,nhà hàng,10.657601,106.1796898,"Thạnh Hóa, Long An",Thạnh Hóa,Tây Ninh,"Quán Khánh là nhà hàng tại Thạnh Hóa, Tây Ninh.",Quán Khánh Ẩm thực nhà hàng Thạnh Hóa Tây Ninh
TN_00076,Sao Mai,Du lịch,khách sạn,10.6581915,106.1809772,"Thạnh Hóa, Long An",Thạnh Hóa,Tây Ninh,"Sao Mai là khách sạn tại Thạnh Hóa, Tây Ninh.",Sao Mai Du lịch khách sạn Thạnh Hóa Tây Ninh
TN_00077,Prince Siddhartha Guatama Riding a Horse,Du lịch,địa điểm du lịch,11.3040112,106.1305602,"Đại Lộ Cao Thượng Phẩm, Hòa Thành, Tây Ninh, 80606",Hòa Thành,Tây Ninh,"Prince Siddhartha Guatama Riding a Horse là địa điểm du lịch tại Hòa Thành, Tây Ninh.",Prince Siddhartha Guatama Riding a Horse Du lịch địa điểm du lịch Hòa Thành Tây Ninh
TN_00078,Chợ Tuyên Nhơn,Du lịch,chợ truyền thống,10.6590701,106.1823026,"Đường Số 8, Thạnh Hóa, Long An, 82906",Thạnh Hóa,Tây Ninh,"Chợ Tuyên Nhơn là chợ truyền thống tại Thạnh Hóa, Tây Ninh.",Chợ Tuyên Nhơn Du lịch chợ truyền thống Thạnh Hóa Tây Ninh
TN_00079,Chợ Bàu Trai,Du lịch,chợ truyền thống,10.9003024,106.3934648,"Đường Nguyễn Trung Trực, Hậu Nghĩa, Đức Hòa, Long An, 82706",Đức Hòa,Tây Ninh,"Chợ Bàu Trai là chợ truyền thống tại Đức Hòa, Tây Ninh.",Chợ Bàu Trai Du lịch chợ truyền thống Đức Hòa Tây Ninh
TN_00080,Gate 07,Du lịch,địa điểm du lịch,11.2952165,106.1340754,"1 Đường An Dương Vương, Long Thành Bắc, Hòa Thành, Tây Ninh, 80607",Hòa Thành,Tây Ninh,"Gate 07 là địa điểm du lịch tại Hòa Thành, Tây Ninh.",Gate 07 Du lịch địa điểm du lịch Hòa Thành Tây Ninh
TN_00081,Gold Coffe,Ẩm thực,quán cà phê,10.8028181,106.4772067,"Đường Hải Sơn Tân Đức, Đức Hòa Hạ, Đức Hòa, Long An, 82724",Đức Hòa,Tây Ninh,"Gold Coffe là quán cà phê tại Đức Hòa, Tây Ninh.",Gold Coffe Ẩm thực quán cà phê Đức Hòa Tây Ninh
TN_00082,Dê Ninh Thuận,Ẩm thực,nhà hàng,10.8048776,106.4765532,"Đường Đức Hòa Hạ, Đức Hòa Hạ, Đức Hòa, Long An, 82724",Đức Hòa,Tây Ninh,"Dê Ninh Thuận là nhà hàng tại Đức Hòa, Tây Ninh.",Dê Ninh Thuận Ẩm thực nhà hàng Đức Hòa Tây Ninh
TN_00083,Dê Ninh Thuận,Ẩm thực,nhà hàng,10.8048508,106.4765468,"Đường Đức Hòa Hạ, Đức Hòa Hạ, Đức Hòa, Long An, 82724",Đức Hòa,Tây Ninh,"Dê Ninh Thuận là nhà hàng tại Đức Hòa, Tây Ninh.",Dê Ninh Thuận Ẩm thực nhà hàng Đức Hòa Tây Ninh
TN_00084,Gold Coffe,Ẩm thực,quán cà phê,10.8027499,106.4771791,"Đường Đức Hòa Hạ, Đức Hòa Hạ, Đức Hòa, Long An, 82724",Đức Hòa,Tây Ninh,"Gold Coffe là quán cà phê tại Đức Hòa, Tây Ninh.",Gold Coffe Ẩm thực quán cà phê Đức Hòa Tây Ninh
TN_00085,Cháo cá CÂY SUNG,Ẩm thực,nhà hàng,10.5197408,106.3888318,"Tiệm Gạo Ba Kính, 752 Đường Quốc Lộ 1, Phường 4, Tân An, Long An, 82114",Tân An,Tây Ninh,"Cháo cá CÂY SUNG là nhà hàng tại Tân An, Tây Ninh.",Cháo cá CÂY SUNG Ẩm thực nhà hàng Tân An Tây Ninh
TN_00086,Duc hoa,Ẩm thực,quán cà phê,10.823643,106.4574674,"Đường Tỉnh 825, Đức Hòa, Long An, 82722",Đức Hòa,Tây Ninh,"Duc hoa là quán cà phê tại Đức Hòa, Tây Ninh.",Duc hoa Ẩm thực quán cà phê Đức Hòa Tây Ninh
TN_00087,Caphe kim nguyen,Ẩm thực,quán cà phê,10.794796,106.5041084,"Tỉnh Lộ 825, Đức Hòa Đông, Đức Hòa, Long An",Đức Hòa,Tây Ninh,"Caphe kim nguyen là quán cà phê tại Đức Hòa, Tây Ninh.",Caphe kim nguyen Ẩm thực quán cà phê Đức Hòa Tây Ninh
TN_00088,Tra My Nha Nghi,Du lịch,nhà khách/homestay,10.5466372,106.3965618,"Đường Số 12, Phường 6, Tân An, Long An, 82110",Tân An,Tây Ninh,"Tra My Nha Nghi là nhà khách/homestay tại Tân An, Tây Ninh.",Tra My Nha Nghi Du lịch nhà khách/homestay Tân An Tây Ninh
TN_00089,Caphe ang hong,Ẩm thực,quán cà phê,10.7965871,106.4997395,"Tỉnh Lộ 825, Đức Hòa Hạ, Đức Hòa, Long An, 82724",Đức Hòa,Tây Ninh,"Caphe ang hong là quán cà phê tại Đức Hòa, Tây Ninh.",Caphe ang hong Ẩm thực quán cà phê Đức Hòa Tây Ninh
TN_00090,Cafe Hương Thầm,Ẩm thực,quán cà phê,11.3038448,106.1189619,"110 Đường Chánh Môn A, Phường 4, Tây Ninh, 80109",Tây Ninh,Tây Ninh,"Cafe Hương Thầm là quán cà phê tại Tây Ninh, Tây Ninh.",Cafe Hương Thầm Ẩm thực quán cà phê Tây Ninh Tây Ninh
TN_00091,NHÀ Phụt Thảo,Du lịch,nhà khách/homestay,10.623109,105.9663057,"Tỉnh Lộ 837, Tân Lập, Tân Thạnh, Long An, 83409",Tân Thạnh,Tây Ninh,"NHÀ Phụt Thảo là nhà khách/homestay tại Tân Thạnh, Tây Ninh.",NHÀ Phụt Thảo Du lịch nhà khách/homestay Tân Thạnh Tây Ninh
TN_00092,Ngoc My,Du lịch,nhà khách/homestay,11.5450816,106.0058708,"Đường Phạm Ngọc Thạch, Tân Biên, Tây Ninh, 80406",Tân Biên,Tây Ninh,"Ngoc My là nhà khách/homestay tại Tân Biên, Tây Ninh.",Ngoc My Du lịch nhà khách/homestay Tân Biên Tây Ninh
TN_00093,Nguyen gia guesthouse,Du lịch,nhà khách/homestay,11.3188439,106.0884641,"5 Hẻm 13 Tua Hai, Phường 1, Tây Ninh, 80106",Tây Ninh,Tây Ninh,"Nguyen gia guesthouse là nhà khách/homestay tại Tây Ninh, Tây Ninh.",Nguyen gia guesthouse Du lịch nhà khách/homestay Tây Ninh Tây Ninh
TN_00094,Quyen Motel,Du lịch,nhà nghỉ,11.3150857,106.0976265,"Cửa Hàng Điện Thoại Di Động Viettel, 332 Đường 30 Tháng 4, Phường 3, Tây Ninh, 80108",Tây Ninh,Tây Ninh,"Quyen Motel là nhà nghỉ tại Tây Ninh, Tây Ninh.",Quyen Motel Du lịch nhà nghỉ Tây Ninh Tây Ninh
TN_00095,Viet Phuong Hotel,Du lịch,khách sạn,11.3152102,106.0979955,"346 Đường 30 Tháng 4, Phường 3, Tây Ninh, 80108",Tây Ninh,Tây Ninh,"Viet Phuong Hotel là khách sạn tại Tây Ninh, Tây Ninh.",Viet Phuong Hotel Du lịch khách sạn Tây Ninh Tây Ninh
TN_00096,Nhat Quy Hotel,Du lịch,khách sạn,11.3179106,106.0986625,"Café An Cư, 311 Đường 30 Tháng 4, Phường 1, Tây Ninh, 80106",Tây Ninh,Tây Ninh,"Nhat Quy Hotel là khách sạn tại Tây Ninh, Tây Ninh.",Nhat Quy Hotel Du lịch khách sạn Tây Ninh Tây Ninh
TN_00097,Anh Duong Guesthouse,Du lịch,nhà khách/homestay,11.3167508,106.0812076,"2 Hẻm 1 Cách Mạng Tháng 8, Thái Bình, Châu Thành, Tây Ninh, 80508",Châu Thành,Tây Ninh,"Anh Duong Guesthouse là nhà khách/homestay tại Châu Thành, Tây Ninh.",Anh Duong Guesthouse Du lịch nhà khách/homestay Châu Thành Tây Ninh
TN_00098,Thuy Oanh Motel,Du lịch,nhà khách/homestay,11.3179965,106.102015,"26 Đường Số 2, Phường 3, Tây Ninh, 80108",Tây Ninh,Tây Ninh,"Thuy Oanh Motel là nhà khách/homestay tại Tây Ninh, Tây Ninh.",Thuy Oanh Motel Du lịch nhà khách/homestay Tây Ninh Tây Ninh
TN_00099,187 Hai Bà Trưng. F6.Q3,Ẩm thực,quán cà phê,10.7808596,105.8962781,"Tuyên Thạnh, Kiến Tường, Long An",Kiến Tường,Tây Ninh,"187 Hai Bà Trưng. F6.Q3 là quán cà phê tại Kiến Tường, Tây Ninh.",187 Hai Bà Trưng. F6.Q3 Ẩm thực quán cà phê Kiến Tường Tây Ninh
TN_00100,phi long quán,Ẩm thực,nhà hàng,10.6359346,106.6895866,"Long Hậu, Cần Giuộc, Long An",Cần Giuộc,Tây Ninh,"phi long quán là nhà hàng tại Cần Giuộc, Tây Ninh.",phi long quán Ẩm thực nhà hàng Cần Giuộc Tây Ninh
TN_00101,Nhà Nghỉ Hiểu My,Du lịch,nhà nghỉ,11.306856,106.1311994,"Đường Số 99 Đường Cách Mạng Tháng Tám, Hiệp Ninh, Tây Ninh, 80110",Tây Ninh,Tây Ninh,"Nhà Nghỉ Hiểu My là nhà nghỉ tại Tây Ninh, Tây Ninh.",Nhà Nghỉ Hiểu My Du lịch nhà nghỉ Tây Ninh Tây Ninh
TN_00102,Xiên que phố,Ẩm thực,nhà hàng,11.3033695,106.1175483,"110 Đường Nguyễn Văn Rốp, Phường 4, Tây Ninh, 80109",Tây Ninh,Tây Ninh,"Xiên que phố là nhà hàng tại Tây Ninh, Tây Ninh.",Xiên que phố Ẩm thực nhà hàng Tây Ninh Tây Ninh
TN_00103,Qua Com,Ẩm thực,nhà hàng,11.2094675,106.1499236,"Đường Quốc Lộ 22B, Cẩm Giang, Gò Dầu, Tây Ninh, 80713",Gò Dầu,Tây Ninh,"Qua Com là nhà hàng tại Gò Dầu, Tây Ninh.",Qua Com Ẩm thực nhà hàng Gò Dầu Tây Ninh
TN_00104,Binh an,Du lịch,khách sạn,11.0706535,106.2914441,"Quốc Lộ 22, Thanh Phước, Gò Dầu, Tây Ninh, 80707",Gò Dầu,Tây Ninh,"Binh an là khách sạn tại Gò Dầu, Tây Ninh.",Binh an Du lịch khách sạn Gò Dầu Tây Ninh
TN_00105,Quan Con,Ẩm thực,nhà hàng,11.2970101,106.1060102,"Đường 30 Tháng 4, Phường 4, Tây Ninh, 80109",Tây Ninh,Tây Ninh,"Quan Con là nhà hàng tại Tây Ninh, Tây Ninh.",Quan Con Ẩm thực nhà hàng Tây Ninh Tây Ninh
TN_00106,Khu A Hậu nghĩa,Du lịch,bảo tàng,10.8977861,106.3912139,"261 Đường Tỉnh 825, Hậu Nghĩa, Đức Hòa, Long An, 82706",Đức Hòa,Tây Ninh,"Khu A Hậu nghĩa là bảo tàng tại Đức Hòa, Tây Ninh.",Khu A Hậu nghĩa Du lịch bảo tàng Đức Hòa Tây Ninh
TN_00107,Hòa Khánh Đông,Du lịch,bảo tàng,10.8759072,106.4014433,"Đường Quốc Lộ N2, Hòa Khánh Tây, Đức Hòa, Long An",Đức Hòa,Tây Ninh,"Hòa Khánh Đông là bảo tàng tại Đức Hòa, Tây Ninh.",Hòa Khánh Đông Du lịch bảo tàng Đức Hòa Tây Ninh
TN_00108,Hòa Khánh Tây,Du lịch,bảo tàng,10.8758408,106.3997851,"Đường Quốc Lộ N2, Hòa Khánh Tây, Đức Hòa, Long An",Đức Hòa,Tây Ninh,"Hòa Khánh Tây là bảo tàng tại Đức Hòa, Tây Ninh.",Hòa Khánh Tây Du lịch bảo tàng Đức Hòa Tây Ninh
TN_00109,Hòa Khánh Nam,Du lịch,bảo tàng,10.8487302,106.4168393,"Đường Quốc Lộ N2, Hòa Khánh Nam, Đức Hòa, Long An, 82723",Đức Hòa,Tây Ninh,"Hòa Khánh Nam là bảo tàng tại Đức Hòa, Tây Ninh.",Hòa Khánh Nam Du lịch bảo tàng Đức Hòa Tây Ninh
TN_00110,THÀNH PHỐ TÂN AN,Du lịch,bảo tàng,10.5457337,106.405184,"113 Đường Huỳnh Văn Gấm, Phường 2, Tân An, Long An, 82111",Tân An,Tây Ninh,"THÀNH PHỐ TÂN AN là bảo tàng tại Tân An, Tây Ninh.",THÀNH PHỐ TÂN AN Du lịch bảo tàng Tân An Tây Ninh
TN_00111,ĐƯỜNG CẤM,Du lịch,bảo tàng,10.6085712,106.0457871,"6 Đường Tỉnh 837, Tân Thạnh, Long An, 83406",Tân Thạnh,Tây Ninh,"ĐƯỜNG CẤM là bảo tàng tại Tân Thạnh, Tây Ninh.",ĐƯỜNG CẤM Du lịch bảo tàng Tân Thạnh Tây Ninh
TN_00112,"Dung ( phở bò,bún bò huế,bò kho)",Ẩm thực,nhà hàng,10.6673071,106.4576608,"Đường Tỉnh Lộ 830, An Thạnh, Bến Lức, Long An, 82616",Bến Lức,Tây Ninh,"Dung ( phở bò,bún bò huế,bò kho) là nhà hàng tại Bến Lức, Tây Ninh.","Dung ( phở bò,bún bò huế,bò kho) Ẩm thực nhà hàng Bến Lức Tây Ninh"
TN_00113,Ca phê thủ thừa,Ẩm thực,quán cà phê,10.6009836,106.4030155,"Đường Phan Văn Tình, Thủ Thừa, Long An, 83506",Thủ Thừa,Tây Ninh,"Ca phê thủ thừa là quán cà phê tại Thủ Thừa, Tây Ninh.",Ca phê thủ thừa Ẩm thực quán cà phê Thủ Thừa Tây Ninh
TN_00114,Nhà Vũ Đức Hoà,Du lịch,nhà khách/homestay,10.8668806,106.4829677,"Mỹ Hạnh Nam, Đức Hòa, Long An",Đức Hòa,Tây Ninh,"Nhà Vũ Đức Hoà là nhà khách/homestay tại Đức Hòa, Tây Ninh.",Nhà Vũ Đức Hoà Du lịch nhà khách/homestay Đức Hòa Tây Ninh
TN_00115,Nhà Nghỉ,Du lịch,nhà nghỉ,10.8980222,106.4053346,"319 Đường Tỉnh 823, Hậu Nghĩa, Đức Hòa, Long An, 82706",Đức Hòa,Tây Ninh,"Nhà Nghỉ là nhà nghỉ tại Đức Hòa, Tây Ninh.",Nhà Nghỉ Du lịch nhà nghỉ Đức Hòa Tây Ninh
TN_00116,Quán ăn gia đình Tre Xanh,Ẩm thực,nhà hàng,11.2989765,106.1051105,"Tiệm 9 Chì, Đường Nguyễn Trãi, Phường 3, Tây Ninh, 80108",Tây Ninh,Tây Ninh,"Quán ăn gia đình Tre Xanh là nhà hàng tại Tây Ninh, Tây Ninh.",Quán ăn gia đình Tre Xanh Ẩm thực nhà hàng Tây Ninh Tây Ninh
TN_00117,Lưu Luyến 180k máy lạnh 120k máy quạt,Du lịch,nhà nghỉ,10.5351942,106.4002975,"4 Đường Trần Văn Chính, Phường 4, Tân An, Long An, 82114",Tân An,Tây Ninh,"Lưu Luyến 180k máy lạnh 120k máy quạt là nhà nghỉ tại Tân An, Tây Ninh.",Lưu Luyến 180k máy lạnh 120k máy quạt Du lịch nhà nghỉ Tân An Tây Ninh
TN_00118,Tháp Chót Mạt,Du lịch,bảo tàng,11.4638169,106.0102496,"Tân Phong, Tân Biên, Tây Ninh",Tân Biên,Tây Ninh,"Tháp Chót Mạt là bảo tàng tại Tân Biên, Tây Ninh.",Tháp Chót Mạt Du lịch bảo tàng Tân Biên Tây Ninh
TN_00119,Ngọc Tuyết,Ẩm thực,nhà hàng,11.2968553,106.1058329,"42 Đường 30 Tháng 4, Hiệp Tân, Hòa Thành, Tây Ninh, 80608",Hòa Thành,Tây Ninh,"Ngọc Tuyết là nhà hàng tại Hòa Thành, Tây Ninh.",Ngọc Tuyết Ẩm thực nhà hàng Hòa Thành Tây Ninh
TN_00120,Cống Rạch Đào,Du lịch,địa điểm du lịch,10.5981429,106.3932627,"Đường Trương Công Định, Thủ Thừa, Long An, 83506",Thủ Thừa,Tây Ninh,"Cống Rạch Đào là địa điểm du lịch tại Thủ Thừa, Tây Ninh.",Cống Rạch Đào Du lịch địa điểm du lịch Thủ Thừa Tây Ninh
TN_00121,Ruby’s Coffee House,Ẩm thực,quán cà phê,11.3161078,106.1060534,"98 Đường Nguyễn Chí Thanh, Phường 3, Tây Ninh, 80108",Tây Ninh,Tây Ninh,"Ruby’s Coffee House là quán cà phê tại Tây Ninh, Tây Ninh.",Ruby’s Coffee House Ẩm thực quán cà phê Tây Ninh Tây Ninh
TN_00122,Công viên thập cẩm effen,Du lịch,bảo tàng,10.9008132,106.4616575,"Đức Lập Hạ, Đức Hòa, Long An",Đức Hòa,Tây Ninh,"Công viên thập cẩm effen là bảo tàng tại Đức Hòa, Tây Ninh.",Công viên thập cẩm effen Du lịch bảo tàng Đức Hòa Tây Ninh
TN_00123,Gate 04 - Caodaism Holy Land,Du lịch,địa điểm du lịch,11.2979353,106.1279876,"Tiệm Sửa Xe Honda Hải, Đường Lý Thường Kiệt, Hòa Thành, Tây Ninh, 80606",Hòa Thành,Tây Ninh,"Gate 04 - Caodaism Holy Land là địa điểm du lịch tại Hòa Thành, Tây Ninh.",Gate 04 - Caodaism Holy Land Du lịch địa điểm du lịch Hòa Thành Tây Ninh
TN_00124,Quelam longan,Ẩm thực,quán cà phê,10.6888425,106.2048644,"Thuận Nghĩa Hòa, Thạnh Hóa, Long An",Thạnh Hóa,Tây Ninh,"Quelam longan là quán cà phê tại Thạnh Hóa, Tây Ninh.",Quelam longan Ẩm thực quán cà phê Thạnh Hóa Tây Ninh
TN_00125,Nhà chú việt,Ẩm thực,quán cà phê,11.0797812,106.3141369,"Đường Cầu Sao, Thanh Phước, Gò Dầu, Tây Ninh, 80707",Gò Dầu,Tây Ninh,"Nhà chú việt là quán cà phê tại Gò Dầu, Tây Ninh.",Nhà chú việt Ẩm thực quán cà phê Gò Dầu Tây Ninh
TN_00126,Cà Phê Hai Nam,Ẩm thực,quán cà phê,10.581961,106.5880378,"Đường Chợ Mới, Long Hòa, Cần Đước, Long An, 82410",Cần Đước,Tây Ninh,"Cà Phê Hai Nam là quán cà phê tại Cần Đước, Tây Ninh.",Cà Phê Hai Nam Ẩm thực quán cà phê Cần Đước Tây Ninh
TN_00127,Cửa Chánh Môn,Du lịch,địa điểm du lịch,11.3038911,106.1294985,"Đường Lý Thường Kiệt, Hòa Thành, Tây Ninh, 80606",Hòa Thành,Tây Ninh,"Cửa Chánh Môn là địa điểm du lịch tại Hòa Thành, Tây Ninh.",Cửa Chánh Môn Du lịch địa điểm du lịch Hòa Thành Tây Ninh
TN_00128,Com chai,Ẩm thực,nhà hàng,11.0311464,106.3567036,"Quốc Lộ 22, Trảng Bàng, Tây Ninh, 80906",Trảng Bàng,Tây Ninh,"Com chai là nhà hàng tại Trảng Bàng, Tây Ninh.",Com chai Ẩm thực nhà hàng Trảng Bàng Tây Ninh
TN_00129,Bột Chiên,Ẩm thực,nhà hàng,11.1299525,106.2600874,"Hiệp Thạnh, Gò Dầu, Tây Ninh",Gò Dầu,Tây Ninh,"Bột Chiên là nhà hàng tại Gò Dầu, Tây Ninh.",Bột Chiên Ẩm thực nhà hàng Gò Dầu Tây Ninh
TN_00130,Coffee 3S,Ẩm thực,quán cà phê,11.3175017,106.1065716,"Đường Nguyễn Chí Thanh, Phường 3, Tây Ninh, 80108",Tây Ninh,Tây Ninh,"Coffee 3S là quán cà phê tại Tây Ninh, Tây Ninh.",Coffee 3S Ẩm thực quán cà phê Tây Ninh Tây Ninh
TN_00131,Cafe Cây Canh,Ẩm thực,quán cà phê,10.5294685,106.4135128,"Đường Trương Thị Sáu, Phường 3, Tân An, Long An, 82118",Tân An,Tây Ninh,"Cafe Cây Canh là quán cà phê tại Tân An, Tây Ninh.",Cafe Cây Canh Ẩm thực quán cà phê Tân An Tây Ninh
TN_00132,Ngọc sương,Ẩm thực,quán cà phê,11.0321468,106.330279,"An Hòa, Trảng Bàng, Tây Ninh",Trảng Bàng,Tây Ninh,"Ngọc sương là quán cà phê tại Trảng Bàng, Tây Ninh.",Ngọc sương Ẩm thực quán cà phê Trảng Bàng Tây Ninh
TN_00133,quán ăn năm dung bánh canh trảng bàng,Ẩm thực,nhà hàng,11.0382352,106.3487835,"Đường Quốc Lộ 22, Trảng Bàng, Tây Ninh, 80906",Trảng Bàng,Tây Ninh,"quán ăn năm dung bánh canh trảng bàng là nhà hàng tại Trảng Bàng, Tây Ninh.",quán ăn năm dung bánh canh trảng bàng Ẩm thực nhà hàng Trảng Bàng Tây Ninh
TN_00134,Nha nghi khoi nguyen,Du lịch,khách sạn,10.6242333,106.4880167,"68 Đường Số 1, Bến Lức, Long An, 82606",Bến Lức,Tây Ninh,"Nha nghi khoi nguyen là khách sạn tại Bến Lức, Tây Ninh.",Nha nghi khoi nguyen Du lịch khách sạn Bến Lức Tây Ninh
TN_00135,Phướn Toà Thánh,Du lịch,địa điểm du lịch,11.3039807,106.1324159,"Đại Lộ Phạm Hộ Pháp, Hòa Thành, Tây Ninh, 80606",Hòa Thành,Tây Ninh,"Phướn Toà Thánh là địa điểm du lịch tại Hòa Thành, Tây Ninh.",Phướn Toà Thánh Du lịch địa điểm du lịch Hòa Thành Tây Ninh
TN_00136,Nine celestial planes,Du lịch,địa điểm du lịch,11.3040222,106.1314412,"Hòa Thành, Tây Ninh",Hòa Thành,Tây Ninh,"Nine celestial planes là địa điểm du lịch tại Hòa Thành, Tây Ninh.",Nine celestial planes Du lịch địa điểm du lịch Hòa Thành Tây Ninh
TN_00137,Pika homestay,Du lịch,nhà khách/homestay,11.1647174,106.42209,"Hưng Thuận, Trảng Bàng, Tây Ninh",Trảng Bàng,Tây Ninh,"Pika homestay là nhà khách/homestay tại Trảng Bàng, Tây Ninh.",Pika homestay Du lịch nhà khách/homestay Trảng Bàng Tây Ninh
TN_00138,KHÁCH SẠN RUBY,Du lịch,khách sạn,10.6398792,106.4993744,"Bến Lức, Long An",Bến Lức,Tây Ninh,"KHÁCH SẠN RUBY là khách sạn tại Bến Lức, Tây Ninh.",KHÁCH SẠN RUBY Du lịch khách sạn Bến Lức Tây Ninh
TN_00139,nhà thảo,Du lịch,nhà khách/homestay,11.2661694,106.1387466,"Đường Số 63 Phạm Hùng, Trường Tây, Hòa Thành, Tây Ninh, 80611",Hòa Thành,Tây Ninh,"nhà thảo là nhà khách/homestay tại Hòa Thành, Tây Ninh.",nhà thảo Du lịch nhà khách/homestay Hòa Thành Tây Ninh
TN_00140,banh canh trang bang,Ẩm thực,nhà hàng,11.0287087,106.3731893,"Đường Quốc Lộ 22, An Tịnh, Trảng Bàng, Tây Ninh, 80916",Trảng Bàng,Tây Ninh,"banh canh trang bang là nhà hàng tại Trảng Bàng, Tây Ninh.",banh canh trang bang Ẩm thực nhà hàng Trảng Bàng Tây Ninh
TN_00141,Tiệm Cà phê Số 27,Ẩm thực,quán cà phê,11.3082692,106.1233605,"33 Hẻm 5 Huỳnh Tấn Phát, Hiệp Ninh, Tây Ninh, 80110",Tây Ninh,Tây Ninh,"Tiệm Cà phê Số 27 là quán cà phê tại Tây Ninh, Tây Ninh.",Tiệm Cà phê Số 27 Ẩm thực quán cà phê Tây Ninh Tây Ninh
TN_00142,Cà Phê Thúy-Nga Music Tây-Ninh,Ẩm thực,quán cà phê,11.3141464,106.1215738,"108 Đường Thuyền, Hiệp Ninh, Tây Ninh, 80110",Tây Ninh,Tây Ninh,"Cà Phê Thúy-Nga Music Tây-Ninh là quán cà phê tại Tây Ninh, Tây Ninh.",Cà Phê Thúy-Nga Music Tây-Ninh Ẩm thực quán cà phê Tây Ninh Tây Ninh
TN_00143,Cà phê Gia Nguyễn,Ẩm thực,quán cà phê,11.3079846,106.1225465,"62 Hẻm 3 Huỳnh Tấn Phát, Hiệp Ninh, Tây Ninh, 80110",Tây Ninh,Tây Ninh,"Cà phê Gia Nguyễn là quán cà phê tại Tây Ninh, Tây Ninh.",Cà phê Gia Nguyễn Ẩm thực quán cà phê Tây Ninh Tây Ninh
TN_00144,Anh coffee,Ẩm thực,quán cà phê,11.3119826,106.1251089,"5 Hẻm 17 Huỳnh Tấn Phát, Hiệp Ninh, Tây Ninh, 80110",Tây Ninh,Tây Ninh,"Anh coffee là quán cà phê tại Tây Ninh, Tây Ninh.",Anh coffee Ẩm thực quán cà phê Tây Ninh Tây Ninh
TN_00145,Cà phê Hội Ngộ,Ẩm thực,quán cà phê,11.3075195,106.1209964,"Đại Lý Gạo Tiến Đạt, Đường Cách Mạng Tháng Tám, Hiệp Ninh, Tây Ninh, 80110",Tây Ninh,Tây Ninh,"Cà phê Hội Ngộ là quán cà phê tại Tây Ninh, Tây Ninh.",Cà phê Hội Ngộ Ẩm thực quán cà phê Tây Ninh Tây Ninh
TN_00146,Cà phê Sinh Đôi,Ẩm thực,quán cà phê,11.3126142,106.1256539,"154 Đường Huỳnh Tấn Phát, Hiệp Ninh, Tây Ninh, 80110",Tây Ninh,Tây Ninh,"Cà phê Sinh Đôi là quán cà phê tại Tây Ninh, Tây Ninh.",Cà phê Sinh Đôi Ẩm thực quán cà phê Tây Ninh Tây Ninh
TN_00147,Cà phê Bảo Ngân,Ẩm thực,quán cà phê,11.3129751,106.1253425,"Quán Ăn Gia Đình Kim Chi, Đường Huỳnh Tấn Phát, Hiệp Ninh, Tây Ninh, 80110",Tây Ninh,Tây Ninh,"Cà phê Bảo Ngân là quán cà phê tại Tây Ninh, Tây Ninh.",Cà phê Bảo Ngân Ẩm thực quán cà phê Tây Ninh Tây Ninh
TN_00148,Cafe Thanh Trà,Ẩm thực,quán cà phê,11.3120242,106.1256752,"Café Thu Ngân, Đường Huỳnh Tấn Phát, Hiệp Ninh, Tây Ninh, 80110",Tây Ninh,Tây Ninh,"Cafe Thanh Trà là quán cà phê tại Tây Ninh, Tây Ninh.",Cafe Thanh Trà Ẩm thực quán cà phê Tây Ninh Tây Ninh
TN_00149,Cà phê A Phú,Ẩm thực,quán cà phê,11.3151259,106.1288971,"205 Đường Nguyễn Trọng Cát, Hiệp Ninh, Tây Ninh, 80110",Tây Ninh,Tây Ninh,"Cà phê A Phú là quán cà phê tại Tây Ninh, Tây Ninh.",Cà phê A Phú Ẩm thực quán cà phê Tây Ninh Tây Ninh
TN_00150,Dao,Ẩm thực,quán cà phê,11.3159319,106.1300832,"Hẻm Số 21 Điện Biên Phủ, Hiệp Ninh, Tây Ninh, 80110",Tây Ninh,Tây Ninh,"Dao là quán cà phê tại Tây Ninh, Tây Ninh.",Dao Ẩm thực quán cà phê Tây Ninh Tây Ninh
TN_00151,Quán ăn chay Phúc Tâm,Ẩm thực,nhà hàng,11.3133139,106.1316569,"Đường Điện Biên Phủ, Hiệp Ninh, Tây Ninh, 80110",Tây Ninh,Tây Ninh,"Quán ăn chay Phúc Tâm là nhà hàng tại Tây Ninh, Tây Ninh.",Quán ăn chay Phúc Tâm Ẩm thực nhà hàng Tây Ninh Tây Ninh
TN_00152,DNTN Trà Hoàn Ngọc 7 Nga Tây Ninh,Ẩm thực,quán bar,11.3169787,106.1290025,"218 Đường Nguyễn Trọng Cát, Hiệp Ninh, Tây Ninh, 80110",Tây Ninh,Tây Ninh,"DNTN Trà Hoàn Ngọc 7 Nga Tây Ninh là quán bar tại Tây Ninh, Tây Ninh.",DNTN Trà Hoàn Ngọc 7 Nga Tây Ninh Ẩm thực quán bar Tây Ninh Tây Ninh
TN_00153,Lò bánh mì Nguyễn Trọng Cát,Ẩm thực,nhà hàng,11.3172008,106.1284504,"241 Đường Nguyễn Trọng Cát, Hiệp Ninh, Tây Ninh, 80110",Tây Ninh,Tây Ninh,"Lò bánh mì Nguyễn Trọng Cát là nhà hàng tại Tây Ninh, Tây Ninh.",Lò bánh mì Nguyễn Trọng Cát Ẩm thực nhà hàng Tây Ninh Tây Ninh
TN_00154,Cafe hạt SALINA,Ẩm thực,quán cà phê,11.3173327,106.1310694,"2 Đường Trường Chinh, Hiệp Ninh, Tây Ninh, 80110",Tây Ninh,Tây Ninh,"Cafe hạt SALINA là quán cà phê tại Tây Ninh, Tây Ninh.",Cafe hạt SALINA Ẩm thực quán cà phê Tây Ninh Tây Ninh
TN_00155,cafe bida Bảo Giọt Đắng,Ẩm thực,quán cà phê,11.3180198,106.1318905,"Đường Lê Duẩn, Ninh Thạnh, Tây Ninh, 80111",Tây Ninh,Tây Ninh,"cafe bida Bảo Giọt Đắng là quán cà phê tại Tây Ninh, Tây Ninh.",cafe bida Bảo Giọt Đắng Ẩm thực quán cà phê Tây Ninh Tây Ninh
TN_00156,Cà phê Thanh Tuyền,Ẩm thực,quán cà phê,11.3199354,106.1307225,"464 Đường Điện Biên Phủ, Ninh Thạnh, Tây Ninh, 80111",Tây Ninh,Tây Ninh,"Cà phê Thanh Tuyền là quán cà phê tại Tây Ninh, Tây Ninh.",Cà phê Thanh Tuyền Ẩm thực quán cà phê Tây Ninh Tây Ninh
TN_00157,Nhà Hàng Sinh Thái Lạc Viên,Ẩm thực,nhà hàng,11.3186514,106.1308924,"Đường Điện Biên Phủ, Hiệp Ninh, Tây Ninh, 80110",Tây Ninh,Tây Ninh,"Nhà Hàng Sinh Thái Lạc Viên là nhà hàng tại Tây Ninh, Tây Ninh.",Nhà Hàng Sinh Thái Lạc Viên Ẩm thực nhà hàng Tây Ninh Tây Ninh
TN_00158,Quán Karaoke Lan Phương,Ẩm thực,quán bar,11.3055685,106.1392394,"Tiệm Hàn Gió Đá Quang, Đường Tỉnh Lộ 781, Bàu Năng, Dương Minh Châu, Tây Ninh, 80208",Dương Minh Châu,Tây Ninh,"Quán Karaoke Lan Phương là quán bar tại Dương Minh Châu, Tây Ninh.",Quán Karaoke Lan Phương Ẩm thực quán bar Dương Minh Châu Tây Ninh
TN_00159,Cafe Domino,Ẩm thực,quán cà phê,11.3073045,106.1341167,"12 Đường 4 Điện Biên Phủ, Ninh Thạnh, Tây Ninh, 80111",Tây Ninh,Tây Ninh,"Cafe Domino là quán cà phê tại Tây Ninh, Tây Ninh.",Cafe Domino Ẩm thực quán cà phê Tây Ninh Tây Ninh
TN_00160,Cà phê Song Thi,Ẩm thực,quán cà phê,11.3062773,106.1324222,"Cửa Hàng Tạp Hóa Thái Hòa, Đường Điện Biên Phủ, Hiệp Ninh, Tây Ninh, 80110",Tây Ninh,Tây Ninh,"Cà phê Song Thi là quán cà phê tại Tây Ninh, Tây Ninh.",Cà phê Song Thi Ẩm thực quán cà phê Tây Ninh Tây Ninh
TN_00161,Coffee Cards Carpentry,Ẩm thực,quán cà phê,11.3069963,106.1323605,"Cửa Hàng Điện Thoại Di Động Đăng Khoa 3, Đường Điện Biên Phủ, Hiệp Ninh, Tây Ninh, 80110",Tây Ninh,Tây Ninh,"Coffee Cards Carpentry là quán cà phê tại Tây Ninh, Tây Ninh.",Coffee Cards Carpentry Ẩm thực quán cà phê Tây Ninh Tây Ninh
TN_00162,Tiệm 3 Tấn,Ẩm thực,nhà hàng,11.3076006,106.1323667,"Trung Tâm Video Kỷ Sài Gòn, Đường Điện Biên Phủ, Hiệp Ninh, Tây Ninh, 80110",Tây Ninh,Tây Ninh,"Tiệm 3 Tấn là nhà hàng tại Tây Ninh, Tây Ninh.",Tiệm 3 Tấn Ẩm thực nhà hàng Tây Ninh Tây Ninh
TN_00163,Nhà hàng Thu Thảo,Ẩm thực,nhà hàng,11.308513,106.1328535,"18 Hẻm 8 Đường Số 10, Ninh Thạnh, Tây Ninh, 80111",Tây Ninh,Tây Ninh,"Nhà hàng Thu Thảo là nhà hàng tại Tây Ninh, Tây Ninh.",Nhà hàng Thu Thảo Ẩm thực nhà hàng Tây Ninh Tây Ninh
TN_00164,Cafe My Dung,Ẩm thực,quán cà phê,11.3084707,106.1324591,"Cửa Hàng Điện Thoại Di Động Phát Lộc, Đường Điện Biên Phủ, Ninh Thạnh, Tây Ninh, 80110",Tây Ninh,Tây Ninh,"Cafe My Dung là quán cà phê tại Tây Ninh, Tây Ninh.",Cafe My Dung Ẩm thực quán cà phê Tây Ninh Tây Ninh
TN_00165,Nhà hàng Lan Phương,Ẩm thực,nhà hàng,11.3055731,106.1364467,"Đại Lý Vé Số Hùng Tú 10, Đường Tỉnh Lộ 781, Ninh Thạnh, Tây Ninh, 80111",Tây Ninh,Tây Ninh,"Nhà hàng Lan Phương là nhà hàng tại Tây Ninh, Tây Ninh.",Nhà hàng Lan Phương Ẩm thực nhà hàng Tây Ninh Tây Ninh
TN_00166,Quán ăn gia đình Vân Sơn,Ẩm thực,nhà hàng,11.3052022,106.136811,"Quán Café Thanh Vân, 35 Đường Tỉnh Lộ 781, Long Thành Bắc, Hòa Thành, Tây Ninh, 80607",Hòa Thành,Tây Ninh,"Quán ăn gia đình Vân Sơn là nhà hàng tại Hòa Thành, Tây Ninh.",Quán ăn gia đình Vân Sơn Ẩm thực nhà hàng Hòa Thành Tây Ninh
TN_00167,Quán ăn Vũng Rau Muống,Ẩm thực,nhà hàng,11.3056052,106.1379785,"1401 Đường Cách Mạng Tháng 8, Ninh Thạnh, Tây Ninh, 80111",Tây Ninh,Tây Ninh,"Quán ăn Vũng Rau Muống là nhà hàng tại Tây Ninh, Tây Ninh.",Quán ăn Vũng Rau Muống Ẩm thực nhà hàng Tây Ninh Tây Ninh
TN_00168,Cafe Đồng Xanh,Ẩm thực,quán cà phê,11.3051014,106.1384688,"7 Đường Tỉnh 781, Bàu Năng, Dương Minh Châu, Tây Ninh, 80208",Dương Minh Châu,Tây Ninh,"Cafe Đồng Xanh là quán cà phê tại Dương Minh Châu, Tây Ninh.",Cafe Đồng Xanh Ẩm thực quán cà phê Dương Minh Châu Tây Ninh
TN_00169,KS. Thảo Nghi,Du lịch,khách sạn,11.3045436,106.1415433,"Đường Tỉnh 781, Bàu Năng, Dương Minh Châu, Tây Ninh, 80208",Dương Minh Châu,Tây Ninh,"KS. Thảo Nghi là khách sạn tại Dương Minh Châu, Tây Ninh.",KS. Thảo Nghi Du lịch khách sạn Dương Minh Châu Tây Ninh
TN_00170,Cà phê Minh Phượng,Ẩm thực,quán cà phê,11.3052275,106.142128,"1447 Đường Tỉnh 781, Bàu Năng, Dương Minh Châu, Tây Ninh, 80208",Dương Minh Châu,Tây Ninh,"Cà phê Minh Phượng là quán cà phê tại Dương Minh Châu, Tây Ninh.",Cà phê Minh Phượng Ẩm thực quán cà phê Dương Minh Châu Tây Ninh
TN_00171,Quán ăn Tuyết Nhung,Ẩm thực,nhà hàng,11.3057272,106.1426805,"Quầy Thuốc Tây Hồng Hương, Đường Tỉnh Lộ 781, Bàu Năng, Dương Minh Châu, Tây Ninh, 80208",Dương Minh Châu,Tây Ninh,"Quán ăn Tuyết Nhung là nhà hàng tại Dương Minh Châu, Tây Ninh.",Quán ăn Tuyết Nhung Ẩm thực nhà hàng Dương Minh Châu Tây Ninh
TN_00172,Phở Bình Phương,Ẩm thực,nhà hàng,11.3054747,106.1429648,"Quán Café - Giải Khát Tuyết Nhung, Đường Tỉnh Lộ 781, Bàu Năng, Dương Minh Châu, Tây Ninh, 80208",Dương Minh Châu,Tây Ninh,"Phở Bình Phương là nhà hàng tại Dương Minh Châu, Tây Ninh.",Phở Bình Phương Ẩm thực nhà hàng Dương Minh Châu Tây Ninh
TN_00173,Cà phê Thủy Tiên,Ẩm thực,quán cà phê,11.3064268,106.1429058,"Đường Tỉnh 781, Bàu Năng, Dương Minh Châu, Tây Ninh, 80208",Dương Minh Châu,Tây Ninh,"Cà phê Thủy Tiên là quán cà phê tại Dương Minh Châu, Tây Ninh.",Cà phê Thủy Tiên Ẩm thực quán cà phê Dương Minh Châu Tây Ninh
TN_00174,F Cafe,Ẩm thực,quán cà phê,11.3067214,106.142541,"Đường 4 Điện Biên Phủ, Bàu Năng, Dương Minh Châu, Tây Ninh, 80208",Dương Minh Châu,Tây Ninh,"F Cafe là quán cà phê tại Dương Minh Châu, Tây Ninh.",F Cafe Ẩm thực quán cà phê Dương Minh Châu Tây Ninh
TN_00175,Cafe Phương Trang,Ẩm thực,quán cà phê,11.3074052,106.1427878,"Đường 4 Điện Biên Phủ, Bàu Năng, Dương Minh Châu, Tây Ninh, 80208",Dương Minh Châu,Tây Ninh,"Cafe Phương Trang là quán cà phê tại Dương Minh Châu, Tây Ninh.",Cafe Phương Trang Ẩm thực quán cà phê Dương Minh Châu Tây Ninh
TN_00176,Bò Tơ Thanh Thúy,Ẩm thực,nhà hàng,11.3065215,106.145073,"1382 Đường Tỉnh 781, Bàu Năng, Dương Minh Châu, Tây Ninh, 80208",Dương Minh Châu,Tây Ninh,"Bò Tơ Thanh Thúy là nhà hàng tại Dương Minh Châu, Tây Ninh.",Bò Tơ Thanh Thúy Ẩm thực nhà hàng Dương Minh Châu Tây Ninh
TN_00177,Cà phê Đam Mê,Ẩm thực,quán cà phê,11.3074262,106.1440002,"Bàu Năng, Dương Minh Châu, Tây Ninh",Dương Minh Châu,Tây Ninh,"Cà phê Đam Mê là quán cà phê tại Dương Minh Châu, Tây Ninh.",Cà phê Đam Mê Ẩm thực quán cà phê Dương Minh Châu Tây Ninh
TN_00178,Quán Nhậu Ngân,Ẩm thực,quán cà phê,11.3078629,106.1450355,"Bàu Năng, Dương Minh Châu, Tây Ninh",Dương Minh Châu,Tây Ninh,"Quán Nhậu Ngân là quán cà phê tại Dương Minh Châu, Tây Ninh.",Quán Nhậu Ngân Ẩm thực quán cà phê Dương Minh Châu Tây Ninh
TN_00179,Lò bánh mì Hồng Đào,Ẩm thực,nhà hàng,11.283447,106.1310131,"Tiệm Sửa Xe 5 Mật, Đường Phan Văn Đáng, Hòa Thành, Tây Ninh, 80606",Hòa Thành,Tây Ninh,"Lò bánh mì Hồng Đào là nhà hàng tại Hòa Thành, Tây Ninh.",Lò bánh mì Hồng Đào Ẩm thực nhà hàng Hòa Thành Tây Ninh
TN_00180,Quán cà phê Nhật Quang,Ẩm thực,quán cà phê,11.2839892,106.1316554,"Nhà May Nghĩa Ngân, 48 Đường Nguyễn Quốc Gia, Hòa Thành, Tây Ninh, 80606",Hòa Thành,Tây Ninh,"Quán cà phê Nhật Quang là quán cà phê tại Hòa Thành, Tây Ninh.",Quán cà phê Nhật Quang Ẩm thực quán cà phê Hòa Thành Tây Ninh
TN_00181,Cà phê Khang,Ẩm thực,quán cà phê,11.2847069,106.1313464,"Cơ Sở Hùng - Tư Đường, 31 Đường Phan Bội Châu, Hòa Thành, Tây Ninh, 80606",Hòa Thành,Tây Ninh,"Cà phê Khang là quán cà phê tại Hòa Thành, Tây Ninh.",Cà phê Khang Ẩm thực quán cà phê Hòa Thành Tây Ninh
TN_00182,Cà phê Ngọc Thu,Ẩm thực,quán cà phê,11.2829447,106.1332897,"Tiệm Uốn Tóc - Áo Cưới Mỹ Dung, 56 Đường Phan Văn Đáng, Long Thành Bắc, Hòa Thành, Tây Ninh, 80607",Hòa Thành,Tây Ninh,"Cà phê Ngọc Thu là quán cà phê tại Hòa Thành, Tây Ninh.",Cà phê Ngọc Thu Ẩm thực quán cà phê Hòa Thành Tây Ninh
TN_00183,Quán ăn Trinh,Ẩm thực,nhà hàng,11.2828251,106.128273,"Cửa Hàng Áo Cưới Mỹ Hiền, 9 Đường Hai Bà Trưng, Hòa Thành, Tây Ninh, 80606",Hòa Thành,Tây Ninh,"Quán ăn Trinh là nhà hàng tại Hòa Thành, Tây Ninh.",Quán ăn Trinh Ẩm thực nhà hàng Hòa Thành Tây Ninh
TN_00184,Quán cà phê Hồ Hà,Ẩm thực,quán cà phê,11.2942547,106.1362027,"Đường Số 18 An Dương Vương, Long Thành Bắc, Hòa Thành, Tây Ninh, 80607",Hòa Thành,Tây Ninh,"Quán cà phê Hồ Hà là quán cà phê tại Hòa Thành, Tây Ninh.",Quán cà phê Hồ Hà Ẩm thực quán cà phê Hòa Thành Tây Ninh
TN_00185,Bánh Bao Chay Thanh Yến,Ẩm thực,nhà hàng,11.2939677,106.1346497,"19 Đường An Dương Vương, Long Thành Bắc, Hòa Thành, Tây Ninh, 80607",Hòa Thành,Tây Ninh,"Bánh Bao Chay Thanh Yến là nhà hàng tại Hòa Thành, Tây Ninh.",Bánh Bao Chay Thanh Yến Ẩm thực nhà hàng Hòa Thành Tây Ninh
TN_00186,Cà phê Tigon,Ẩm thực,quán cà phê,11.2943584,106.1346172,"15 Đường An Dương Vương, Long Thành Bắc, Hòa Thành, Tây Ninh, 80607",Hòa Thành,Tây Ninh,"Cà phê Tigon là quán cà phê tại Hòa Thành, Tây Ninh.",Cà phê Tigon Ẩm thực quán cà phê Hòa Thành Tây Ninh
TN_00187,Phố Tàu Hủ,Ẩm thực,nhà hàng,11.2936009,106.1335195,"Đường Số 12, Long Thành Bắc, Hòa Thành, Tây Ninh, 80607",Hòa Thành,Tây Ninh,"Phố Tàu Hủ là nhà hàng tại Hòa Thành, Tây Ninh.",Phố Tàu Hủ Ẩm thực nhà hàng Hòa Thành Tây Ninh
TN_00188,Cafe BIBO,Ẩm thực,quán cà phê,11.2921338,106.1336821,"41 Đường Số 5, Long Thành Bắc, Hòa Thành, Tây Ninh, 80607",Hòa Thành,Tây Ninh,"Cafe BIBO là quán cà phê tại Hòa Thành, Tây Ninh.",Cafe BIBO Ẩm thực quán cà phê Hòa Thành Tây Ninh
TN_00189,Quán Vườn Tràm,Ẩm thực,quán cà phê,11.2926361,106.1345928,"Rửa Xe - Sửa Xe Xinh, 52 Đường An Dương Vương, Long Thành Bắc, Hòa Thành, Tây Ninh, 80607",Hòa Thành,Tây Ninh,"Quán Vườn Tràm là quán cà phê tại Hòa Thành, Tây Ninh.",Quán Vườn Tràm Ẩm thực quán cà phê Hòa Thành Tây Ninh
TN_00190,Cà phê Hoa Cau,Ẩm thực,quán cà phê,11.2935371,106.1340643,"28 Đường An Dương Vương, Long Thành Bắc, Hòa Thành, Tây Ninh, 80607",Hòa Thành,Tây Ninh,"Cà phê Hoa Cau là quán cà phê tại Hòa Thành, Tây Ninh.",Cà phê Hoa Cau Ẩm thực quán cà phê Hòa Thành Tây Ninh
TN_00191,Quán cà phê 126,Ẩm thực,quán cà phê,11.2914002,106.1333569,"64 Đường Số 5, Long Thành Bắc, Hòa Thành, Tây Ninh, 80607",Hòa Thành,Tây Ninh,"Quán cà phê 126 là quán cà phê tại Hòa Thành, Tây Ninh.",Quán cà phê 126 Ẩm thực quán cà phê Hòa Thành Tây Ninh
TN_00192,Quán cà phê Thế Đăng,Ẩm thực,quán cà phê,11.2927158,106.1366825,"Đường Số 1, Long Thành Bắc, Hòa Thành, Tây Ninh, 80607",Hòa Thành,Tây Ninh,"Quán cà phê Thế Đăng là quán cà phê tại Hòa Thành, Tây Ninh.",Quán cà phê Thế Đăng Ẩm thực quán cà phê Hòa Thành Tây Ninh
TN_00193,Quán số 1,Ẩm thực,quán cà phê,11.2912806,106.1364548,"Đường Số 15, Long Thành Bắc, Hòa Thành, Tây Ninh, 80607",Hòa Thành,Tây Ninh,"Quán số 1 là quán cà phê tại Hòa Thành, Tây Ninh.",Quán số 1 Ẩm thực quán cà phê Hòa Thành Tây Ninh
TN_00194,Quán cà phê Tuyết Mai,Ẩm thực,quán cà phê,11.2928594,106.1378371,"Đường Số 7, Long Thành Bắc, Hòa Thành, Tây Ninh, 80607",Hòa Thành,Tây Ninh,"Quán cà phê Tuyết Mai là quán cà phê tại Hòa Thành, Tây Ninh.",Quán cà phê Tuyết Mai Ẩm thực quán cà phê Hòa Thành Tây Ninh
TN_00195,Trà Sữa,Ẩm thực,quán cà phê,11.3269486,106.1290235,"Ninh Thạnh, Tây Ninh",Tây Ninh,Tây Ninh,"Trà Sữa là quán cà phê tại Tây Ninh, Tây Ninh.",Trà Sữa Ẩm thực quán cà phê Tây Ninh Tây Ninh
TN_00196,Tiệm Bánh Kim Anh,Ẩm thực,nhà hàng,11.3262198,106.1300003,"362 Đường Điện Biên Phủ, Ninh Thạnh, Tây Ninh, 80111",Tây Ninh,Tây Ninh,"Tiệm Bánh Kim Anh là nhà hàng tại Tây Ninh, Tây Ninh.",Tiệm Bánh Kim Anh Ẩm thực nhà hàng Tây Ninh Tây Ninh
TN_00197,Cà phê Susu,Ẩm thực,quán cà phê,11.3259561,106.1300428,"368 Đường Điện Biên Phủ, Ninh Thạnh, Tây Ninh, 80111",Tây Ninh,Tây Ninh,"Cà phê Susu là quán cà phê tại Tây Ninh, Tây Ninh.",Cà phê Susu Ẩm thực quán cà phê Tây Ninh Tây Ninh
TN_00198,Phở Thủy,Ẩm thực,quán thức ăn nhanh,10.8941803,106.3083748,"Tỉnh Lộ 822, Đông Thành, Đức Huệ, Long An, 82806",Đức Huệ,Tây Ninh,"Phở Thủy là quán thức ăn nhanh tại Đức Huệ, Tây Ninh.",Phở Thủy Ẩm thực quán thức ăn nhanh Đức Huệ Tây Ninh
TN_00199,Công viên Mũi Dùi,Du lịch,công viên,10.8949283,106.3083158,"Tỉnh Lộ 822, Đông Thành, Đức Huệ, Long An, 82806",Đức Huệ,Tây Ninh,"Công viên Mũi Dùi là công viên tại Đức Huệ, Tây Ninh.",Công viên Mũi Dùi Du lịch công viên Đức Huệ Tây Ninh
TN_00200,Thế Giới Di Động,Du lịch,trung tâm thương mại,10.8937496,106.3082302,"Tỉnh Lộ 822, Đông Thành, Đức Huệ, Long An, 82806",Đức Huệ,Tây Ninh,"Thế Giới Di Động là trung tâm thương mại tại Đức Huệ, Tây Ninh.",Thế Giới Di Động Du lịch trung tâm thương mại Đức Huệ Tây Ninh
TN_00201,La Dem Bistro,Ẩm thực,nhà hàng,11.3184042,106.1052336,"27 Đường Nguyễn Văn Bạch, Phường 3, Tây Ninh, 80108",Tây Ninh,Tây Ninh,"La Dem Bistro là nhà hàng tại Tây Ninh, Tây Ninh.",La Dem Bistro Ẩm thực nhà hàng Tây Ninh Tây Ninh
TN_00202,Vinpearl hotel,Du lịch,khách sạn,11.3193862,106.1004961,"90 Đường Lê Duẩn, Phường 3, Tây Ninh, 80108",Tây Ninh,Tây Ninh,"Vinpearl hotel là khách sạn tại Tây Ninh, Tây Ninh.",Vinpearl hotel Du lịch khách sạn Tây Ninh Tây Ninh
TN_00203,Quán ăn 39c,Ẩm thực,nhà hàng,11.3188569,106.1041321,"Đường Trương Tùng Quân, Phường 3, Tây Ninh, 80108",Tây Ninh,Tây Ninh,"Quán ăn 39c là nhà hàng tại Tây Ninh, Tây Ninh.",Quán ăn 39c Ẩm thực nhà hàng Tây Ninh Tây Ninh
TN_00204,Cô tuyết,Ẩm thực,quán cà phê,10.5669031,106.4185827,"Đường Tỉnh 834, Hướng Thọ Phú, Tân An, Long An, 82109",Tân An,Tây Ninh,"Cô tuyết là quán cà phê tại Tân An, Tây Ninh.",Cô tuyết Ẩm thực quán cà phê Tân An Tây Ninh
TN_00205,Trung Tâm Văn Hóa,Du lịch,công viên,10.8965914,106.3978273,"165A Đường Ba Tháng Hai, Hậu Nghĩa, Đức Hòa, Long An, 82706",Đức Hòa,Tây Ninh,"Trung Tâm Văn Hóa là công viên tại Đức Hòa, Tây Ninh.",Trung Tâm Văn Hóa Du lịch công viên Đức Hòa Tây Ninh
TN_00206,Công viên Võ Tấn Đồ (Cv Hậu Nghĩa),Du lịch,công viên,10.8950032,106.3991094,"Đường Châu Văn Liêm, Hậu Nghĩa, Đức Hòa, Long An, 82706",Đức Hòa,Tây Ninh,"Công viên Võ Tấn Đồ (Cv Hậu Nghĩa) là công viên tại Đức Hòa, Tây Ninh.",Công viên Võ Tấn Đồ (Cv Hậu Nghĩa) Du lịch công viên Đức Hòa Tây Ninh
TN_00207,Brasserie Winking Seal Bear Co,Ẩm thực,quán pub,10.6334171,106.665013,"Tân Kim, Cần Giuộc, Long An",Cần Giuộc,Tây Ninh,"Brasserie Winking Seal Bear Co là quán pub tại Cần Giuộc, Tây Ninh.",Brasserie Winking Seal Bear Co Ẩm thực quán pub Cần Giuộc Tây Ninh
TN_00208,VƯỜN CHÔM CHÔM THÁI Vân Dũng,Du lịch,công viên,11.2479875,106.1957248,"Trường Đông, Hòa Thành, Tây Ninh",Hòa Thành,Tây Ninh,"VƯỜN CHÔM CHÔM THÁI Vân Dũng là công viên tại Hòa Thành, Tây Ninh.",VƯỜN CHÔM CHÔM THÁI Vân Dũng Du lịch công viên Hòa Thành Tây Ninh
TN_00209,Coffee Mộc,Ẩm thực,quán cà phê,10.8800418,106.4775182,"Đường Tỉnh 9, Mỹ Hạnh Bắc, Đức Hòa, Long An, 82719",Đức Hòa,Tây Ninh,"Coffee Mộc là quán cà phê tại Đức Hòa, Tây Ninh.",Coffee Mộc Ẩm thực quán cà phê Đức Hòa Tây Ninh
TN_00210,The A coffee & Escape game,Ẩm thực,quán cà phê,11.3057344,106.1108467,"262 Đường Huỳnh Công Giản, Phường 3, Tây Ninh, 80108",Tây Ninh,Tây Ninh,"The A coffee & Escape game là quán cà phê tại Tây Ninh, Tây Ninh.",The A coffee & Escape game Ẩm thực quán cà phê Tây Ninh Tây Ninh
TN_00211,DalaFarm Thanh Bình,Ẩm thực,nhà hàng,10.8986563,106.4602897,"Mỹ Hạnh Bắc, Đức Hòa, Long An",Đức Hòa,Tây Ninh,"DalaFarm Thanh Bình là nhà hàng tại Đức Hòa, Tây Ninh.",DalaFarm Thanh Bình Ẩm thực nhà hàng Đức Hòa Tây Ninh
TN_00212,Sân bóng đá Hồng Nguyên Phát,Du lịch,công viên,10.5370779,106.6830286,"Đường Tỉnh Lộ 830, Đông Thạnh, Cần Giuộc, Long An, 82521",Cần Giuộc,Tây Ninh,"Sân bóng đá Hồng Nguyên Phát là công viên tại Cần Giuộc, Tây Ninh.",Sân bóng đá Hồng Nguyên Phát Du lịch công viên Cần Giuộc Tây Ninh
TN_00213,Quán ăn Khôi Nguyên,Ẩm thực,nhà hàng,10.5112242,106.603724,"Đường Quốc Lộ 50, Cần Đước, Long An, 82406",Cần Đước,Tây Ninh,"Quán ăn Khôi Nguyên là nhà hàng tại Cần Đước, Tây Ninh.",Quán ăn Khôi Nguyên Ẩm thực nhà hàng Cần Đước Tây Ninh
TN_00214,Quán T&T,Ẩm thực,nhà hàng,10.9355261,106.3794854,"Tân Mỹ, Đức Hòa, Long An",Đức Hòa,Tây Ninh,"Quán T&T là nhà hàng tại Đức Hòa, Tây Ninh.",Quán T&T Ẩm thực nhà hàng Đức Hòa Tây Ninh
TN_00215,Tràm chim,Ẩm thực,nhà hàng,10.8127057,106.4474901,"Hựu Thạnh, Đức Hòa, Long An",Đức Hòa,Tây Ninh,"Tràm chim là nhà hàng tại Đức Hòa, Tây Ninh.",Tràm chim Ẩm thực nhà hàng Đức Hòa Tây Ninh
TN_00216,Hủ Tíu Cô Hà,Ẩm thực,nhà hàng,11.3114874,106.0939411,"Tiệm Uốn Tóc - Chụp Hình Thủy Tiên, Đường Lê Văn Tám, Phường 2, Tây Ninh, 80107",Tây Ninh,Tây Ninh,"Hủ Tíu Cô Hà là nhà hàng tại Tây Ninh, Tây Ninh.",Hủ Tíu Cô Hà Ẩm thực nhà hàng Tây Ninh Tây Ninh
TN_00217,Coffee Sân Vườn Quang Tiến,Ẩm thực,quán cà phê,10.6389797,106.4954193,"Bến Lức, Long An",Bến Lức,Tây Ninh,"Coffee Sân Vườn Quang Tiến là quán cà phê tại Bến Lức, Tây Ninh.",Coffee Sân Vườn Quang Tiến Ẩm thực quán cà phê Bến Lức Tây Ninh
TN_00218,Nhà Khách Cao Đài,Du lịch,nhà khách/homestay,11.2991119,106.1326541,"Đại Lộ Oai Linh Tiên, Hòa Thành, Tây Ninh, 80606",Hòa Thành,Tây Ninh,"Nhà Khách Cao Đài là nhà khách/homestay tại Hòa Thành, Tây Ninh.",Nhà Khách Cao Đài Du lịch nhà khách/homestay Hòa Thành Tây Ninh
TN_00219,Tượng đài Chiến thắng Long An,Du lịch,công viên,10.5594009,106.4174221,"Quốc Lộ 1A, Phường 5, Tân An, Long An, 82107",Tân An,Tây Ninh,"Tượng đài Chiến thắng Long An là công viên tại Tân An, Tây Ninh.",Tượng đài Chiến thắng Long An Du lịch công viên Tân An Tây Ninh
TN_00220,Bá Huê Viên,Du lịch,địa điểm du lịch,11.3002939,106.1339431,"Đại Lộ Phạm Hộ Pháp, Hòa Thành, Tây Ninh, 80606",Hòa Thành,Tây Ninh,"Bá Huê Viên là địa điểm du lịch tại Hòa Thành, Tây Ninh.",Bá Huê Viên Du lịch địa điểm du lịch Hòa Thành Tây Ninh
TN_00221,Đầu Sư Đường,Du lịch,địa điểm du lịch,11.2992677,106.1340315,"Đại Lộ Phạm Hộ Pháp, Hòa Thành, Tây Ninh, 80606",Hòa Thành,Tây Ninh,"Đầu Sư Đường là địa điểm du lịch tại Hòa Thành, Tây Ninh.",Đầu Sư Đường Du lịch địa điểm du lịch Hòa Thành Tây Ninh
TN_00222,The office of Defender of Dharma,Du lịch,địa điểm du lịch,11.3005062,106.132951,"Đại Lộ Phạm Hộ Pháp, Hòa Thành, Tây Ninh, 80606",Hòa Thành,Tây Ninh,"The office of Defender of Dharma là địa điểm du lịch tại Hòa Thành, Tây Ninh.",The office of Defender of Dharma Du lịch địa điểm du lịch Hòa Thành Tây Ninh
TN_00223,Enlightenment Bodhi,Du lịch,địa điểm du lịch,11.3040009,106.1321518,"Đại Lộ Phạm Hộ Pháp, Hòa Thành, Tây Ninh, 80606",Hòa Thành,Tây Ninh,"Enlightenment Bodhi là địa điểm du lịch tại Hòa Thành, Tây Ninh.",Enlightenment Bodhi Du lịch địa điểm du lịch Hòa Thành Tây Ninh
TN_00224,Long Hoa Thị,Du lịch,địa điểm du lịch,11.2830625,106.1298125,"Đường Huỳnh Thanh Mừng, Hòa Thành, Tây Ninh, 80606",Hòa Thành,Tây Ninh,"Long Hoa Thị là địa điểm du lịch tại Hòa Thành, Tây Ninh.",Long Hoa Thị Du lịch địa điểm du lịch Hòa Thành Tây Ninh
TN_00225,Căn cứ Tỉnh uỷ Long An,Du lịch,bảo tàng,10.812976,106.2208265,"Bình Hòa Hưng, Đức Huệ, Long An",Đức Huệ,Tây Ninh,"Căn cứ Tỉnh uỷ Long An là bảo tàng tại Đức Huệ, Tây Ninh.",Căn cứ Tỉnh uỷ Long An Du lịch bảo tàng Đức Huệ Tây Ninh
TN_00226,Chợ Thuận Mỹ,Du lịch,chợ truyền thống,10.4452838,106.5618713,"Tỉnh Lộ 827, Thuận Mỹ, Châu Thành, Long An, 82210",Châu Thành,Tây Ninh,"Chợ Thuận Mỹ là chợ truyền thống tại Châu Thành, Tây Ninh.",Chợ Thuận Mỹ Du lịch chợ truyền thống Châu Thành Tây Ninh
TN_00227,Đền Thờ Nguyễn Hữu Thọ,Du lịch,bảo tàng,10.6441263,106.4864156,"Đường Số 7, Bến Lức, Long An, 82606",Bến Lức,Tây Ninh,"Đền Thờ Nguyễn Hữu Thọ là bảo tàng tại Bến Lức, Tây Ninh.",Đền Thờ Nguyễn Hữu Thọ Du lịch bảo tàng Bến Lức Tây Ninh
TN_00228,Chợ Tân Trạch,Du lịch,chợ truyền thống,10.5630164,106.5732226,"Hương Lộ 3, Tân Trạch, Cần Đước, Long An, 82409",Cần Đước,Tây Ninh,"Chợ Tân Trạch là chợ truyền thống tại Cần Đước, Tây Ninh.",Chợ Tân Trạch Du lịch chợ truyền thống Cần Đước Tây Ninh
TN_00229,Chợ Phước Minh,Du lịch,chợ truyền thống,11.3137212,106.3081372,"Đường Tỉnh Lộ 781, Phước Minh, Dương Minh Châu, Tây Ninh, 80214",Dương Minh Châu,Tây Ninh,"Chợ Phước Minh là chợ truyền thống tại Dương Minh Châu, Tây Ninh.",Chợ Phước Minh Du lịch chợ truyền thống Dương Minh Châu Tây Ninh
TN_00230,Phuoc Tai,Ẩm thực,quán cà phê,11.2875226,106.1231684,"Đường Phạm Văn Đồng, Long Thành Trung, Hòa Thành, Tây Ninh, 80609",Hòa Thành,Tây Ninh,"Phuoc Tai là quán cà phê tại Hòa Thành, Tây Ninh.",Phuoc Tai Ẩm thực quán cà phê Hòa Thành Tây Ninh
TN_00231,"Restaurant Minh Ký 6-12h, 16-22h",Ẩm thực,nhà hàng,11.3262204,106.1023736,"Phòng Khám Bác Sĩ Minh Hồng, 313B Đường Trần Hưng Đạo, Phường 1, Tây Ninh, 80106",Tây Ninh,Tây Ninh,"Restaurant Minh Ký 6-12h, 16-22h là nhà hàng tại Tây Ninh, Tây Ninh.","Restaurant Minh Ký 6-12h, 16-22h Ẩm thực nhà hàng Tây Ninh Tây Ninh"
TN_00232,Gỏi đu đủ Ty Thy Tây Ninh,Ẩm thực,nhà hàng,11.0257964,106.3858234,"Đường Quốc Lộ 22, An Tịnh, Trảng Bàng, Tây Ninh, 80916",Trảng Bàng,Tây Ninh,"Gỏi đu đủ Ty Thy Tây Ninh là nhà hàng tại Trảng Bàng, Tây Ninh.",Gỏi đu đủ Ty Thy Tây Ninh Ẩm thực nhà hàng Trảng Bàng Tây Ninh
TN_00233,Gỏi Đu Đủ Thy Ty Tây Ninh 2,Ẩm thực,nhà hàng,11.0272298,106.3788478,"Đường Quốc Lộ 22, An Tịnh, Trảng Bàng, Tây Ninh, 80916",Trảng Bàng,Tây Ninh,"Gỏi Đu Đủ Thy Ty Tây Ninh 2 là nhà hàng tại Trảng Bàng, Tây Ninh.",Gỏi Đu Đủ Thy Ty Tây Ninh 2 Ẩm thực nhà hàng Trảng Bàng Tây Ninh
TN_00234,Indochina Hotel - Tây Ninh,Du lịch,khách sạn,11.3200939,106.1009963,"Đường Trương Tùng Quân, Phường 3, Tây Ninh, 80108",Tây Ninh,Tây Ninh,"Indochina Hotel - Tây Ninh là khách sạn tại Tây Ninh, Tây Ninh.",Indochina Hotel - Tây Ninh Du lịch khách sạn Tây Ninh Tây Ninh
TN_00235,Nha Nghi Boi Nhi,Du lịch,khách sạn,11.0768406,106.2748889,"387 Quốc Lộ 22, Thanh Phước, Gò Dầu, Tây Ninh, 80707",Gò Dầu,Tây Ninh,"Nha Nghi Boi Nhi là khách sạn tại Gò Dầu, Tây Ninh.",Nha Nghi Boi Nhi Du lịch khách sạn Gò Dầu Tây Ninh
TN_00236,La Dem Bistro,Ẩm thực,nhà hàng,11.3244589,106.1087719,"Đường Nguyễn Văn Bạch, Phường 3, Tây Ninh, 80108",Tây Ninh,Tây Ninh,"La Dem Bistro là nhà hàng tại Tây Ninh, Tây Ninh.",La Dem Bistro Ẩm thực nhà hàng Tây Ninh Tây Ninh
TN_00237,Bò Tây Ninh - Nón Lá,Ẩm thực,nhà hàng,11.3244451,106.1096672,"10/15 Đường Nguyễn Chí Thanh, Phường 3, Tây Ninh, 80108",Tây Ninh,Tây Ninh,"Bò Tây Ninh - Nón Lá là nhà hàng tại Tây Ninh, Tây Ninh.",Bò Tây Ninh - Nón Lá Ẩm thực nhà hàng Tây Ninh Tây Ninh
TN_00238,YAMA Coffee Tea Dessert,Ẩm thực,quán cà phê,11.3198293,106.1008395,"Đường Trương Tùng Quân, Phường 3, Tây Ninh, 80108",Tây Ninh,Tây Ninh,"YAMA Coffee Tea Dessert là quán cà phê tại Tây Ninh, Tây Ninh.",YAMA Coffee Tea Dessert Ẩm thực quán cà phê Tây Ninh Tây Ninh
TN_00239,New Caffe and Food,Ẩm thực,quán cà phê,11.3196483,106.1011843,"Đường Đặng Ngọc Chinh, Phường 3, Tây Ninh, 80108",Tây Ninh,Tây Ninh,"New Caffe and Food là quán cà phê tại Tây Ninh, Tây Ninh.",New Caffe and Food Ẩm thực quán cà phê Tây Ninh Tây Ninh
TN_00240,Arina Hotel,Du lịch,khách sạn,11.3197093,106.1008767,"Đường Đặng Ngọc Chinh, Phường 3, Tây Ninh, 80108",Tây Ninh,Tây Ninh,"Arina Hotel là khách sạn tại Tây Ninh, Tây Ninh.",Arina Hotel Du lịch khách sạn Tây Ninh Tây Ninh
TN_00241,NhutNe,Ẩm thực,quán thức ăn nhanh,11.3422486,106.1885832,"Phan, Dương Minh Châu, Tây Ninh",Dương Minh Châu,Tây Ninh,"NhutNe là quán thức ăn nhanh tại Dương Minh Châu, Tây Ninh.",NhutNe Ẩm thực quán thức ăn nhanh Dương Minh Châu Tây Ninh
TN_00242,Shop Hoa AMi Đức Huệ,Du lịch,trung tâm thương mại,10.8937781,106.3080815,"Đường Tỉnh Lộ 822, Đông Thành, Đức Huệ, Long An, 82806",Đức Huệ,Tây Ninh,"Shop Hoa AMi Đức Huệ là trung tâm thương mại tại Đức Huệ, Tây Ninh.",Shop Hoa AMi Đức Huệ Du lịch trung tâm thương mại Đức Huệ Tây Ninh
TN_00243,Phố đêm xứ Trảng,Du lịch,chợ truyền thống,11.0317784,106.3538818,"Trảng Bàng, Tây Ninh",Trảng Bàng,Tây Ninh,"Phố đêm xứ Trảng là chợ truyền thống tại Trảng Bàng, Tây Ninh.",Phố đêm xứ Trảng Du lịch chợ truyền thống Trảng Bàng Tây Ninh
TN_00244,Nạc Grill Garden,Ẩm thực,nhà hàng,11.2744096,106.1278154,"Tiệm Sửa Xe Bài, Đường Phạm Hùng, Long Thành Trung, Hòa Thành, Tây Ninh, 80609",Hòa Thành,Tây Ninh,"Nạc Grill Garden là nhà hàng tại Hòa Thành, Tây Ninh.",Nạc Grill Garden Ẩm thực nhà hàng Hòa Thành Tây Ninh
TN_00245,Cam Vắt,Ẩm thực,quán cà phê,10.6779246,106.5341376,"Tân Bửu, Bến Lức, Long An",Bến Lức,Tây Ninh,"Cam Vắt là quán cà phê tại Bến Lức, Tây Ninh.",Cam Vắt Ẩm thực quán cà phê Bến Lức Tây Ninh
TN_00246,Cô Thung,Ẩm thực,nhà hàng,10.6395532,106.4953025,"Bến Lức, Long An",Bến Lức,Tây Ninh,"Cô Thung là nhà hàng tại Bến Lức, Tây Ninh.",Cô Thung Ẩm thực nhà hàng Bến Lức Tây Ninh
TN_00247,Mộc cafe garden,Ẩm thực,quán cà phê,10.5906406,106.6765801,"Trường Bình, Cần Giuộc, Long An",Cần Giuộc,Tây Ninh,"Mộc cafe garden là quán cà phê tại Cần Giuộc, Tây Ninh.",Mộc cafe garden Ẩm thực quán cà phê Cần Giuộc Tây Ninh
TN_00248,Mộc Cafe Garden,Ẩm thực,quán cà phê,10.5906161,106.6766167,"Trường Bình, Cần Giuộc, Long An",Cần Giuộc,Tây Ninh,"Mộc Cafe Garden là quán cà phê tại Cần Giuộc, Tây Ninh.",Mộc Cafe Garden Ẩm thực quán cà phê Cần Giuộc Tây Ninh
TN_00249,MOT LOCATION,Ẩm thực,quán cà phê,10.9020228,106.3955634,"Hậu Nghĩa, Đức Hòa, Long An",Đức Hòa,Tây Ninh,"MOT LOCATION là quán cà phê tại Đức Hòa, Tây Ninh.",MOT LOCATION Ẩm thực quán cà phê Đức Hòa Tây Ninh
TN_00250,The Sun Hotel,Du lịch,khách sạn,11.3018477,106.1139232,"14 Hẻm 6 Nguyễn Văn Rốp, Phường 4, Tây Ninh, 80109",Tây Ninh,Tây Ninh,"The Sun Hotel là khách sạn tại Tây Ninh, Tây Ninh.",The Sun Hotel Du lịch khách sạn Tây Ninh Tây Ninh
TN_00251,168,Ẩm thực,nhà hàng,11.3094805,106.1257037,"Đường Huỳnh Tấn Phát, Hiệp Ninh, Tây Ninh, 80110",Tây Ninh,Tây Ninh,"168 là nhà hàng tại Tây Ninh, Tây Ninh.",168 Ẩm thực nhà hàng Tây Ninh Tây Ninh
TN_00252,Hủ Tiếu Nam Vang,Ẩm thực,nhà hàng,11.1441131,106.309067,"627 Đường Tỉnh 782, Bàu Đồn, Gò Dầu, Tây Ninh, 80710",Gò Dầu,Tây Ninh,"Hủ Tiếu Nam Vang là nhà hàng tại Gò Dầu, Tây Ninh.",Hủ Tiếu Nam Vang Ẩm thực nhà hàng Gò Dầu Tây Ninh
TN_00253,Hoàng Xuyên,Ẩm thực,nhà hàng,10.9020153,106.3094318,"Đường Tỉnh Lộ 822, Đông Thành, Đức Huệ, Long An, 82806",Đức Huệ,Tây Ninh,"Hoàng Xuyên là nhà hàng tại Đức Huệ, Tây Ninh.",Hoàng Xuyên Ẩm thực nhà hàng Đức Huệ Tây Ninh
TN_00254,KFC,Ẩm thực,quán thức ăn nhanh,10.5347486,106.4109723,"Sạp Thịt Dung, Đường Mai Thị Tốt, Phường 2, Tân An, Long An, 82111",Tân An,Tây Ninh,"KFC là quán thức ăn nhanh tại Tân An, Tây Ninh.",KFC Ẩm thực quán thức ăn nhanh Tân An Tây Ninh
TN_00255,Jollibee,Ẩm thực,quán thức ăn nhanh,10.534604,106.4109937,"Cửa Hàng Thực Phẩm Tươi Sống Huỳnh Thảo, Đường Mai Thị Tốt, Phường 2, Tân An, Long An, 82111",Tân An,Tây Ninh,"Jollibee là quán thức ăn nhanh tại Tân An, Tây Ninh.",Jollibee Ẩm thực quán thức ăn nhanh Tân An Tây Ninh
TN_00256,Quán Bò Cô Hai,Ẩm thực,nhà hàng,11.0127306,106.4083538,"An Tịnh, Trảng Bàng, Tây Ninh",Trảng Bàng,Tây Ninh,"Quán Bò Cô Hai là nhà hàng tại Trảng Bàng, Tây Ninh.",Quán Bò Cô Hai Ẩm thực nhà hàng Trảng Bàng Tây Ninh
TN_00257,THI Coffee & Tea,Ẩm thực,quán cà phê,11.02686,106.3999091,"An Tịnh, Trảng Bàng, Tây Ninh",Trảng Bàng,Tây Ninh,"THI Coffee & Tea là quán cà phê tại Trảng Bàng, Tây Ninh.",THI Coffee & Tea Ẩm thực quán cà phê Trảng Bàng Tây Ninh
TN_00258,Cơm - Hủ tiếu,Ẩm thực,nhà hàng,10.6138054,106.0668534,"Đường Quốc Lộ N2, Kiến Bình, Tân Thạnh, Long An, 83407",Tân Thạnh,Tây Ninh,"Cơm - Hủ tiếu là nhà hàng tại Tân Thạnh, Tây Ninh.",Cơm - Hủ tiếu Ẩm thực nhà hàng Tân Thạnh Tây Ninh
TN_00259,Chợ Võ Vương,Du lịch,chợ truyền thống,11.1416051,106.3108205,"Đường Tỉnh 782, Bàu Đồn, Gò Dầu, Tây Ninh, 80710",Gò Dầu,Tây Ninh,"Chợ Võ Vương là chợ truyền thống tại Gò Dầu, Tây Ninh.",Chợ Võ Vương Du lịch chợ truyền thống Gò Dầu Tây Ninh
TN_00260,HOTEL Cây Thị - Khách Sạn Tây Ninh,Du lịch,khách sạn,11.3218042,106.1092003,"Đường Nguyễn Chí Thanh, Phường 3, Tây Ninh, 80108",Tây Ninh,Tây Ninh,"HOTEL Cây Thị - Khách Sạn Tây Ninh là khách sạn tại Tây Ninh, Tây Ninh.",HOTEL Cây Thị - Khách Sạn Tây Ninh Du lịch khách sạn Tây Ninh Tây Ninh
TN_00261,Nau Café,Ẩm thực,quán cà phê,11.0775564,106.176529,"Đường Quốc Lộ 22, Lợi Thuận, Bến Cầu, Tây Ninh, 80813",Bến Cầu,Tây Ninh,"Nau Café là quán cà phê tại Bến Cầu, Tây Ninh.",Nau Café Ẩm thực quán cà phê Bến Cầu Tây Ninh
TN_00262,7 wonders,Du lịch,địa điểm du lịch,10.9004059,106.4621585,"Đức Lập Hạ, Đức Hòa, Long An",Đức Hòa,Tây Ninh,"7 wonders là địa điểm du lịch tại Đức Hòa, Tây Ninh.",7 wonders Du lịch địa điểm du lịch Đức Hòa Tây Ninh
TN_00263,Pho,Ẩm thực,nhà hàng,11.1725529,106.3126528,"Đường Tỉnh 782, Bàu Đồn, Gò Dầu, Tây Ninh, 80710",Gò Dầu,Tây Ninh,"Pho là nhà hàng tại Gò Dầu, Tây Ninh.",Pho Ẩm thực nhà hàng Gò Dầu Tây Ninh
TN_00264,Công viên phường Long An,Du lịch,công viên,10.533171,106.4145405,"Phường 3, Tân An, Long An",Tân An,Tây Ninh,"Công viên phường Long An là công viên tại Tân An, Tây Ninh.",Công viên phường Long An Du lịch công viên Tân An Tây Ninh
TN_00265,Chợ Đường Biên,Du lịch,chợ truyền thống,11.0791047,106.1727015,"Lợi Thuận, Bến Cầu, Tây Ninh",Bến Cầu,Tây Ninh,"Chợ Đường Biên là chợ truyền thống tại Bến Cầu, Tây Ninh.",Chợ Đường Biên Du lịch chợ truyền thống Bến Cầu Tây Ninh
TN_00266,Chợ Trảng Bàng,Du lịch,chợ truyền thống,11.0335203,106.3529355,"Quốc Lộ 22, Trảng Bàng, Tây Ninh, 80906",Trảng Bàng,Tây Ninh,"Chợ Trảng Bàng là chợ truyền thống tại Trảng Bàng, Tây Ninh.",Chợ Trảng Bàng Du lịch chợ truyền thống Trảng Bàng Tây Ninh
TN_00267,Công viên Tân Biên,Du lịch,công viên,11.5430149,106.011166,"Đường Phan Văn Đáng, Tân Biên, Tây Ninh, 80406",Tân Biên,Tây Ninh,"Công viên Tân Biên là công viên tại Tân Biên, Tây Ninh.",Công viên Tân Biên Du lịch công viên Tân Biên Tây Ninh
TN_00268,Chợ Tân Biên,Du lịch,chợ truyền thống,11.5445673,106.0030719,"Đường Tôn Thất Tùng, Tân Biên, Tây Ninh, 80406",Tân Biên,Tây Ninh,"Chợ Tân Biên là chợ truyền thống tại Tân Biên, Tây Ninh.",Chợ Tân Biên Du lịch chợ truyền thống Tân Biên Tây Ninh
TN_00269,Ngã tư Đức Hòa,Du lịch,bảo tàng,10.823892,106.4571306,"167C Đường Tỉnh 824, Đức Hòa, Long An, 82722",Đức Hòa,Tây Ninh,"Ngã tư Đức Hòa là bảo tàng tại Đức Hòa, Tây Ninh.",Ngã tư Đức Hòa Du lịch bảo tàng Đức Hòa Tây Ninh
TN_00270,Chợ Đức Hòa,Du lịch,chợ truyền thống,10.8188889,106.4535823,"Chợ Đức Hoà, Đức Hòa, Long An, 82722",Đức Hòa,Tây Ninh,"Chợ Đức Hòa là chợ truyền thống tại Đức Hòa, Tây Ninh.",Chợ Đức Hòa Du lịch chợ truyền thống Đức Hòa Tây Ninh
TN_00271,Công viên Trần Quốc Đại,Du lịch,công viên,11.0897376,106.2639812,"Đường Quốc Lộ 22B, Gò Dầu, Tây Ninh, 80706",Gò Dầu,Tây Ninh,"Công viên Trần Quốc Đại là công viên tại Gò Dầu, Tây Ninh.",Công viên Trần Quốc Đại Du lịch công viên Gò Dầu Tây Ninh
TN_00272,Trung tâm Thương mại Gò Dầu,Du lịch,trung tâm thương mại,11.0832371,106.2669717,"Đường Hùng Vương, Gò Dầu, Tây Ninh, 80706",Gò Dầu,Tây Ninh,"Trung tâm Thương mại Gò Dầu là trung tâm thương mại tại Gò Dầu, Tây Ninh.",Trung tâm Thương mại Gò Dầu Du lịch trung tâm thương mại Gò Dầu Tây Ninh
TN_00273,Chợ Gò Dầu,Du lịch,chợ truyền thống,11.0827137,106.2645746,"Cửa Hàng Điện Gia Dụng - Điện Cơ Thu Nga, Đường Ngô Gia Tự, Gò Dầu, Tây Ninh, 80706",Gò Dầu,Tây Ninh,"Chợ Gò Dầu là chợ truyền thống tại Gò Dầu, Tây Ninh.",Chợ Gò Dầu Du lịch chợ truyền thống Gò Dầu Tây Ninh
TN_00274,Công viên 30 Tháng 4,Du lịch,công viên,10.7772413,105.9379221,"Đường Ba Mươi Tháng Tư, Mộc Hóa, Kiến Tường, Long An, 83109",Kiến Tường,Tây Ninh,"Công viên 30 Tháng 4 là công viên tại Kiến Tường, Tây Ninh.",Công viên 30 Tháng 4 Du lịch công viên Kiến Tường Tây Ninh
TN_00275,Chợ Mộc Hóa,Du lịch,chợ truyền thống,10.7793146,105.9355343,"Đường Lý Thường Kiệt, Mộc Hóa, Kiến Tường, Long An, 83109",Kiến Tường,Tây Ninh,"Chợ Mộc Hóa là chợ truyền thống tại Kiến Tường, Tây Ninh.",Chợ Mộc Hóa Du lịch chợ truyền thống Kiến Tường Tây Ninh
TN_00276,Công viên Xuân Hồng,Du lịch,công viên,11.3239244,106.103134,"Đường Đặng Ngọc Trinh, Phường 3, Tây Ninh, 80108",Tây Ninh,Tây Ninh,"Công viên Xuân Hồng là công viên tại Tây Ninh, Tây Ninh.",Công viên Xuân Hồng Du lịch công viên Tây Ninh Tây Ninh
TN_00277,Công viên Hòa Thành,Du lịch,công viên,11.2870153,106.1301729,"Đường Đỗ Thị Tặng, Hòa Thành, Tây Ninh, 80606",Hòa Thành,Tây Ninh,"Công viên Hòa Thành là công viên tại Hòa Thành, Tây Ninh.",Công viên Hòa Thành Du lịch công viên Hòa Thành Tây Ninh
TN_00278,Công viên 30 tháng 4,Du lịch,công viên,11.3127227,106.0978516,"Đường Cách Mạng Tháng 8, Phường 2, Tây Ninh, 80107",Tây Ninh,Tây Ninh,"Công viên 30 tháng 4 là công viên tại Tây Ninh, Tây Ninh.",Công viên 30 tháng 4 Du lịch công viên Tây Ninh Tây Ninh
TN_00279,Công viên Thắng Lợi,Du lịch,công viên,11.3157434,106.093978,"Đường Trần Hưng Đạo, Phường 1, Tây Ninh, 80106",Tây Ninh,Tây Ninh,"Công viên Thắng Lợi là công viên tại Tây Ninh, Tây Ninh.",Công viên Thắng Lợi Du lịch công viên Tây Ninh Tây Ninh
TN_00280,Công viên Thắng Lợi,Du lịch,công viên,11.3151179,106.0944928,"Đường Trần Hưng Đạo, Phường 1, Tây Ninh, 80106",Tây Ninh,Tây Ninh,"Công viên Thắng Lợi là công viên tại Tây Ninh, Tây Ninh.",Công viên Thắng Lợi Du lịch công viên Tây Ninh Tây Ninh
TN_00281,Chợ Bình Thạnh,Du lịch,chợ truyền thống,11.0228101,106.2298181,"Bình Thạnh, Trảng Bàng, Tây Ninh",Trảng Bàng,Tây Ninh,"Chợ Bình Thạnh là chợ truyền thống tại Trảng Bàng, Tây Ninh.",Chợ Bình Thạnh Du lịch chợ truyền thống Trảng Bàng Tây Ninh
TN_00282,Tháp Bình Thạnh,Du lịch,địa điểm du lịch,11.0186438,106.2191932,"Tháp Cổ Bình Thạnh, Đường Tỉnh Lộ 786, Bình Thạnh, Trảng Bàng, Tây Ninh, 80913",Trảng Bàng,Tây Ninh,"Tháp Bình Thạnh là địa điểm du lịch tại Trảng Bàng, Tây Ninh.",Tháp Bình Thạnh Du lịch địa điểm du lịch Trảng Bàng Tây Ninh
TN_00283,Chợ,Du lịch,chợ truyền thống,10.9297518,106.1653439,"Tỉnh Lộ 838, Mỹ Quý Tây, Đức Huệ, Long An, 82809",Đức Huệ,Tây Ninh,"Chợ là chợ truyền thống tại Đức Huệ, Tây Ninh.",Chợ Du lịch chợ truyền thống Đức Huệ Tây Ninh
TN_00284,Chợ Tuyên Nhơn,Du lịch,chợ truyền thống,10.6592453,106.1822868,"Đường Số 8, Thạnh Hóa, Long An, 82906",Thạnh Hóa,Tây Ninh,"Chợ Tuyên Nhơn là chợ truyền thống tại Thạnh Hóa, Tây Ninh.",Chợ Tuyên Nhơn Du lịch chợ truyền thống Thạnh Hóa Tây Ninh
TN_00285,Công viên Văn hóa Huyện Cần Đước,Du lịch,công viên,10.5069598,106.6043157,"Cần Đước, Long An",Cần Đước,Tây Ninh,"Công viên Văn hóa Huyện Cần Đước là công viên tại Cần Đước, Tây Ninh.",Công viên Văn hóa Huyện Cần Đước Du lịch công viên Cần Đước Tây Ninh
TN_00286,Công viên thị trấn,Du lịch,công viên,10.5064685,106.6029843,"Đường Quốc Lộ 50, Cần Đước, Long An, 82406",Cần Đước,Tây Ninh,"Công viên thị trấn là công viên tại Cần Đước, Tây Ninh.",Công viên thị trấn Du lịch công viên Cần Đước Tây Ninh
TN_00287,Chợ Cần Đước,Du lịch,chợ truyền thống,10.5042907,106.6040242,"Đường Quốc Lộ 50, Cần Đước, Long An, 82406",Cần Đước,Tây Ninh,"Chợ Cần Đước là chợ truyền thống tại Cần Đước, Tây Ninh.",Chợ Cần Đước Du lịch chợ truyền thống Cần Đước Tây Ninh
TN_00288,Công viên Rạch Kiến,Du lịch,công viên,10.5854408,106.5886622,"Đường Huyện 19, Long Hòa, Cần Đước, Long An, 82410",Cần Đước,Tây Ninh,"Công viên Rạch Kiến là công viên tại Cần Đước, Tây Ninh.",Công viên Rạch Kiến Du lịch công viên Cần Đước Tây Ninh
TN_00289,Chợ Tân Bửu,Du lịch,chợ truyền thống,10.6854537,106.5391935,"Tân Bửu, Bến Lức, Long An",Bến Lức,Tây Ninh,"Chợ Tân Bửu là chợ truyền thống tại Bến Lức, Tây Ninh.",Chợ Tân Bửu Du lịch chợ truyền thống Bến Lức Tây Ninh
TN_00290,Chợ Bến Lức,Du lịch,chợ truyền thống,10.6385059,106.4806245,"Đường Mai Thị Tốt, Bến Lức, Long An, 82606",Bến Lức,Tây Ninh,"Chợ Bến Lức là chợ truyền thống tại Bến Lức, Tây Ninh.",Chợ Bến Lức Du lịch chợ truyền thống Bến Lức Tây Ninh
TN_00291,Chợ Thuận Đạo,Du lịch,chợ truyền thống,10.6255307,106.4879841,"Đường Số 1, Bến Lức, Long An, 82606",Bến Lức,Tây Ninh,"Chợ Thuận Đạo là chợ truyền thống tại Bến Lức, Tây Ninh.",Chợ Thuận Đạo Du lịch chợ truyền thống Bến Lức Tây Ninh
TN_00292,Chợ An Thạnh,Du lịch,chợ truyền thống,10.6624206,106.4643929,"An Thạnh, Bến Lức, Long An",Bến Lức,Tây Ninh,"Chợ An Thạnh là chợ truyền thống tại Bến Lức, Tây Ninh.",Chợ An Thạnh Du lịch chợ truyền thống Bến Lức Tây Ninh
TN_00293,Chợ Gò Đen,Du lịch,chợ truyền thống,10.6386868,106.5376174,"Phước Lợi, Bến Lức, Long An",Bến Lức,Tây Ninh,"Chợ Gò Đen là chợ truyền thống tại Bến Lức, Tây Ninh.",Chợ Gò Đen Du lịch chợ truyền thống Bến Lức Tây Ninh
TN_00294,Chợ Tân An,Du lịch,chợ truyền thống,10.5380757,106.4139791,"Cửa Hàng Kim Ngân, 82 Đường Lý Công Uẩn, Phường 1, Tân An, Long An, 82106",Tân An,Tây Ninh,"Chợ Tân An là chợ truyền thống tại Tân An, Tây Ninh.",Chợ Tân An Du lịch chợ truyền thống Tân An Tây Ninh
TN_00295,Công viên Ao Quan,Du lịch,công viên,10.5379954,106.4182847,"170 Đường Thủ Khoa Huân, Phường 1, Tân An, Long An, 82106",Tân An,Tây Ninh,"Công viên Ao Quan là công viên tại Tân An, Tây Ninh.",Công viên Ao Quan Du lịch công viên Tân An Tây Ninh
TN_00296,Công viên Phường 5,Du lịch,công viên,10.5468272,106.4143328,"Quốc Lộ 1A, Phường 5, Tân An, Long An, 82107",Tân An,Tây Ninh,"Công viên Phường 5 là công viên tại Tân An, Tây Ninh.",Công viên Phường 5 Du lịch công viên Tân An Tây Ninh
TN_00297,Công viên Võ Văn Tần,Du lịch,công viên,10.8251237,106.4574911,"Vòng Xoay, Đức Hòa, Long An, 82722",Đức Hòa,Tây Ninh,"Công viên Võ Văn Tần là công viên tại Đức Hòa, Tây Ninh.",Công viên Võ Văn Tần Du lịch công viên Đức Hòa Tây Ninh
TN_00298,Công viên Tượng đài Nghĩa sĩ Cần Giuộc,Du lịch,công viên,10.6079739,106.6710873,"Tượng Đài Nghĩa Sĩ Cần Giuộc, Đường Quốc Lộ 50, Cần Giuộc, Long An, 82506",Cần Giuộc,Tây Ninh,"Công viên Tượng đài Nghĩa sĩ Cần Giuộc là công viên tại Cần Giuộc, Tây Ninh.",Công viên Tượng đài Nghĩa sĩ Cần Giuộc Du lịch công viên Cần Giuộc Tây Ninh
TN_00299,Chợ Cần Giuộc,Du lịch,chợ truyền thống,10.6102483,106.6705053,"37 Đường Trương Định, Cần Giuộc, Long An, 82506",Cần Giuộc,Tây Ninh,"Chợ Cần Giuộc là chợ truyền thống tại Cần Giuộc, Tây Ninh.",Chợ Cần Giuộc Du lịch chợ truyền thống Cần Giuộc Tây Ninh
TN_00300,Chợ Thủ Thừa,Du lịch,chợ truyền thống,10.5980261,106.4053834,"Đường Phan Văn Tình, Thủ Thừa, Long An, 83506",Thủ Thừa,Tây Ninh,"Chợ Thủ Thừa là chợ truyền thống tại Thủ Thừa, Tây Ninh.",Chợ Thủ Thừa Du lịch chợ truyền thống Thủ Thừa Tây Ninh
TN_00301,Chợ Tân Thạnh,Du lịch,chợ truyền thống,10.6125032,106.0447837,"Đường Đinh Văn Phu, Tân Thạnh, Long An, 83406",Tân Thạnh,Tây Ninh,"Chợ Tân Thạnh là chợ truyền thống tại Tân Thạnh, Tây Ninh.",Chợ Tân Thạnh Du lịch chợ truyền thống Tân Thạnh Tây Ninh
TN_00302,Chợ Tân Hưng,Du lịch,chợ truyền thống,10.8339057,105.6667552,"Đường Hoàng Hoa Thám, Tân Hưng, Long An, 83306",Tân Hưng,Tây Ninh,"Chợ Tân Hưng là chợ truyền thống tại Tân Hưng, Tây Ninh.",Chợ Tân Hưng Du lịch chợ truyền thống Tân Hưng Tây Ninh
TN_00303,Chợ Vĩnh Thạnh,Du lịch,chợ truyền thống,10.8365491,105.7373909,"Vĩnh Thạnh, Tân Hưng, Long An",Tân Hưng,Tây Ninh,"Chợ Vĩnh Thạnh là chợ truyền thống tại Tân Hưng, Tây Ninh.",Chợ Vĩnh Thạnh Du lịch chợ truyền thống Tân Hưng Tây Ninh
TN_00304,Chợ Vĩnh Hưng,Du lịch,chợ truyền thống,10.8866603,105.7875469,"Đường Huỳnh Văn Đảnh, Vĩnh Hưng, Long An, 83206",Vĩnh Hưng,Tây Ninh,"Chợ Vĩnh Hưng là chợ truyền thống tại Vĩnh Hưng, Tây Ninh.",Chợ Vĩnh Hưng Du lịch chợ truyền thống Vĩnh Hưng Tây Ninh
TN_00305,Công viên Bàu Sậy,Du lịch,công viên,10.8921746,105.7795522,"Đường Cách Mạng Tháng Tám, Vĩnh Hưng, Long An, 83206",Vĩnh Hưng,Tây Ninh,"Công viên Bàu Sậy là công viên tại Vĩnh Hưng, Tây Ninh.",Công viên Bàu Sậy Du lịch công viên Vĩnh Hưng Tây Ninh
TN_00306,Chợ Bàu Sậy,Du lịch,chợ truyền thống,10.8913341,105.780507,"Đường Cách Mạng Tháng Tám, Vĩnh Hưng, Long An, 83206",Vĩnh Hưng,Tây Ninh,"Chợ Bàu Sậy là chợ truyền thống tại Vĩnh Hưng, Tây Ninh.",Chợ Bàu Sậy Du lịch chợ truyền thống Vĩnh Hưng Tây Ninh
TN_00307,Chợ Rạch Kiến,Du lịch,chợ truyền thống,10.5816773,106.5894556,"Đường Chợ Mới, Long Hòa, Cần Đước, Long An, 82410",Cần Đước,Tây Ninh,"Chợ Rạch Kiến là chợ truyền thống tại Cần Đước, Tây Ninh.",Chợ Rạch Kiến Du lịch chợ truyền thống Cần Đước Tây Ninh
TN_00308,Chợ Kinh Nước Mặn,Du lịch,chợ truyền thống,10.4949976,106.6695057,"Đường Chợ Long Hựu Đông, Long Hựu Đông, Cần Đước, Long An, 82421",Cần Đước,Tây Ninh,"Chợ Kinh Nước Mặn là chợ truyền thống tại Cần Đước, Tây Ninh.",Chợ Kinh Nước Mặn Du lịch chợ truyền thống Cần Đước Tây Ninh
TN_00309,Chợ Tân Tập,Du lịch,chợ truyền thống,10.5344725,106.7012697,"Đường Tỉnh Lộ 830, Tân Tập, Cần Giuộc, Long An, 82522",Cần Giuộc,Tây Ninh,"Chợ Tân Tập là chợ truyền thống tại Cần Giuộc, Tây Ninh.",Chợ Tân Tập Du lịch chợ truyền thống Cần Giuộc Tây Ninh
TN_00310,Chợ Thanh Phú Long,Du lịch,chợ truyền thống,10.4532338,106.517019,"Thanh Phú Long, Châu Thành, Long An",Châu Thành,Tây Ninh,"Chợ Thanh Phú Long là chợ truyền thống tại Châu Thành, Tây Ninh.",Chợ Thanh Phú Long Du lịch chợ truyền thống Châu Thành Tây Ninh
TN_00311,Chợ Tầm Vu,Du lịch,chợ truyền thống,10.4479033,106.4672545,"Tỉnh Lộ 827, Tầm Vu, Châu Thành, Long An, 82206",Châu Thành,Tây Ninh,"Chợ Tầm Vu là chợ truyền thống tại Châu Thành, Tây Ninh.",Chợ Tầm Vu Du lịch chợ truyền thống Châu Thành Tây Ninh
TN_00312,Chợ Bình Phong Thạnh,Du lịch,chợ truyền thống,10.7294496,106.0573212,"Bình Phong Thạnh, Mộc Hóa, Long An",Mộc Hóa,Tây Ninh,"Chợ Bình Phong Thạnh là chợ truyền thống tại Mộc Hóa, Tây Ninh.",Chợ Bình Phong Thạnh Du lịch chợ truyền thống Mộc Hóa Tây Ninh
TN_00313,Công viên Tân Trụ,Du lịch,công viên,10.5141006,106.5067829,"Đường Tỉnh Lộ 833, Tân Trụ, Long An, 82306",Tân Trụ,Tây Ninh,"Công viên Tân Trụ là công viên tại Tân Trụ, Tây Ninh.",Công viên Tân Trụ Du lịch công viên Tân Trụ Tây Ninh
TN_00314,Chợ Tân Trụ,Du lịch,chợ truyền thống,10.5215914,106.5223056,"Đường Hương Lộ 25, Tân Trụ, Long An, 82306",Tân Trụ,Tây Ninh,"Chợ Tân Trụ là chợ truyền thống tại Tân Trụ, Tây Ninh.",Chợ Tân Trụ Du lịch chợ truyền thống Tân Trụ Tây Ninh
TN_00315,Chợ Tân Hiệp,Du lịch,chợ truyền thống,10.7704733,106.1734478,"Đường Tỉnh 839, Thuận Bình, Thạnh Hóa, Long An, 82909",Thạnh Hóa,Tây Ninh,"Chợ Tân Hiệp là chợ truyền thống tại Thạnh Hóa, Tây Ninh.",Chợ Tân Hiệp Du lịch chợ truyền thống Thạnh Hóa Tây Ninh
TN_00316,Chợ Thị trấn Bến Cầu,Du lịch,chợ truyền thống,11.1086385,106.1808001,"Đường Nguyễn Văn Độ, Bến Cầu, Tây Ninh, 80806",Bến Cầu,Tây Ninh,"Chợ Thị trấn Bến Cầu là chợ truyền thống tại Bến Cầu, Tây Ninh.",Chợ Thị trấn Bến Cầu Du lịch chợ truyền thống Bến Cầu Tây Ninh
TN_00317,Chợ Tây Ninh,Du lịch,chợ truyền thống,11.3114114,106.0883674,"87 Đường Phạm Văn Chiêu, Phường 2, Tây Ninh, 80107",Tây Ninh,Tây Ninh,"Chợ Tây Ninh là chợ truyền thống tại Tây Ninh, Tây Ninh.",Chợ Tây Ninh Du lịch chợ truyền thống Tây Ninh Tây Ninh
TN_00318,Nhà khách Hoa Hồng,Du lịch,khách sạn,11.31306,106.0939219,"2 Đường Lê Văn Tám, Phường 2, Tây Ninh, 80107",Tây Ninh,Tây Ninh,"Nhà khách Hoa Hồng là khách sạn tại Tây Ninh, Tây Ninh.",Nhà khách Hoa Hồng Du lịch khách sạn Tây Ninh Tây Ninh
TN_00319,Di tích Khám đường Tây Ninh,Du lịch,bảo tàng,11.313208,106.0957954,"1A Đường Hàm Nghi, Phường 2, Tây Ninh, 80107",Tây Ninh,Tây Ninh,"Di tích Khám đường Tây Ninh là bảo tàng tại Tây Ninh, Tây Ninh.",Di tích Khám đường Tây Ninh Du lịch bảo tàng Tây Ninh Tây Ninh
TN_00320,Nhà Đốc phủ sứ Nguyễn Văn Kiên,Du lịch,bảo tàng,11.3174559,106.092143,"41 Đường Phan Chu Trinh, Phường 1, Tây Ninh, 80106",Tây Ninh,Tây Ninh,"Nhà Đốc phủ sứ Nguyễn Văn Kiên là bảo tàng tại Tây Ninh, Tây Ninh.",Nhà Đốc phủ sứ Nguyễn Văn Kiên Du lịch bảo tàng Tây Ninh Tây Ninh
TN_00321,Chợ Ninh Sơn,Du lịch,chợ truyền thống,11.3376109,106.1165651,"653 Đường Bời Lời, Ninh Sơn, Tây Ninh, 80112",Tây Ninh,Tây Ninh,"Chợ Ninh Sơn là chợ truyền thống tại Tây Ninh, Tây Ninh.",Chợ Ninh Sơn Du lịch chợ truyền thống Tây Ninh Tây Ninh
TN_00322,Chợ Bình Phong,Du lịch,chợ truyền thống,11.3141212,106.0667941,"Đường Quốc Lộ 22B, Thái Bình, Châu Thành, Tây Ninh, 80508",Châu Thành,Tây Ninh,"Chợ Bình Phong là chợ truyền thống tại Châu Thành, Tây Ninh.",Chợ Bình Phong Du lịch chợ truyền thống Châu Thành Tây Ninh
TN_00323,Chợ Cao Xá,Du lịch,chợ truyền thống,11.3112163,106.0227944,"Dịch Vụ Trồng Răng Thành Tâm, 70 Đường Võ Thị Sáu, Châu Thành, Tây Ninh, 80506",Châu Thành,Tây Ninh,"Chợ Cao Xá là chợ truyền thống tại Châu Thành, Tây Ninh.",Chợ Cao Xá Du lịch chợ truyền thống Châu Thành Tây Ninh
TN_00324,Chợ Thanh Điền,Du lịch,chợ truyền thống,11.2843873,106.0728304,"Vòng Xoay, Thanh Điền, Châu Thành, Tây Ninh, 80519",Châu Thành,Tây Ninh,"Chợ Thanh Điền là chợ truyền thống tại Châu Thành, Tây Ninh.",Chợ Thanh Điền Du lịch chợ truyền thống Châu Thành Tây Ninh
TN_00325,Chợ Long Hoa,Du lịch,chợ truyền thống,11.2831372,106.1297234,"Đường Huỳnh Thanh Mừng, Hòa Thành, Tây Ninh, 80606",Hòa Thành,Tây Ninh,"Chợ Long Hoa là chợ truyền thống tại Hòa Thành, Tây Ninh.",Chợ Long Hoa Du lịch chợ truyền thống Hòa Thành Tây Ninh
TN_00326,Chợ Thương Binh,Du lịch,chợ truyền thống,11.3073721,106.1265698,"Hẻm 93 Cách Mạng Tháng 8, Hiệp Ninh, Tây Ninh, 80110",Tây Ninh,Tây Ninh,"Chợ Thương Binh là chợ truyền thống tại Tây Ninh, Tây Ninh.",Chợ Thương Binh Du lịch chợ truyền thống Tây Ninh Tây Ninh
TN_00327,Chợ Long Bình,Du lịch,chợ truyền thống,11.2430147,106.1321756,"Quốc Lộ 22B, Long Thành Nam, Hòa Thành, Tây Ninh, 80610",Hòa Thành,Tây Ninh,"Chợ Long Bình là chợ truyền thống tại Hòa Thành, Tây Ninh.",Chợ Long Bình Du lịch chợ truyền thống Hòa Thành Tây Ninh
TN_00328,Chợ Long Yên,Du lịch,chợ truyền thống,11.2513082,106.1208483,"Long Thành Nam, Hòa Thành, Tây Ninh",Hòa Thành,Tây Ninh,"Chợ Long Yên là chợ truyền thống tại Hòa Thành, Tây Ninh.",Chợ Long Yên Du lịch chợ truyền thống Hòa Thành Tây Ninh
TN_00329,Chợ Bàu Năng,Du lịch,chợ truyền thống,11.3098989,106.1530785,"Đường Số 21, Bàu Năng, Dương Minh Châu, Tây Ninh, 80208",Dương Minh Châu,Tây Ninh,"Chợ Bàu Năng là chợ truyền thống tại Dương Minh Châu, Tây Ninh.",Chợ Bàu Năng Du lịch chợ truyền thống Dương Minh Châu Tây Ninh
TN_00330,Chợ Quy Thiện,Du lịch,chợ truyền thống,11.2725149,106.1574343,"Đường Số 63 Nguyễn Văn Linh, Trường Hòa, Hòa Thành, Tây Ninh, 80613",Hòa Thành,Tây Ninh,"Chợ Quy Thiện là chợ truyền thống tại Hòa Thành, Tây Ninh.",Chợ Quy Thiện Du lịch chợ truyền thống Hòa Thành Tây Ninh
TN_00331,Chợ Long Hải,Du lịch,chợ truyền thống,11.2588531,106.1403844,"Đường Ngô Quyền, Trường Tây, Hòa Thành, Tây Ninh, 80611",Hòa Thành,Tây Ninh,"Chợ Long Hải là chợ truyền thống tại Hòa Thành, Tây Ninh.",Chợ Long Hải Du lịch chợ truyền thống Hòa Thành Tây Ninh
TN_00332,Phòng Xem phim Tư liệu,Du lịch,bảo tàng,11.3667776,106.1782944,"Thạnh Tân, Tây Ninh",Tây Ninh,Tây Ninh,"Phòng Xem phim Tư liệu là bảo tàng tại Tây Ninh, Tây Ninh.",Phòng Xem phim Tư liệu Du lịch bảo tàng Tây Ninh Tây Ninh
TN_00333,Chợ Thạnh Đông,Du lịch,chợ truyền thống,11.4154942,106.173473,"Tỉnh Lộ 785, Thạnh Tân, Tây Ninh, 80113",Tây Ninh,Tây Ninh,"Chợ Thạnh Đông là chợ truyền thống tại Tây Ninh, Tây Ninh.",Chợ Thạnh Đông Du lịch chợ truyền thống Tây Ninh Tây Ninh
TN_00334,Chợ Phước Minh,Du lịch,chợ truyền thống,11.3184977,106.3196124,"Đường Tỉnh Lộ 781, Phước Minh, Dương Minh Châu, Tây Ninh, 80214",Dương Minh Châu,Tây Ninh,"Chợ Phước Minh là chợ truyền thống tại Dương Minh Châu, Tây Ninh.",Chợ Phước Minh Du lịch chợ truyền thống Dương Minh Châu Tây Ninh
TN_00335,Chợ Phước Ninh,Du lịch,chợ truyền thống,11.3363242,106.2522192,"Đường Suối Đá-Phước Ninh-Phước Minh, Phước Ninh, Dương Minh Châu, Tây Ninh, 80215",Dương Minh Châu,Tây Ninh,"Chợ Phước Ninh là chợ truyền thống tại Dương Minh Châu, Tây Ninh.",Chợ Phước Ninh Du lịch chợ truyền thống Dương Minh Châu Tây Ninh
TN_00336,Công viên Dương Minh Châu,Du lịch,công viên,11.3863125,106.2319055,"Đường Nguyễn Chí Thanh, Dương Minh Châu, Tây Ninh, 80206",Dương Minh Châu,Tây Ninh,"Công viên Dương Minh Châu là công viên tại Dương Minh Châu, Tây Ninh.",Công viên Dương Minh Châu Du lịch công viên Dương Minh Châu Tây Ninh
TN_00337,Chợ Dương Minh Châu,Du lịch,chợ truyền thống,11.3833984,106.2295995,"Đường Cù Chính Lan, Dương Minh Châu, Tây Ninh, 80206",Dương Minh Châu,Tây Ninh,"Chợ Dương Minh Châu là chợ truyền thống tại Dương Minh Châu, Tây Ninh.",Chợ Dương Minh Châu Du lịch chợ truyền thống Dương Minh Châu Tây Ninh
TN_00338,Nhà bia Liệt sĩ xã Tân Đông,Du lịch,công viên,11.6680547,106.2189176,"Đường Tỉnh Kà Tum-Tân Hà, Tân Đông, Tân Châu, Tây Ninh, 80311",Tân Châu,Tây Ninh,"Nhà bia Liệt sĩ xã Tân Đông là công viên tại Tân Châu, Tây Ninh.",Nhà bia Liệt sĩ xã Tân Đông Du lịch công viên Tân Châu Tây Ninh
TN_00339,Chợ Kà Tum,Du lịch,chợ truyền thống,11.6699966,106.2179071,"Tân Đông, Tân Châu, Tây Ninh",Tân Châu,Tây Ninh,"Chợ Kà Tum là chợ truyền thống tại Tân Châu, Tây Ninh.",Chợ Kà Tum Du lịch chợ truyền thống Tân Châu Tây Ninh
TN_00340,Chợ Tân Châu,Du lịch,chợ truyền thống,11.5526283,106.1625375,"Đường Ba Mươi Tháng Tư, Tân Châu, Tây Ninh, 80306",Tân Châu,Tây Ninh,"Chợ Tân Châu là chợ truyền thống tại Tân Châu, Tây Ninh.",Chợ Tân Châu Du lịch chợ truyền thống Tân Châu Tây Ninh
TN_00341,Trung tâm Tổ chức Hội nghị tỉnh Tây Ninh,Du lịch,khách sạn,10.5414887,106.4134903,"61 Đường Nguyễn Huệ, Phường 1, Tân An, Long An, 82106",Tân An,Tây Ninh,"Trung tâm Tổ chức Hội nghị tỉnh Tây Ninh là khách sạn tại Tân An, Tây Ninh.",Trung tâm Tổ chức Hội nghị tỉnh Tây Ninh Du lịch khách sạn Tân An Tây Ninh
TN_00342,The A Coffee & Escape Game,Ẩm thực,quán cà phê,11.3057775,106.1108856,"262 Đường Huỳnh Công Giản, Phường 3, Tây Ninh, 80108",Tây Ninh,Tây Ninh,"The A Coffee & Escape Game là quán cà phê tại Tây Ninh, Tây Ninh.",The A Coffee & Escape Game Ẩm thực quán cà phê Tây Ninh Tây Ninh
TN_00343,Công viên,Du lịch,công viên,11.3806579,106.2245487,"Đường Cù Chính Lan, Dương Minh Châu, Tây Ninh, 80206",Dương Minh Châu,Tây Ninh,"Công viên là công viên tại Dương Minh Châu, Tây Ninh.",Công viên Du lịch công viên Dương Minh Châu Tây Ninh
TN_00344,Công viên Văn hóa Võ Tấn Đồ,Du lịch,công viên,10.8950729,106.3987152,"Hậu Nghĩa, Đức Hòa, Long An",Đức Hòa,Tây Ninh,"Công viên Văn hóa Võ Tấn Đồ là công viên tại Đức Hòa, Tây Ninh.",Công viên Văn hóa Võ Tấn Đồ Du lịch công viên Đức Hòa Tây Ninh
TN_00345,Công viên Bến Đá,Du lịch,công viên,10.6386555,106.4775789,"Đường Phạm Văn Ngũ, Bến Lức, Long An, 82606",Bến Lức,Tây Ninh,"Công viên Bến Đá là công viên tại Bến Lức, Tây Ninh.",Công viên Bến Đá Du lịch công viên Bến Lức Tây Ninh
TN_00346,Công viên 30 tháng 3,Du lịch,công viên,10.8912535,105.7869365,"Đường Nguyễn Thái Bình, Vĩnh Hưng, Long An, 83206",Vĩnh Hưng,Tây Ninh,"Công viên 30 tháng 3 là công viên tại Vĩnh Hưng, Tây Ninh.",Công viên 30 tháng 3 Du lịch công viên Vĩnh Hưng Tây Ninh
TN_00347,Công viên Trần Thị Viết,Du lịch,công viên,10.8899747,105.7806359,"Đường Tỉnh Lộ 831B, Vĩnh Hưng, Long An, 83206",Vĩnh Hưng,Tây Ninh,"Công viên Trần Thị Viết là công viên tại Vĩnh Hưng, Tây Ninh.",Công viên Trần Thị Viết Du lịch công viên Vĩnh Hưng Tây Ninh
TN_00348,Công viên Trần Thị Viết,Du lịch,công viên,10.8865119,105.7863359,"Đường Tỉnh Lộ 831, Vĩnh Hưng, Long An, 83206",Vĩnh Hưng,Tây Ninh,"Công viên Trần Thị Viết là công viên tại Vĩnh Hưng, Tây Ninh.",Công viên Trần Thị Viết Du lịch công viên Vĩnh Hưng Tây Ninh
TN_00349,Công viên Trần Thị Viết,Du lịch,công viên,10.8800719,105.7970437,"Đường Tỉnh Lộ 831, Vĩnh Hưng, Long An, 83206",Vĩnh Hưng,Tây Ninh,"Công viên Trần Thị Viết là công viên tại Vĩnh Hưng, Tây Ninh.",Công viên Trần Thị Viết Du lịch công viên Vĩnh Hưng Tây Ninh
TN_00350,Công viên Trần Thị Viết,Du lịch,công viên,10.8836563,105.7910825,"Đường Tỉnh Lộ 831, Vĩnh Hưng, Long An, 83206",Vĩnh Hưng,Tây Ninh,"Công viên Trần Thị Viết là công viên tại Vĩnh Hưng, Tây Ninh.",Công viên Trần Thị Viết Du lịch công viên Vĩnh Hưng Tây Ninh
TN_00351,Công viên Phường 2,Du lịch,công viên,10.542211,106.4119587,"Đường Hoàng Hoa Thám, Phường 2, Tân An, Long An, 82111",Tân An,Tây Ninh,"Công viên Phường 2 là công viên tại Tân An, Tây Ninh.",Công viên Phường 2 Du lịch công viên Tân An Tây Ninh
TN_00352,Chợ Tân Trụ,Du lịch,chợ truyền thống,10.5130519,106.5091381,"Đường Nguyễn Trung Trực, Tân Trụ, Long An, 82306",Tân Trụ,Tây Ninh,"Chợ Tân Trụ là chợ truyền thống tại Tân Trụ, Tây Ninh.",Chợ Tân Trụ Du lịch chợ truyền thống Tân Trụ Tây Ninh
TN_00353,Nhà trăm cột,Du lịch,địa điểm du lịch,10.4826627,106.6914169,"Long Hựu Đông, Cần Đước, Long An",Cần Đước,Tây Ninh,"Nhà trăm cột là địa điểm du lịch tại Cần Đước, Tây Ninh.",Nhà trăm cột Du lịch địa điểm du lịch Cần Đước Tây Ninh
TN_00354,Công viên Nguyễn Thị Bảy,Du lịch,công viên,10.6064263,106.6707603,"112 Quốc Lộ 50, Cần Giuộc, Long An, 82506",Cần Giuộc,Tây Ninh,"Công viên Nguyễn Thị Bảy là công viên tại Cần Giuộc, Tây Ninh.",Công viên Nguyễn Thị Bảy Du lịch công viên Cần Giuộc Tây Ninh
TN_00355,Căn cứ Xứ ủy Nam Bộ,Du lịch,bảo tàng,10.6365071,105.9059661,"Nhơn Hòa Lập, Tân Thạnh, Long An",Tân Thạnh,Tây Ninh,"Căn cứ Xứ ủy Nam Bộ là bảo tàng tại Tân Thạnh, Tây Ninh.",Căn cứ Xứ ủy Nam Bộ Du lịch bảo tàng Tân Thạnh Tây Ninh
TN_00356,Chợ Tân Tây,Du lịch,chợ truyền thống,10.6354106,106.2564713,"Đường Quốc Lộ 62, Tân Tây, Thạnh Hóa, Long An, 82915",Thạnh Hóa,Tây Ninh,"Chợ Tân Tây là chợ truyền thống tại Thạnh Hóa, Tây Ninh.",Chợ Tân Tây Du lịch chợ truyền thống Thạnh Hóa Tây Ninh
TN_00357,Chợ Long Thượng,Du lịch,chợ truyền thống,10.6364355,106.6099455,"Đường Tỉnh 835B, Long Thượng, Cần Giuộc, Long An, 82510",Cần Giuộc,Tây Ninh,"Chợ Long Thượng là chợ truyền thống tại Cần Giuộc, Tây Ninh.",Chợ Long Thượng Du lịch chợ truyền thống Cần Giuộc Tây Ninh
TN_00358,Gratitude Retribution Temple - Temple of the Holy Buddha Mother Area,Du lịch,địa điểm du lịch,11.2998098,106.1325648,"Đại Lộ Phạm Hộ Pháp, Hòa Thành, Tây Ninh, 80606",Hòa Thành,Tây Ninh,"Gratitude Retribution Temple - Temple of the Holy Buddha Mother Area là địa điểm du lịch tại Hòa Thành, Tây Ninh.",Gratitude Retribution Temple - Temple of the Holy Buddha Mother Area Du lịch địa điểm du lịch Hòa Thành Tây Ninh
TN_00359,The office of Defender of Dharma Area,Du lịch,địa điểm du lịch,11.3003504,106.132548,"Đại Lộ Phạm Hộ Pháp, Hòa Thành, Tây Ninh, 80606",Hòa Thành,Tây Ninh,"The office of Defender of Dharma Area là địa điểm du lịch tại Hòa Thành, Tây Ninh.",The office of Defender of Dharma Area Du lịch địa điểm du lịch Hòa Thành Tây Ninh
TN_00360,Quảng trường trung tâm Thị xã Trảng Bàng,Du lịch,công viên,11.029917,106.3584762,"Lotteria, Đường Quốc Lộ 22, Trảng Bàng, Tây Ninh, 80906",Trảng Bàng,Tây Ninh,"Quảng trường trung tâm Thị xã Trảng Bàng là công viên tại Trảng Bàng, Tây Ninh.",Quảng trường trung tâm Thị xã Trảng Bàng Du lịch công viên Trảng Bàng Tây Ninh
TN_00361,The Holy See of Great Faith Third Universal Redemption Area,Du lịch,địa điểm du lịch,11.3039949,106.1335638,"Đại Lộ Phạm Hộ Pháp, Hòa Thành, Tây Ninh, 80606",Hòa Thành,Tây Ninh,"The Holy See of Great Faith Third Universal Redemption Area là địa điểm du lịch tại Hòa Thành, Tây Ninh.",The Holy See of Great Faith Third Universal Redemption Area Du lịch địa điểm du lịch Hòa Thành Tây Ninh
TN_00362,Công viên Bạch Đằng,Du lịch,công viên,10.7800955,105.932925,"Đường Huỳnh Việt Thanh, Mộc Hóa, Kiến Tường, Long An, 83012",Kiến Tường,Tây Ninh,"Công viên Bạch Đằng là công viên tại Kiến Tường, Tây Ninh.",Công viên Bạch Đằng Du lịch công viên Kiến Tường Tây Ninh
TN_00363,Khu Di tích Núi Đất,Du lịch,công viên,10.7696122,105.9388483,"Mộc Hóa, Kiến Tường, Long An",Kiến Tường,Tây Ninh,"Khu Di tích Núi Đất là công viên tại Kiến Tường, Tây Ninh.",Khu Di tích Núi Đất Du lịch công viên Kiến Tường Tây Ninh
TN_00364,Chợ Vĩnh Châu A,Du lịch,chợ truyền thống,10.716484,105.7205862,"Đường Tỉnh Lộ 837B, Vĩnh Châu A, Tân Hưng, Long An, 83315",Tân Hưng,Tây Ninh,"Chợ Vĩnh Châu A là chợ truyền thống tại Tân Hưng, Tây Ninh.",Chợ Vĩnh Châu A Du lịch chợ truyền thống Tân Hưng Tây Ninh
TN_00365,Căn cứ Xứ uỷ Nam Bộ,Du lịch,công viên,10.6363762,105.9060065,"Nhơn Hòa Lập, Tân Thạnh, Long An",Tân Thạnh,Tây Ninh,"Căn cứ Xứ uỷ Nam Bộ là công viên tại Tân Thạnh, Tây Ninh.",Căn cứ Xứ uỷ Nam Bộ Du lịch công viên Tân Thạnh Tây Ninh
TN_00366,Đồn Long Khốt,Du lịch,bảo tàng,10.9212404,105.8391487,"Thái Bình Trung, Vĩnh Hưng, Long An",Vĩnh Hưng,Tây Ninh,"Đồn Long Khốt là bảo tàng tại Vĩnh Hưng, Tây Ninh.",Đồn Long Khốt Du lịch bảo tàng Vĩnh Hưng Tây Ninh
TN_00367,Khu di tích lịch sử Vàm Nhựt Tảo,Du lịch,công viên,10.5611774,106.5173607,"An Nhựt Tân, Tân Trụ, Long An",Tân Trụ,Tây Ninh,"Khu di tích lịch sử Vàm Nhựt Tảo là công viên tại Tân Trụ, Tây Ninh.",Khu di tích lịch sử Vàm Nhựt Tảo Du lịch công viên Tân Trụ Tây Ninh
TN_00368,Dinh Quận Đức Hoà,Du lịch,bảo tàng,10.8243055,106.4570692,"Đường Tỉnh 824, Đức Hòa, Long An, 82722",Đức Hòa,Tây Ninh,"Dinh Quận Đức Hoà là bảo tàng tại Đức Hòa, Tây Ninh.",Dinh Quận Đức Hoà Du lịch bảo tàng Đức Hòa Tây Ninh
TN_00369,BeauChamp Villa,Du lịch,khách sạn,10.5814029,106.3257199,"Mỹ An, Thủ Thừa, Long An",Thủ Thừa,Tây Ninh,"BeauChamp Villa là khách sạn tại Thủ Thừa, Tây Ninh.",BeauChamp Villa Du lịch khách sạn Thủ Thừa Tây Ninh
TN_00370,Shop Hoa AMi Đức Huệ,Du lịch,trung tâm thương mại,10.8937194,106.3078956,"Đường Tỉnh Lộ 822, Đông Thành, Đức Huệ, Long An, 82806",Đức Huệ,Tây Ninh,"Shop Hoa AMi Đức Huệ là trung tâm thương mại tại Đức Huệ, Tây Ninh.",Shop Hoa AMi Đức Huệ Du lịch trung tâm thương mại Đức Huệ Tây Ninh
TN_00371,Chợ Tân An,Du lịch,chợ truyền thống,10.5387757,106.4128563,"34 Đường Nguyễn Duy, Phường 1, Tân An, Long An, 82106",Tân An,Tây Ninh,"Chợ Tân An là chợ truyền thống tại Tân An, Tây Ninh.",Chợ Tân An Du lịch chợ truyền thống Tân An Tây Ninh
TN_00372,Chợ Thủ Thừa,Du lịch,chợ truyền thống,10.6030972,106.4032189,"16 Đường Thủ Khoa Thừa, Thủ Thừa, Long An, 83506",Thủ Thừa,Tây Ninh,"Chợ Thủ Thừa là chợ truyền thống tại Thủ Thừa, Tây Ninh.",Chợ Thủ Thừa Du lịch chợ truyền thống Thủ Thừa Tây Ninh
TN_00373,Vincom,Du lịch,trung tâm thương mại,10.5343594,106.4102103,"Đường Hùng Vương, Phường 2, Tân An, Long An, 82111",Tân An,Tây Ninh,"Vincom là trung tâm thương mại tại Tân An, Tây Ninh.",Vincom Du lịch trung tâm thương mại Tân An Tây Ninh
TN_00374,Công viên Gò Đen (Chợ cũ),Du lịch,công viên,10.6396704,106.5344246,"18 Đường Long Hiệp Mỹ Yên, Phước Lợi, Bến Lức, Long An, 82620",Bến Lức,Tây Ninh,"Công viên Gò Đen (Chợ cũ) là công viên tại Bến Lức, Tây Ninh.",Công viên Gò Đen (Chợ cũ) Du lịch công viên Bến Lức Tây Ninh
TN_00375,Công viên Mặt Trời,Du lịch,công viên,11.0832797,106.1809783,"Lợi Thuận, Bến Cầu, Tây Ninh",Bến Cầu,Tây Ninh,"Công viên Mặt Trời là công viên tại Bến Cầu, Tây Ninh.",Công viên Mặt Trời Du lịch công viên Bến Cầu Tây Ninh
TN_00376,Chợ Long Cang mới,Du lịch,chợ truyền thống,10.5707217,106.5152424,"Long Cang, Cần Đước, Long An",Cần Đước,Tây Ninh,"Chợ Long Cang mới là chợ truyền thống tại Cần Đước, Tây Ninh.",Chợ Long Cang mới Du lịch chợ truyền thống Cần Đước Tây Ninh
