id,name,domain,category_vi,latitude,longitude,address,district,description,search_text
QN_00001,Ha Long Pearl,Du lịch,khách sạn,20.9515064,107.041204,Saigon Halong Hotel,,Ha Long Pearl là khách sạn tại Quảng Ninh.,Ha Long Pearl Du lịch khách sạn  Quảng Ninh
QN_00002,BMC Thăng Long Hotel,Du lịch,khách sạn,20.9483048,107.0289488,"278 Đường Hạ Long, Bãi Cháy, Hạ Long, Quảng Ninh, 01119",Hạ Long,BMC Thăng Long Hotel là khách sạn tại Hạ Long.,BMC Thăng Long Hotel Du lịch khách sạn Hạ Long Quảng Ninh
QN_00003,Cua Vàng,Ẩm thực,nhà hàng,20.9594177,107.0187657,"27 Phố Phan Chu Trinh, Bãi Cháy, Hạ Long, Quảng Ninh, 01119",Hạ Long,Cua Vàng là nhà hàng tại Hạ Long.,Cua Vàng Ẩm thực nhà hàng Hạ Long Quảng Ninh
QN_00004,Thành Liễu,Du lịch,khách sạn,20.943752,107.5481683,"Minh Châu, Vân Đồn, Quảng Ninh",Vân Đồn,Thành Liễu là khách sạn tại Vân Đồn.,Thành Liễu Du lịch khách sạn Vân Đồn Quảng Ninh
QN_00005,Ngân Hà,Du lịch,khách sạn,20.8761933,107.4927834,"Quan Lạn, Vân Đồn, Quảng Ninh",Vân Đồn,Ngân Hà là khách sạn tại Vân Đồn.,Ngân Hà Du lịch khách sạn Vân Đồn Quảng Ninh
QN_00006,Hông Ngoc,Du lịch,khách sạn,21.0600727,107.4290092,"Cái Rồng, Vân Đồn, Quảng Ninh",Vân Đồn,Hông Ngoc là khách sạn tại Vân Đồn.,Hông Ngoc Du lịch khách sạn Vân Đồn Quảng Ninh
QN_00007,Lâm Tâm,Du lịch,khách sạn,21.0612291,107.429433,"Cái Rồng, Vân Đồn, Quảng Ninh",Vân Đồn,Lâm Tâm là khách sạn tại Vân Đồn.,Lâm Tâm Du lịch khách sạn Vân Đồn Quảng Ninh
QN_00008,Khach san Phuong Linh,Du lịch,khách sạn,21.4794725,108.0224398,"Nhà Nghỉ Phương Linh, Đường Tỉnh Lộ 335, Trà Cổ, Móng Cái, Quảng Ninh, 01521",Móng Cái,Khach san Phuong Linh là khách sạn tại Móng Cái.,Khach san Phuong Linh Du lịch khách sạn Móng Cái Quảng Ninh
QN_00009,Kim Hoang Hotel,Du lịch,khách sạn,21.4797173,108.0230319,"Quang Huy In Photocopy, Đường Tỉnh Lộ 335, Trà Cổ, Móng Cái, Quảng Ninh, 01521",Móng Cái,Kim Hoang Hotel là khách sạn tại Móng Cái.,Kim Hoang Hotel Du lịch khách sạn Móng Cái Quảng Ninh
QN_00010,Vịnh Hạ Long,Du lịch,địa điểm du lịch,20.9084384,107.0682782,Gulf of Tonkin,,Vịnh Hạ Long là địa điểm du lịch tại Quảng Ninh.,Vịnh Hạ Long Du lịch địa điểm du lịch  Quảng Ninh
QN_00011,Sao Bien Hotel,Du lịch,khách sạn,21.4809687,108.0272887,"Trà Cổ, Móng Cái, Quảng Ninh",Móng Cái,Sao Bien Hotel là khách sạn tại Móng Cái.,Sao Bien Hotel Du lịch khách sạn Móng Cái Quảng Ninh
QN_00012,Nam Phuong Hotel,Du lịch,khách sạn,21.4811039,108.0252732,"Nhà Nghỉ Nam Phương, Đường Tỉnh Lộ 335, Trà Cổ, Móng Cái, Quảng Ninh, 01521",Móng Cái,Nam Phuong Hotel là khách sạn tại Móng Cái.,Nam Phuong Hotel Du lịch khách sạn Móng Cái Quảng Ninh
QN_00013,Quyet Nhung Hotel,Du lịch,nhà khách/homestay,21.3550957,107.5903691,"Nhà Nghỉ Quyết Nhung, Thị Trấn Đầm Hà, Đầm Hà, Quảng Ninh, 01806",Đầm Hà,Quyet Nhung Hotel là nhà khách/homestay tại Đầm Hà.,Quyet Nhung Hotel Du lịch nhà khách/homestay Đầm Hà Quảng Ninh
QN_00014,Viet Trung Hotel,Du lịch,khách sạn,21.0015977,107.2684128,"Hotel Việt Trung, Cẩm Trung, Cẩm Phả, Quảng Ninh, 01206",Cẩm Phả,Viet Trung Hotel là khách sạn tại Cẩm Phả.,Viet Trung Hotel Du lịch khách sạn Cẩm Phả Quảng Ninh
QN_00015,Nn,Ẩm thực,quán cà phê,21.0937471,106.8732562,"Đường Quốc Lộ 279, Quảng La, Hạ Long, Quảng Ninh, 02117",Hạ Long,Nn là quán cà phê tại Hạ Long.,Nn Ẩm thực quán cà phê Hạ Long Quảng Ninh
QN_00016,Halong Plaza Hotel,Du lịch,khách sạn,20.9602376,107.0608645,"8 Đường Hạ Long, Bãi Cháy, Hạ Long, Quảng Ninh, 01119",Hạ Long,Halong Plaza Hotel là khách sạn tại Hạ Long.,Halong Plaza Hotel Du lịch khách sạn Hạ Long Quảng Ninh
QN_00017,Houng Bien Hotel,Du lịch,khách sạn,20.9237493,106.9891783,"Quán Bình Dân Tuyết Tự, Tuần Châu, Hạ Long, Quảng Ninh, 01125",Hạ Long,Houng Bien Hotel là khách sạn tại Hạ Long.,Houng Bien Hotel Du lịch khách sạn Hạ Long Quảng Ninh
QN_00018,Hang Luồn Cave Entrance,Du lịch,địa điểm du lịch,20.8530914,107.094871,Gulf of Tonkin,,Hang Luồn Cave Entrance là địa điểm du lịch tại Quảng Ninh.,Hang Luồn Cave Entrance Du lịch địa điểm du lịch  Quảng Ninh
QN_00019,Chợ Tiên Yên,Du lịch,chợ truyền thống,21.3310526,107.3986761,"Đường Quốc Lộ 18, Tiên Yên, Quảng Ninh, 01906",Tiên Yên,Chợ Tiên Yên là chợ truyền thống tại Tiên Yên.,Chợ Tiên Yên Du lịch chợ truyền thống Tiên Yên Quảng Ninh
QN_00020,Long Ha Nha Nghi,Du lịch,nhà khách/homestay,20.950549,107.0828851,"Cắt Tóc, 101 Phố Trần Quốc Toản, Bạch Đằng, Hạ Long, Quảng Ninh, 01108",Hạ Long,Long Ha Nha Nghi là nhà khách/homestay tại Hạ Long.,Long Ha Nha Nghi Du lịch nhà khách/homestay Hạ Long Quảng Ninh
QN_00021,Ngoc Ngoan,Du lịch,nhà khách/homestay,21.0685494,107.4210479,"Cái Rồng, Vân Đồn, Quảng Ninh",Vân Đồn,Ngoc Ngoan là nhà khách/homestay tại Vân Đồn.,Ngoc Ngoan Du lịch nhà khách/homestay Vân Đồn Quảng Ninh
QN_00022,Van Nam,Du lịch,khách sạn,20.9575465,107.0502152,"Thế Kỷ Mới Hotel, 27 Đường Vườn Đào-Bãi Cháy, Bãi Cháy, Hạ Long, Quảng Ninh, 01119",Hạ Long,Van Nam là khách sạn tại Hạ Long.,Van Nam Du lịch khách sạn Hạ Long Quảng Ninh
QN_00023,Nhà hàng Minh Sáu,Ẩm thực,nhà hàng,21.4835744,108.0303646,"Nhà Nghỉ Minh Sáu, Đường Tỉnh Lộ 335, Trà Cổ, Móng Cái, Quảng Ninh, 01521",Móng Cái,Nhà hàng Minh Sáu là nhà hàng tại Móng Cái.,Nhà hàng Minh Sáu Ẩm thực nhà hàng Móng Cái Quảng Ninh
QN_00024,Pizza Hut,Ẩm thực,nhà hàng,20.9508721,107.0847837,"Phố Cảng Mới, Bạch Đằng, Hạ Long, Quảng Ninh, 01108",Hạ Long,Pizza Hut là nhà hàng tại Hạ Long.,Pizza Hut Ẩm thực nhà hàng Hạ Long Quảng Ninh
QN_00025,Nhà Hàng Ẩm Thực Đông Nam,Ẩm thực,nhà hàng,20.9591167,107.0486819,"Dịch Vụ Hải Sơn, 1 Đường Hậu Cần, Bãi Cháy, Hạ Long, Quảng Ninh",Hạ Long,Nhà Hàng Ẩm Thực Đông Nam là nhà hàng tại Hạ Long.,Nhà Hàng Ẩm Thực Đông Nam Ẩm thực nhà hàng Hạ Long Quảng Ninh
QN_00026,Khách sạn Thăng Long,Du lịch,khách sạn,21.0343474,106.7876588,"38 Đường Trưng Vương, Trưng Vương, Uông Bí, Quảng Ninh, 02315",Uông Bí,Khách sạn Thăng Long là khách sạn tại Uông Bí.,Khách sạn Thăng Long Du lịch khách sạn Uông Bí Quảng Ninh
QN_00027,Tuan Chau,Ẩm thực,nhà hàng,20.9264304,106.9822836,"Tuần Châu, Hạ Long, Quảng Ninh",Hạ Long,Tuan Chau là nhà hàng tại Hạ Long.,Tuan Chau Ẩm thực nhà hàng Hạ Long Quảng Ninh
QN_00028,Nhà hàng Phương Nam,Ẩm thực,nhà hàng,21.0315923,106.7664666,"Karaoke New Star, Đường Trần Nhân Tông, Yên Thanh, Uông Bí, Quảng Ninh, 02313",Uông Bí,Nhà hàng Phương Nam là nhà hàng tại Uông Bí.,Nhà hàng Phương Nam Ẩm thực nhà hàng Uông Bí Quảng Ninh
QN_00029,Vinpearl Ha Long resort,Du lịch,khách sạn,20.941167,107.0253612,Gulf of Tonkin,,Vinpearl Ha Long resort là khách sạn tại Quảng Ninh.,Vinpearl Ha Long resort Du lịch khách sạn  Quảng Ninh
QN_00030,nhà ngỉ thành luân,Du lịch,nhà nghỉ,21.4542436,107.7435738,"Quảng Chính, Hải Hà, Quảng Ninh",Hải Hà,nhà ngỉ thành luân là nhà nghỉ tại Hải Hà.,nhà ngỉ thành luân Du lịch nhà nghỉ Hải Hà Quảng Ninh
QN_00031,nhà nghỉ thành luân,Du lịch,nhà nghỉ,21.4599193,107.7006066,"Quảng Long, Hải Hà, Quảng Ninh",Hải Hà,nhà nghỉ thành luân là nhà nghỉ tại Hải Hà.,nhà nghỉ thành luân Du lịch nhà nghỉ Hải Hà Quảng Ninh
QN_00032,Le Ahn Hotel,Du lịch,nhà khách/homestay,21.059854,107.428268,"Cái Rồng, Vân Đồn, Quảng Ninh",Vân Đồn,Le Ahn Hotel là nhà khách/homestay tại Vân Đồn.,Le Ahn Hotel Du lịch nhà khách/homestay Vân Đồn Quảng Ninh
QN_00033,Thuy Tuan,Du lịch,nhà khách/homestay,20.8743445,107.4926253,"Ngan Ha Hotel, Quan Lạn, Vân Đồn, Quảng Ninh",Vân Đồn,Thuy Tuan là nhà khách/homestay tại Vân Đồn.,Thuy Tuan Du lịch nhà khách/homestay Vân Đồn Quảng Ninh
QN_00034,Nam Phong,Ẩm thực,quán cà phê,21.5263654,107.9717436,"Trường Cao Đẳng Nghề Mỏ Hồng Cẩm Vinacomin Khoa Ô, Đường Hùng Vương, Hòa Lạc, Móng Cái, Quảng Ninh, 01508",Móng Cái,Nam Phong là quán cà phê tại Móng Cái.,Nam Phong Ẩm thực quán cà phê Móng Cái Quảng Ninh
QN_00035,Ba Hang Bar,Ẩm thực,quán bar,20.9386978,107.0787142,Gulf of Tonkin,,Ba Hang Bar là quán bar tại Quảng Ninh.,Ba Hang Bar Ẩm thực quán bar  Quảng Ninh
QN_00036,Phat dat,Du lịch,nhà nghỉ,20.9831651,106.9157374,"Quán Ăn Sáng Bún Phở Cháo, Quốc Lộ 18, Đại Yên, Hạ Long, Quảng Ninh, 01124",Hạ Long,Phat dat là nhà nghỉ tại Hạ Long.,Phat dat Du lịch nhà nghỉ Hạ Long Quảng Ninh
QN_00037,Bai Tu Long Bay,Du lịch,địa điểm du lịch,20.9260645,107.2552099,Gulf of Tonkin,,Bai Tu Long Bay là địa điểm du lịch tại Quảng Ninh.,Bai Tu Long Bay Du lịch địa điểm du lịch  Quảng Ninh
QN_00038,Cửa Vạn,Du lịch,địa điểm du lịch,20.8072422,107.1179445,Gulf of Tonkin,,Cửa Vạn là địa điểm du lịch tại Quảng Ninh.,Cửa Vạn Du lịch địa điểm du lịch  Quảng Ninh
QN_00039,Hà Nội,Du lịch,nhà khách/homestay,21.4833326,108.029737,"Đường Tỉnh Lộ 335, Trà Cổ, Móng Cái, Quảng Ninh, 01521",Móng Cái,Hà Nội là nhà khách/homestay tại Móng Cái.,Hà Nội Du lịch nhà khách/homestay Móng Cái Quảng Ninh
QN_00040,Long Chuyên - Lẩu,Ẩm thực,nhà hàng,21.4828039,108.0288191,"Nhà Hàng Long Chuyên, Đường Tỉnh Lộ 335, Trà Cổ, Móng Cái, Quảng Ninh, 01521",Móng Cái,Long Chuyên - Lẩu là nhà hàng tại Móng Cái.,Long Chuyên - Lẩu Ẩm thực nhà hàng Móng Cái Quảng Ninh
QN_00041,Hải Yến,Du lịch,nhà khách/homestay,21.4814697,108.0285618,"Trà Cổ, Móng Cái, Quảng Ninh",Móng Cái,Hải Yến là nhà khách/homestay tại Móng Cái.,Hải Yến Du lịch nhà khách/homestay Móng Cái Quảng Ninh
QN_00042,Hoàng Sổ,Du lịch,nhà khách/homestay,21.4820742,108.0273161,"Nhà Nghỉ Hoàng Sổ, Đường Tỉnh Lộ 335, Trà Cổ, Móng Cái, Quảng Ninh, 01521",Móng Cái,Hoàng Sổ là nhà khách/homestay tại Móng Cái.,Hoàng Sổ Du lịch nhà khách/homestay Móng Cái Quảng Ninh
QN_00043,Bánh mỳ tứ hải,Ẩm thực,quán thức ăn nhanh,21.3302415,107.4005162,"Đường Thống Nhất, Tiên Yên, Quảng Ninh, 01906",Tiên Yên,Bánh mỳ tứ hải là quán thức ăn nhanh tại Tiên Yên.,Bánh mỳ tứ hải Ẩm thực quán thức ăn nhanh Tiên Yên Quảng Ninh
QN_00044,Bò Nướng,Ẩm thực,nhà hàng,21.5307886,107.963205,"Phòng Biểu Diễn, Ka Long, Móng Cái, Quảng Ninh",Móng Cái,Bò Nướng là nhà hàng tại Móng Cái.,Bò Nướng Ẩm thực nhà hàng Móng Cái Quảng Ninh
QN_00045,Ming Quan 2,Du lịch,khách sạn,20.8752728,107.4918327,"Quan Lạn, Vân Đồn, Quảng Ninh",Vân Đồn,Ming Quan 2 là khách sạn tại Vân Đồn.,Ming Quan 2 Du lịch khách sạn Vân Đồn Quảng Ninh
QN_00046,Chuyen trang,Du lịch,nhà khách/homestay,20.9449139,107.5509172,"Minh Châu, Vân Đồn, Quảng Ninh",Vân Đồn,Chuyen trang là nhà khách/homestay tại Vân Đồn.,Chuyen trang Du lịch nhà khách/homestay Vân Đồn Quảng Ninh
QN_00047,Hạ long Khách sạn Vẻ đẹp tiềm ẩn,Du lịch,khách sạn,20.9358279,106.9941233,"Hidden Charm Hotel, Tuần Châu, Hạ Long, Quảng Ninh, 01125",Hạ Long,Hạ long Khách sạn Vẻ đẹp tiềm ẩn là khách sạn tại Hạ Long.,Hạ long Khách sạn Vẻ đẹp tiềm ẩn Du lịch khách sạn Hạ Long Quảng Ninh
QN_00048,Quán ăn vặt Ba Sói,Ẩm thực,nhà hàng,20.979008,107.0204262,"Vẽ Móng Kim Anh, Giếng Đáy, Hạ Long, Quảng Ninh, 01121",Hạ Long,Quán ăn vặt Ba Sói là nhà hàng tại Hạ Long.,Quán ăn vặt Ba Sói Ẩm thực nhà hàng Hạ Long Quảng Ninh
QN_00049,bãi biển đá móng rồng,Ẩm thực,quán bar,20.9619775,107.7672816,"Cô Tô, Quảng Ninh",Cô Tô,bãi biển đá móng rồng là quán bar tại Cô Tô.,bãi biển đá móng rồng Ẩm thực quán bar Cô Tô Quảng Ninh
QN_00050,Koc moc,Du lịch,khách sạn,20.9544264,107.0970821,"Phố Hoàng Diệu, Hồng Hải, Hạ Long, Quảng Ninh, 01110",Hạ Long,Koc moc là khách sạn tại Hạ Long.,Koc moc Du lịch khách sạn Hạ Long Quảng Ninh
QN_00051,Nha nghi Hong Loc/300k room,Du lịch,khách sạn,21.0797872,107.3458305,"QL 18, Mông Dương, Cẩm Phả, Quảng Ninh, 01217",Cẩm Phả,Nha nghi Hong Loc/300k room là khách sạn tại Cẩm Phả.,Nha nghi Hong Loc/300k room Du lịch khách sạn Cẩm Phả Quảng Ninh
QN_00052,Thác sông Mooc,Du lịch,địa điểm du lịch,21.5542494,107.5708134,"Đồng Văn, Bình Liêu, Quảng Ninh",Bình Liêu,Thác sông Mooc là địa điểm du lịch tại Bình Liêu.,Thác sông Mooc Du lịch địa điểm du lịch Bình Liêu Quảng Ninh
QN_00053,Bãi lửa trại,Du lịch,địa điểm du lịch,20.9706176,107.7632393,"Cô Tô, Quảng Ninh",Cô Tô,Bãi lửa trại là địa điểm du lịch tại Cô Tô.,Bãi lửa trại Du lịch địa điểm du lịch Cô Tô Quảng Ninh
QN_00054,Hang Tiên Ông,Du lịch,địa điểm du lịch,20.8158943,107.1226439,Gulf of Tonkin,,Hang Tiên Ông là địa điểm du lịch tại Quảng Ninh.,Hang Tiên Ông Du lịch địa điểm du lịch  Quảng Ninh
QN_00055,Gray Line Cruise,Du lịch,khách sạn,20.923381,106.9819013,"Tuần Châu, Hạ Long, Quảng Ninh",Hạ Long,Gray Line Cruise là khách sạn tại Hạ Long.,Gray Line Cruise Du lịch khách sạn Hạ Long Quảng Ninh
QN_00056,Rock House Pizza,Ẩm thực,nhà hàng,20.9506474,107.0757861,"Sữa Chua Cô Nghi, 10 Phố Văn Lang, Hồng Gai, Hạ Long, Quảng Ninh, 01106",Hạ Long,Rock House Pizza là nhà hàng tại Hạ Long.,Rock House Pizza Ẩm thực nhà hàng Hạ Long Quảng Ninh
QN_00057,14 Pizza Halong,Ẩm thực,nhà hàng,20.9540605,107.0236927,"Quán Dung, Bãi Cháy, Hạ Long, Quảng Ninh, 01119",Hạ Long,14 Pizza Halong là nhà hàng tại Hạ Long.,14 Pizza Halong Ẩm thực nhà hàng Hạ Long Quảng Ninh
QN_00058,hòn gà chọi,Du lịch,bảo tàng,20.8974878,107.0317965,Gulf of Tonkin,,hòn gà chọi là bảo tàng tại Quảng Ninh.,hòn gà chọi Du lịch bảo tàng  Quảng Ninh
QN_00059,Khách sạn Hà Gia,Du lịch,khách sạn,20.9397383,107.1225796,"60 Phố Ký Con, Hạ Long, Quảng Ninh, 01113",Hạ Long,Khách sạn Hà Gia là khách sạn tại Hạ Long.,Khách sạn Hà Gia Du lịch khách sạn Hạ Long Quảng Ninh
QN_00060,Nhà nghỉ Hà Gia,Du lịch,nhà nghỉ,20.9418032,107.1170147,"Nha Khoa Thẩm Mỹ Dr.Tài, 87 Đường Nguyễn Thái Học, Hạ Long, Quảng Ninh, 01113",Hạ Long,Nhà nghỉ Hà Gia là nhà nghỉ tại Hạ Long.,Nhà nghỉ Hà Gia Du lịch nhà nghỉ Hạ Long Quảng Ninh
QN_00061,Banana and Rose Homestay,Du lịch,nhà khách/homestay,20.9322076,106.994876,"Tuần Châu, Hạ Long, Quảng Ninh",Hạ Long,Banana and Rose Homestay là nhà khách/homestay tại Hạ Long.,Banana and Rose Homestay Du lịch nhà khách/homestay Hạ Long Quảng Ninh
QN_00062,Bảo tàng Quảng Ninh,Du lịch,bảo tàng,20.9486771,107.0975562,"Đường Trần Quốc Nghiễn, Bạch Đằng, Hạ Long, Quảng Ninh, 01108",Hạ Long,Bảo tàng Quảng Ninh là bảo tàng tại Hạ Long.,Bảo tàng Quảng Ninh Du lịch bảo tàng Hạ Long Quảng Ninh
QN_00063,Mai Ly,Ẩm thực,nhà hàng,20.9445861,107.107249,"Nhà Hàng Maily, Hồng Hải, Hạ Long, Quảng Ninh, 01110",Hạ Long,Mai Ly là nhà hàng tại Hạ Long.,Mai Ly Ẩm thực nhà hàng Hạ Long Quảng Ninh
QN_00064,Ếch ộp quán,Ẩm thực,nhà hàng,20.950791,107.0907315,"Đường Lán Bè, Bạch Đằng, Hạ Long, Quảng Ninh, 01108",Hạ Long,Ếch ộp quán là nhà hàng tại Hạ Long.,Ếch ộp quán Ẩm thực nhà hàng Hạ Long Quảng Ninh
QN_00065,Haihuyen Hotel,Du lịch,khách sạn,21.0599899,107.4279662,"Cái Rồng, Vân Đồn, Quảng Ninh",Vân Đồn,Haihuyen Hotel là khách sạn tại Vân Đồn.,Haihuyen Hotel Du lịch khách sạn Vân Đồn Quảng Ninh
QN_00066,Thien Tan Hotel,Du lịch,khách sạn,20.9819824,107.02139,"Nhà Nghỉ Thiên Tân, Giếng Đáy, Hạ Long, Quảng Ninh, 01121",Hạ Long,Thien Tan Hotel là khách sạn tại Hạ Long.,Thien Tan Hotel Du lịch khách sạn Hạ Long Quảng Ninh
QN_00067,Quán Cà Phê Eleven Coffee,Ẩm thực,quán cà phê,20.9559718,107.004185,"Phòng Tranh Tuấn Kiệt, Hùng Thắng, Hạ Long, Quảng Ninh, 01120",Hạ Long,Quán Cà Phê Eleven Coffee là quán cà phê tại Hạ Long.,Quán Cà Phê Eleven Coffee Ẩm thực quán cà phê Hạ Long Quảng Ninh
QN_00068,Khách sạn Hữu Nghị,Du lịch,khách sạn,21.5223177,107.9654518,"Phố Dân Tiến, Hòa Lạc, Móng Cái, Quảng Ninh, 01506",Móng Cái,Khách sạn Hữu Nghị là khách sạn tại Móng Cái.,Khách sạn Hữu Nghị Du lịch khách sạn Móng Cái Quảng Ninh
QN_00069,Biểu tượng du lịch ngã ba Trà Cổ,Du lịch,địa điểm du lịch,21.4839431,108.0117215,"Đường Tỉnh Lộ 335, Trà Cổ, Móng Cái, Quảng Ninh, 01521",Móng Cái,Biểu tượng du lịch ngã ba Trà Cổ là địa điểm du lịch tại Móng Cái.,Biểu tượng du lịch ngã ba Trà Cổ Du lịch địa điểm du lịch Móng Cái Quảng Ninh
QN_00070,Lilai International Hotel,Du lịch,khách sạn,21.5295169,107.9644837,"Đường Hùng Vương, Ka Long, Móng Cái, Quảng Ninh, 01509",Móng Cái,Lilai International Hotel là khách sạn tại Móng Cái.,Lilai International Hotel Du lịch khách sạn Móng Cái Quảng Ninh
QN_00071,Paris,Du lịch,khách sạn,20.9512683,107.1017358,"Trung Tâm Ngoại Ngữ Dolphin Cơ Sở 2, Hồng Hải, Hạ Long, Quảng Ninh, 01110",Hạ Long,Paris là khách sạn tại Hạ Long.,Paris Du lịch khách sạn Hạ Long Quảng Ninh
QN_00072,Royal Palace Restaurant,Ẩm thực,nhà hàng,21.0100943,107.2695275,"402 Đường Trần Phú, Cẩm Trung, Cẩm Phả, Quảng Ninh, 01206",Cẩm Phả,Royal Palace Restaurant là nhà hàng tại Cẩm Phả.,Royal Palace Restaurant Ẩm thực nhà hàng Cẩm Phả Quảng Ninh
QN_00073,My Way,Ẩm thực,quán cà phê,20.9483639,107.0969504,"Đường Trần Quốc Nghiễn, Bạch Đằng, Hạ Long, Quảng Ninh, 01108",Hạ Long,My Way là quán cà phê tại Hạ Long.,My Way Ẩm thực quán cà phê Hạ Long Quảng Ninh
QN_00074,Sơn Đoòng,Ẩm thực,nhà hàng,20.9498123,107.0989953,"A7-16 Phố Hải Long, Bạch Đằng, Hạ Long, Quảng Ninh, 01108",Hạ Long,Sơn Đoòng là nhà hàng tại Hạ Long.,Sơn Đoòng Ẩm thực nhà hàng Hạ Long Quảng Ninh
QN_00075,Bella Hotel,Du lịch,khách sạn,20.9496395,107.0967999,"A1-22 Đường Trần Quốc Nghiễn, Bạch Đằng, Hạ Long, Quảng Ninh, 01108",Hạ Long,Bella Hotel là khách sạn tại Hạ Long.,Bella Hotel Du lịch khách sạn Hạ Long Quảng Ninh
QN_00076,Sunland Coffee,Ẩm thực,quán cà phê,20.9517336,107.0745791,"Sân Tennis, Đường Hai Mươi Lăm Tháng Tư, Hồng Gai, Hạ Long, Quảng Ninh, 01106",Hạ Long,Sunland Coffee là quán cà phê tại Hạ Long.,Sunland Coffee Ẩm thực quán cà phê Hạ Long Quảng Ninh
QN_00077,The Bay,Ẩm thực,nhà hàng,20.941514,107.1211946,"Trạm Rửa Xe Chất Lượng Cao Xuân Tuy, Đường Nguyễn Văn Cừ, Hạ Long, Quảng Ninh, 01113",Hạ Long,The Bay là nhà hàng tại Hạ Long.,The Bay Ẩm thực nhà hàng Hạ Long Quảng Ninh
QN_00078,Royal Ha Long,Du lịch,khách sạn,20.9509646,107.0359084,"Royal Ha Long Hotel, Bãi Cháy, Hạ Long, Quảng Ninh, 01119",Hạ Long,Royal Ha Long là khách sạn tại Hạ Long.,Royal Ha Long Du lịch khách sạn Hạ Long Quảng Ninh
QN_00079,Khách sạn Vân Long,Du lịch,khách sạn,21.0090515,107.2605608,"Ngách 12/386 Lê Thanh Nghị, Cẩm Thủy, Cẩm Phả, Quảng Ninh",Cẩm Phả,Khách sạn Vân Long là khách sạn tại Cẩm Phả.,Khách sạn Vân Long Du lịch khách sạn Cẩm Phả Quảng Ninh
QN_00080,Nhà hàng Thủy Chung,Ẩm thực,quán thức ăn nhanh,20.9541554,107.024291,"Nhà Hàng Thủy Chung, Đường Hạ Long, Bãi Cháy, Hạ Long, Quảng Ninh, 01119",Hạ Long,Nhà hàng Thủy Chung là quán thức ăn nhanh tại Hạ Long.,Nhà hàng Thủy Chung Ẩm thực quán thức ăn nhanh Hạ Long Quảng Ninh
QN_00081,Chợ Độc Lập,Du lịch,chợ truyền thống,21.0087034,107.3022625,"Chợ Độc Lập, Đường Độc Lập, Cẩm Sơn, Cẩm Phả, Quảng Ninh, 01211",Cẩm Phả,Chợ Độc Lập là chợ truyền thống tại Cẩm Phả.,Chợ Độc Lập Du lịch chợ truyền thống Cẩm Phả Quảng Ninh
QN_00082,Binh ha,Du lịch,khách sạn,21.532829,107.9598615,"Nhà Nghỉ Bình Hà, 123 Đường Nguyễn Bỉnh Khiêm, Ka Long, Móng Cái, Quảng Ninh, 01509",Móng Cái,Binh ha là khách sạn tại Móng Cái.,Binh ha Du lịch khách sạn Móng Cái Quảng Ninh
QN_00083,Hoa,Du lịch,nhà nghỉ,21.5320429,107.9676504,"Hòa Bình Motel, Trần Phú, Móng Cái, Quảng Ninh, 01508",Móng Cái,Hoa là nhà nghỉ tại Móng Cái.,Hoa Du lịch nhà nghỉ Móng Cái Quảng Ninh
QN_00084,NHÀ,Du lịch,nhà khách/homestay,20.9411531,107.5473016,"Minh Châu, Vân Đồn, Quảng Ninh",Vân Đồn,NHÀ là nhà khách/homestay tại Vân Đồn.,NHÀ Du lịch nhà khách/homestay Vân Đồn Quảng Ninh
QN_00085,Karaoke Q7,Ẩm thực,quán bar,20.9188183,106.9884804,"Tuần Châu, Hạ Long, Quảng Ninh",Hạ Long,Karaoke Q7 là quán bar tại Hạ Long.,Karaoke Q7 Ẩm thực quán bar Hạ Long Quảng Ninh
QN_00086,Zone 9 Karaoke,Ẩm thực,quán bar,20.9182481,106.9889713,"Tuần Châu, Hạ Long, Quảng Ninh",Hạ Long,Zone 9 Karaoke là quán bar tại Hạ Long.,Zone 9 Karaoke Ẩm thực quán bar Hạ Long Quảng Ninh
QN_00087,Paradise Trend Hotel,Du lịch,khách sạn,20.9199611,106.9891211,"Tuần Châu, Hạ Long, Quảng Ninh",Hạ Long,Paradise Trend Hotel là khách sạn tại Hạ Long.,Paradise Trend Hotel Du lịch khách sạn Hạ Long Quảng Ninh
QN_00088,Phuong Dong Oriental Motel,Du lịch,nhà nghỉ,20.9190318,106.9891168,"Tuần Châu, Hạ Long, Quảng Ninh",Hạ Long,Phuong Dong Oriental Motel là nhà nghỉ tại Hạ Long.,Phuong Dong Oriental Motel Du lịch nhà nghỉ Hạ Long Quảng Ninh
QN_00089,Paradise Comfort Hotel,Du lịch,khách sạn,20.9191513,106.9891214,"Tuần Châu, Hạ Long, Quảng Ninh",Hạ Long,Paradise Comfort Hotel là khách sạn tại Hạ Long.,Paradise Comfort Hotel Du lịch khách sạn Hạ Long Quảng Ninh
QN_00090,Queen Motel,Du lịch,nhà nghỉ,20.919315,106.9891266,"Tuần Châu, Hạ Long, Quảng Ninh",Hạ Long,Queen Motel là nhà nghỉ tại Hạ Long.,Queen Motel Du lịch nhà nghỉ Hạ Long Quảng Ninh
QN_00091,Lotus Tea & Coffee,Ẩm thực,quán cà phê,20.9480996,107.0726609,"Đại Lý Chăn Ga Gối Đệm Hanvico, Hồng Gai, Hạ Long, Quảng Ninh, 01106",Hạ Long,Lotus Tea & Coffee là quán cà phê tại Hạ Long.,Lotus Tea & Coffee Ẩm thực quán cà phê Hạ Long Quảng Ninh
QN_00092,deja vu house,Du lịch,nhà khách/homestay,20.9474409,107.0737307,"9 Phố Bến Đoan 1, Hồng Gai, Hạ Long, Quảng Ninh, 01106",Hạ Long,deja vu house là nhà khách/homestay tại Hạ Long.,deja vu house Du lịch nhà khách/homestay Hạ Long Quảng Ninh
QN_00093,Côtô Ecolodge,Du lịch,nhà khách/homestay,20.9977867,107.7707867,"Đồng Tiến, Cô Tô, Quảng Ninh",Cô Tô,Côtô Ecolodge là nhà khách/homestay tại Cô Tô.,Côtô Ecolodge Du lịch nhà khách/homestay Cô Tô Quảng Ninh
QN_00094,Paradise Suites,Du lịch,khách sạn,20.9204482,106.9891303,"Tuần Châu, Hạ Long, Quảng Ninh",Hạ Long,Paradise Suites là khách sạn tại Hạ Long.,Paradise Suites Du lịch khách sạn Hạ Long Quảng Ninh
QN_00095,Lea House,Du lịch,nhà khách/homestay,20.9476547,107.0739344,"13 Phố Bến Đoan 1, Hồng Gai, Hạ Long, Quảng Ninh, 01106",Hạ Long,Lea House là nhà khách/homestay tại Hạ Long.,Lea House Du lịch nhà khách/homestay Hạ Long Quảng Ninh
QN_00096,Chung nhan,Ẩm thực,nhà hàng,21.086549,106.5037037,"QL 18, Hồng Phong, Đông Triều, Quảng Ninh, 02425",Đông Triều,Chung nhan là nhà hàng tại Đông Triều.,Chung nhan Ẩm thực nhà hàng Đông Triều Quảng Ninh
QN_00097,Cường Thịnh - Homestay,Du lịch,nhà khách/homestay,20.9890531,107.7536031,"Đồng Tiến, Cô Tô, Quảng Ninh",Cô Tô,Cường Thịnh - Homestay là nhà khách/homestay tại Cô Tô.,Cường Thịnh - Homestay Du lịch nhà khách/homestay Cô Tô Quảng Ninh
QN_00098,Gold Mark,Du lịch,khách sạn,20.9688472,107.0195441,"Vật Tư Điện Lạnh Tuấn Nam, Đường Hạ Long, Bãi Cháy, Hạ Long, Quảng Ninh",Hạ Long,Gold Mark là khách sạn tại Hạ Long.,Gold Mark Du lịch khách sạn Hạ Long Quảng Ninh
QN_00099,Morning Star Hotel,Du lịch,khách sạn,20.9315798,106.9935022,"Tuần Châu, Hạ Long, Quảng Ninh",Hạ Long,Morning Star Hotel là khách sạn tại Hạ Long.,Morning Star Hotel Du lịch khách sạn Hạ Long Quảng Ninh
QN_00100,Pearl Coffee,Ẩm thực,quán cà phê,20.953823,106.9719226,"Quốc Lộ 18, Hà Khẩu, Hạ Long, Quảng Ninh, 01122",Hạ Long,Pearl Coffee là quán cà phê tại Hạ Long.,Pearl Coffee Ẩm thực quán cà phê Hạ Long Quảng Ninh
QN_00101,Hùng vùòng,Du lịch,khách sạn,20.9525465,107.0803343,"Nhà Văn Hóa Khu Phố II, Phố Ba Đèo, Bạch Đằng, Hạ Long, Quảng Ninh, 01108",Hạ Long,Hùng vùòng là khách sạn tại Hạ Long.,Hùng vùòng Du lịch khách sạn Hạ Long Quảng Ninh
QN_00102,Muse home,Du lịch,khách sạn,20.8654287,107.4925667,"Quan Lạn, Vân Đồn, Quảng Ninh",Vân Đồn,Muse home là khách sạn tại Vân Đồn.,Muse home Du lịch khách sạn Vân Đồn Quảng Ninh
QN_00103,Đá Đen,Ẩm thực,nhà hàng,21.4375336,107.9774757,"Quán 3Đ Đấu Đá Đen, Bình Ngọc, Móng Cái, Quảng Ninh, 01520",Móng Cái,Đá Đen là nhà hàng tại Móng Cái.,Đá Đen Ẩm thực nhà hàng Móng Cái Quảng Ninh
QN_00104,Tiệm Rau Má MAXH,Ẩm thực,quán cà phê,21.0098743,107.2712711,"Cafe Quỳnh, 398C Đường Trần Phú, Cẩm Trung, Cẩm Phả, Quảng Ninh, 01206",Cẩm Phả,Tiệm Rau Má MAXH là quán cà phê tại Cẩm Phả.,Tiệm Rau Má MAXH Ẩm thực quán cà phê Cẩm Phả Quảng Ninh
QN_00105,Bài thơ Hotel,Du lịch,khách sạn,20.9472591,107.0334949,"Đường Hạ Long, Bãi Cháy, Hạ Long, Quảng Ninh, 01119",Hạ Long,Bài thơ Hotel là khách sạn tại Hạ Long.,Bài thơ Hotel Du lịch khách sạn Hạ Long Quảng Ninh
QN_00106,"Quán cháo lòng, Bia hơi Hạ Long",Ẩm thực,nhà hàng,20.9528306,106.8035072,"Hiệp Hòa, Yên Hưng, Quảng Ninh",Yên Hưng,"Quán cháo lòng, Bia hơi Hạ Long là nhà hàng tại Yên Hưng.","Quán cháo lòng, Bia hơi Hạ Long Ẩm thực nhà hàng Yên Hưng Quảng Ninh"
QN_00107,Chợ Hải Tiến,Du lịch,chợ truyền thống,21.5379732,107.8597918,"Đường Quốc Lộ 18, Hải Đông, Móng Cái, Quảng Ninh, 01516",Móng Cái,Chợ Hải Tiến là chợ truyền thống tại Móng Cái.,Chợ Hải Tiến Du lịch chợ truyền thống Móng Cái Quảng Ninh
QN_00108,Chợ Hải Đông,Du lịch,chợ truyền thống,21.5403633,107.8870967,"Đường Quốc Lộ 18, Hải Đông, Móng Cái, Quảng Ninh, 01516",Móng Cái,Chợ Hải Đông là chợ truyền thống tại Móng Cái.,Chợ Hải Đông Du lịch chợ truyền thống Móng Cái Quảng Ninh
QN_00109,Vincom,Du lịch,trung tâm thương mại,21.5352412,107.9723239,"Phố Thương Mại, Trần Phú, Móng Cái, Quảng Ninh, 01508",Móng Cái,Vincom là trung tâm thương mại tại Móng Cái.,Vincom Du lịch trung tâm thương mại Móng Cái Quảng Ninh
QN_00110,Chợ số 4,Du lịch,chợ truyền thống,21.5358051,107.9765001,"Phố Trần Phú, Hải Hòa, Móng Cái, Quảng Ninh, 01507",Móng Cái,Chợ số 4 là chợ truyền thống tại Móng Cái.,Chợ số 4 Du lịch chợ truyền thống Móng Cái Quảng Ninh
QN_00111,Nam Trung,Ẩm thực,nhà hàng,21.5300241,107.9734531,"Phố Vườn Trầu, Trần Phú, Móng Cái, Quảng Ninh, 01508",Móng Cái,Nam Trung là nhà hàng tại Móng Cái.,Nam Trung Ẩm thực nhà hàng Móng Cái Quảng Ninh
QN_00112,PHOENIX,Du lịch,khách sạn,20.9429684,107.546777,"Minh Châu, Vân Đồn, Quảng Ninh",Vân Đồn,PHOENIX là khách sạn tại Vân Đồn.,PHOENIX Du lịch khách sạn Vân Đồn Quảng Ninh
QN_00113,Bảo Tàng Chùa Ba Vàng,Du lịch,bảo tàng,21.068814,106.7637809,"Thanh Sơn, Uông Bí, Quảng Ninh",Uông Bí,Bảo Tàng Chùa Ba Vàng là bảo tàng tại Uông Bí.,Bảo Tàng Chùa Ba Vàng Du lịch bảo tàng Uông Bí Quảng Ninh
QN_00114,Legend Pearl Café,Ẩm thực,quán cà phê,20.9574701,106.9513733,"Quốc Lộ 18, Đại Yên, Hạ Long, Quảng Ninh, 01124",Hạ Long,Legend Pearl Café là quán cà phê tại Hạ Long.,Legend Pearl Café Ẩm thực quán cà phê Hạ Long Quảng Ninh
QN_00115,Hang 86,Ẩm thực,nhà hàng,20.9559867,107.0523857,"Ẩm Thực Quảng Ninh Đức Cường, B128-B129 Đường Hạ Long, Bãi Cháy, Hạ Long, Quảng Ninh, 01119",Hạ Long,Hang 86 là nhà hàng tại Hạ Long.,Hang 86 Ẩm thực nhà hàng Hạ Long Quảng Ninh
QN_00116,Cộng Cà Phê,Ẩm thực,quán cà phê,20.9534707,107.045909,"Legend Coffee, Đường Hạ Long, Bãi Cháy, Hạ Long, Quảng Ninh, 01119",Hạ Long,Cộng Cà Phê là quán cà phê tại Hạ Long.,Cộng Cà Phê Ẩm thực quán cà phê Hạ Long Quảng Ninh
QN_00117,Central Luxury Hotel,Du lịch,khách sạn,20.9594176,106.9965675,"Đường Hoàng Quốc Việt, Hùng Thắng, Hạ Long, Quảng Ninh, 01120",Hạ Long,Central Luxury Hotel là khách sạn tại Hạ Long.,Central Luxury Hotel Du lịch khách sạn Hạ Long Quảng Ninh
QN_00118,Làng đàn nông cụ Hưng Học,Du lịch,địa điểm du lịch,20.913862,106.7961765,"Nam Hòa, Yên Hưng, Quảng Ninh",Yên Hưng,Làng đàn nông cụ Hưng Học là địa điểm du lịch tại Yên Hưng.,Làng đàn nông cụ Hưng Học Du lịch địa điểm du lịch Yên Hưng Quảng Ninh
QN_00119,Hòn Đỉnh Hương,Du lịch,địa điểm du lịch,20.9004906,107.0159614,Gulf of Tonkin,,Hòn Đỉnh Hương là địa điểm du lịch tại Quảng Ninh.,Hòn Đỉnh Hương Du lịch địa điểm du lịch  Quảng Ninh
QN_00120,MINALO Hotel,Du lịch,khách sạn,20.9570226,107.0485979,"Cầm Đồ Dũng Thống Nhất, Đường Hạ Long, Bãi Cháy, Hạ Long, Quảng Ninh, 01119",Hạ Long,MINALO Hotel là khách sạn tại Hạ Long.,MINALO Hotel Du lịch khách sạn Hạ Long Quảng Ninh
QN_00121,Nhà Hàng Phương Nam 2,Ẩm thực,nhà hàng,20.9463151,107.032774,"Đường Hạ Long, Bãi Cháy, Hạ Long, Quảng Ninh, 01119",Hạ Long,Nhà Hàng Phương Nam 2 là nhà hàng tại Hạ Long.,Nhà Hàng Phương Nam 2 Ẩm thực nhà hàng Hạ Long Quảng Ninh
QN_00122,COFFEE CẨM LINH,Ẩm thực,quán cà phê,21.0352235,106.7666512,"Thanh Sơn, Uông Bí, Quảng Ninh",Uông Bí,COFFEE CẨM LINH là quán cà phê tại Uông Bí.,COFFEE CẨM LINH Ẩm thực quán cà phê Uông Bí Quảng Ninh
QN_00123,NHÀ HÀNG ĐỨC DUONG,Ẩm thực,nhà hàng,21.0351001,106.766528,"Thanh Sơn, Uông Bí, Quảng Ninh",Uông Bí,NHÀ HÀNG ĐỨC DUONG là nhà hàng tại Uông Bí.,NHÀ HÀNG ĐỨC DUONG Ẩm thực nhà hàng Uông Bí Quảng Ninh
QN_00124,THÔNG XANH Glamping,Ẩm thực,nhà hàng,21.0574511,106.8542668,"Bằng Cả, Hạ Long, Quảng Ninh",Hạ Long,THÔNG XANH Glamping là nhà hàng tại Hạ Long.,THÔNG XANH Glamping Ẩm thực nhà hàng Hạ Long Quảng Ninh
QN_00125,Laguna Coffee,Ẩm thực,quán cà phê,20.9233927,106.9821494,"Tuần Châu, Hạ Long, Quảng Ninh",Hạ Long,Laguna Coffee là quán cà phê tại Hạ Long.,Laguna Coffee Ẩm thực quán cà phê Hạ Long Quảng Ninh
QN_00126,Pearl Hotel,Du lịch,khách sạn,20.9232924,106.9822487,"Tuần Châu, Hạ Long, Quảng Ninh",Hạ Long,Pearl Hotel là khách sạn tại Hạ Long.,Pearl Hotel Du lịch khách sạn Hạ Long Quảng Ninh
QN_00127,Charmhill Hotel,Du lịch,khách sạn,20.9180687,106.9866072,"Tuần Châu, Hạ Long, Quảng Ninh",Hạ Long,Charmhill Hotel là khách sạn tại Hạ Long.,Charmhill Hotel Du lịch khách sạn Hạ Long Quảng Ninh
QN_00128,Sua Chua Tran Chau Ha Long,Ẩm thực,quán cà phê,20.9560235,107.0527579,"B135 Đường Hạ Long, Bãi Cháy, Hạ Long, Quảng Ninh",Hạ Long,Sua Chua Tran Chau Ha Long là quán cà phê tại Hạ Long.,Sua Chua Tran Chau Ha Long Ẩm thực quán cà phê Hạ Long Quảng Ninh
QN_00129,An Villa,Du lịch,khách sạn,20.9651054,107.0546774,"QL 18, Bãi Cháy, Hạ Long, Quảng Ninh, 01119",Hạ Long,An Villa là khách sạn tại Hạ Long.,An Villa Du lịch khách sạn Hạ Long Quảng Ninh
QN_00130,Highlands Coffee,Ẩm thực,quán cà phê,20.9565985,107.0494617,"Muong Thanh Quang Ninh Hotel, Đường Hạ Long, Bãi Cháy, Hạ Long, Quảng Ninh, 01119",Hạ Long,Highlands Coffee là quán cà phê tại Hạ Long.,Highlands Coffee Ẩm thực quán cà phê Hạ Long Quảng Ninh
QN_00131,Prosperity,Du lịch,khách sạn,20.9563045,107.0537776,"Nhà Hàng Cổ Ngư, Đường Hạ Long, Bãi Cháy, Hạ Long, Quảng Ninh",Hạ Long,Prosperity là khách sạn tại Hạ Long.,Prosperity Du lịch khách sạn Hạ Long Quảng Ninh
QN_00132,Pamela,Ẩm thực,quán cà phê,20.956273,107.0539153,"Nhà Hàng Cổ Ngư, Đường Hạ Long, Bãi Cháy, Hạ Long, Quảng Ninh",Hạ Long,Pamela là quán cà phê tại Hạ Long.,Pamela Ẩm thực quán cà phê Hạ Long Quảng Ninh
QN_00133,Jayden,Du lịch,khách sạn,20.9562715,107.0542037,"Nhà Hàng 3vins, 68 Đường Hạ Long, Bãi Cháy, Hạ Long, Quảng Ninh, 01119",Hạ Long,Jayden là khách sạn tại Hạ Long.,Jayden Du lịch khách sạn Hạ Long Quảng Ninh
QN_00134,Dau Co Viet,Ẩm thực,nhà hàng,20.95643,107.0549514,"Cafe Xưa Và Nay, Đường Hạ Long, Bãi Cháy, Hạ Long, Quảng Ninh, 01119",Hạ Long,Dau Co Viet là nhà hàng tại Hạ Long.,Dau Co Viet Ẩm thực nhà hàng Hạ Long Quảng Ninh
QN_00135,Trung Nguyên Coffee,Ẩm thực,quán cà phê,20.9565469,107.0556066,"Quán Lá, Đường Hạ Long, Bãi Cháy, Hạ Long, Quảng Ninh, 01119",Hạ Long,Trung Nguyên Coffee là quán cà phê tại Hạ Long.,Trung Nguyên Coffee Ẩm thực quán cà phê Hạ Long Quảng Ninh
QN_00136,Pasan,Du lịch,khách sạn,20.9566124,107.0559993,"Nhà Hàng Hồng Hạnh 3, 50 Đường Hạ Long, Bãi Cháy, Hạ Long, Quảng Ninh, 01119",Hạ Long,Pasan là khách sạn tại Hạ Long.,Pasan Du lịch khách sạn Hạ Long Quảng Ninh
QN_00137,Wyndham Garden,Du lịch,khách sạn,20.9566836,107.0563926,"Nhà Hàng Nỗi Nhớ 8-Restaurant Thiên Đường Xanh-Green Paradise-Bar Café Dancing, Đường Hạ Long, Bãi Cháy, Hạ Long, Quảng Ninh",Hạ Long,Wyndham Garden là khách sạn tại Hạ Long.,Wyndham Garden Du lịch khách sạn Hạ Long Quảng Ninh
QN_00138,Vincent,Du lịch,khách sạn,20.956609,107.0561224,"Nhà Hàng Nỗi Nhớ 8-Restaurant Thiên Đường Xanh-Green Paradise-Bar Café Dancing, Đường Hạ Long, Bãi Cháy, Hạ Long, Quảng Ninh",Hạ Long,Vincent là khách sạn tại Hạ Long.,Vincent Du lịch khách sạn Hạ Long Quảng Ninh
QN_00139,Soleil Wyndham,Du lịch,khách sạn,20.9566216,107.0510064,"Pelican Ha Long Hotel, 32 Đường Hạ Long, Bãi Cháy, Hạ Long, Quảng Ninh, 01119",Hạ Long,Soleil Wyndham là khách sạn tại Hạ Long.,Soleil Wyndham Du lịch khách sạn Hạ Long Quảng Ninh
QN_00140,Entertainment Sport Live,Ẩm thực,quán bar,20.9535493,107.0464927,"A150 Đường Hạ Long, Bãi Cháy, Hạ Long, Quảng Ninh, 01119",Hạ Long,Entertainment Sport Live là quán bar tại Hạ Long.,Entertainment Sport Live Ẩm thực quán bar Hạ Long Quảng Ninh
QN_00141,Wyndham Garden Sonasea Vân Đồn,Du lịch,khách sạn,21.1042914,107.4821772,Vịnh Bắc Bộ,,Wyndham Garden Sonasea Vân Đồn là khách sạn tại Quảng Ninh.,Wyndham Garden Sonasea Vân Đồn Du lịch khách sạn  Quảng Ninh
QN_00142,Chala De Villa,Du lịch,khách sạn,20.9452969,107.0290404,"Bãi Cháy, Hạ Long, Quảng Ninh",Hạ Long,Chala De Villa là khách sạn tại Hạ Long.,Chala De Villa Du lịch khách sạn Hạ Long Quảng Ninh
QN_00143,Sung Sot grotto pit stop,Ẩm thực,quán cà phê,20.8439547,107.0905013,Gulf of Tonkin,,Sung Sot grotto pit stop là quán cà phê tại Quảng Ninh.,Sung Sot grotto pit stop Ẩm thực quán cà phê  Quảng Ninh
QN_00144,Bun ca,Ẩm thực,nhà hàng,21.0063962,106.8579042,"Câu Lạc Bộ Vui Chơi Giải Trí Bida, Minh Thành, Yên Hưng, Quảng Ninh, 02211",Yên Hưng,Bun ca là nhà hàng tại Yên Hưng.,Bun ca Ẩm thực nhà hàng Yên Hưng Quảng Ninh
QN_00145,Nhà hàng Hồng Hạnh 3,Ẩm thực,nhà hàng,20.9566676,107.0558474,"Nhà Hàng Hồng Hạnh 3, 50 Đường Hạ Long, Bãi Cháy, Hạ Long, Quảng Ninh, 01119",Hạ Long,Nhà hàng Hồng Hạnh 3 là nhà hàng tại Hạ Long.,Nhà hàng Hồng Hạnh 3 Ẩm thực nhà hàng Hạ Long Quảng Ninh
QN_00146,Nhà hàng Ngọc Phương Nam 1,Ẩm thực,nhà hàng,20.9480089,107.0233623,"Bãi Cháy, Hạ Long, Quảng Ninh",Hạ Long,Nhà hàng Ngọc Phương Nam 1 là nhà hàng tại Hạ Long.,Nhà hàng Ngọc Phương Nam 1 Ẩm thực nhà hàng Hạ Long Quảng Ninh
QN_00147,Vựa Hải Sản Bãi Cháy,Ẩm thực,nhà hàng,20.959352,106.9972512,"Đường Hoàng Quốc Việt, Hùng Thắng, Hạ Long, Quảng Ninh, 01120",Hạ Long,Vựa Hải Sản Bãi Cháy là nhà hàng tại Hạ Long.,Vựa Hải Sản Bãi Cháy Ẩm thực nhà hàng Hạ Long Quảng Ninh
QN_00148,Nhà hàng Buffet Sen Á Đông,Ẩm thực,nhà hàng,20.960357,107.0627539,"2 Đường Hạ Long, Bãi Cháy, Hạ Long, Quảng Ninh, 01119",Hạ Long,Nhà hàng Buffet Sen Á Đông là nhà hàng tại Hạ Long.,Nhà hàng Buffet Sen Á Đông Ẩm thực nhà hàng Hạ Long Quảng Ninh
QN_00149,Nhà hàng Biển 14,Ẩm thực,nhà hàng,20.9568198,107.0569458,"Cửa Hàng Tiện Lợi Sunrise Minimart, Đường Hạ Long, Bãi Cháy, Hạ Long, Quảng Ninh, 01119",Hạ Long,Nhà hàng Biển 14 là nhà hàng tại Hạ Long.,Nhà hàng Biển 14 Ẩm thực nhà hàng Hạ Long Quảng Ninh
QN_00150,Nhà hàng Đảo Dừa,Ẩm thực,nhà hàng,20.9473404,107.0557211,"Bãi Cháy, Hạ Long, Quảng Ninh",Hạ Long,Nhà hàng Đảo Dừa là nhà hàng tại Hạ Long.,Nhà hàng Đảo Dừa Ẩm thực nhà hàng Hạ Long Quảng Ninh
QN_00151,Ga Hải Sản,Ẩm thực,nhà hàng,20.9536004,107.0562492,"Bãi Cháy, Hạ Long, Quảng Ninh",Hạ Long,Ga Hải Sản là nhà hàng tại Hạ Long.,Ga Hải Sản Ẩm thực nhà hàng Hạ Long Quảng Ninh
QN_00152,Bia Tâm Hưng 2,Ẩm thực,nhà hàng,20.9560183,107.0675253,"Đường Lê Thánh Tông, Hồng Gai, Hạ Long, Quảng Ninh, 01106",Hạ Long,Bia Tâm Hưng 2 là nhà hàng tại Hạ Long.,Bia Tâm Hưng 2 Ẩm thực nhà hàng Hạ Long Quảng Ninh
QN_00153,BamBoo,Ẩm thực,quán cà phê,20.9380472,106.7973495,"Đường Lê Hoàn, Quảng Yên, Yên Hưng, Quảng Ninh, 02206",Yên Hưng,BamBoo là quán cà phê tại Yên Hưng.,BamBoo Ẩm thực quán cà phê Yên Hưng Quảng Ninh
QN_00154,Nhà hàng Hoài Thu,Ẩm thực,nhà hàng,20.9593724,107.0521463,"Shop Việt Trung, 95 Phố Anh Đào, Bãi Cháy, Hạ Long, Quảng Ninh, 01119",Hạ Long,Nhà hàng Hoài Thu là nhà hàng tại Hạ Long.,Nhà hàng Hoài Thu Ẩm thực nhà hàng Hạ Long Quảng Ninh
QN_00155,Sữa chua trân châu Hạ Long cơ sở 00,Ẩm thực,quán cà phê,20.950604,107.0419224,"Đường Hạ Long, Bãi Cháy, Hạ Long, Quảng Ninh",Hạ Long,Sữa chua trân châu Hạ Long cơ sở 00 là quán cà phê tại Hạ Long.,Sữa chua trân châu Hạ Long cơ sở 00 Ẩm thực quán cà phê Hạ Long Quảng Ninh
QN_00156,An Phát,Ẩm thực,nhà hàng,20.9731454,107.0125564,"Đường Số 279, Giếng Đáy, Hạ Long, Quảng Ninh, 01121",Hạ Long,An Phát là nhà hàng tại Hạ Long.,An Phát Ẩm thực nhà hàng Hạ Long Quảng Ninh
QN_00157,Muzili Coffee,Ẩm thực,quán cà phê,21.5298473,107.971145,"Đường Đào Phúc Lộc, Trần Phú, Móng Cái, Quảng Ninh, 01508",Móng Cái,Muzili Coffee là quán cà phê tại Móng Cái.,Muzili Coffee Ẩm thực quán cà phê Móng Cái Quảng Ninh
QN_00158,Café 16A,Ẩm thực,quán cà phê,20.9574189,107.0510431,"Mini Mart, 22A Phố Anh Đào, Bãi Cháy, Hạ Long, Quảng Ninh, 01119",Hạ Long,Café 16A là quán cà phê tại Hạ Long.,Café 16A Ẩm thực quán cà phê Hạ Long Quảng Ninh
QN_00159,Highlands Coffee,Ẩm thực,quán cà phê,20.9547543,107.0852853,"Bakery Ngọc Lan, 23 Phố Trần Hưng Đạo, Trần Hưng Đạo, Hạ Long, Quảng Ninh, 01107",Hạ Long,Highlands Coffee là quán cà phê tại Hạ Long.,Highlands Coffee Ẩm thực quán cà phê Hạ Long Quảng Ninh
QN_00160,High long mountain,Du lịch,địa điểm du lịch,20.9988608,107.2450666,"Quang Hanh, Cẩm Phả, Quảng Ninh",Cẩm Phả,High long mountain là địa điểm du lịch tại Cẩm Phả.,High long mountain Du lịch địa điểm du lịch Cẩm Phả Quảng Ninh
QN_00161,High long mountain,Du lịch,địa điểm du lịch,21.000345,107.2480449,"Cẩm Thạch, Cẩm Phả, Quảng Ninh",Cẩm Phả,High long mountain là địa điểm du lịch tại Cẩm Phả.,High long mountain Du lịch địa điểm du lịch Cẩm Phả Quảng Ninh
QN_00162,Dược Điến Chay Quán,Ẩm thực,nhà hàng,20.9541886,107.0850687,"Cơm Niêu Trà Việt, Trần Hưng Đạo, Hạ Long, Quảng Ninh, 01107",Hạ Long,Dược Điến Chay Quán là nhà hàng tại Hạ Long.,Dược Điến Chay Quán Ẩm thực nhà hàng Hạ Long Quảng Ninh
QN_00163,An Nhiên,Ẩm thực,nhà hàng,20.941223,107.1177582,"120 Đường Nguyễn Văn Cừ, Hạ Long, Quảng Ninh",Hạ Long,An Nhiên là nhà hàng tại Hạ Long.,An Nhiên Ẩm thực nhà hàng Hạ Long Quảng Ninh
QN_00164,Hối,Ẩm thực,nhà hàng,20.9438558,107.1050077,"Nhà Hàng Thịt Nướng Bình Mắm Móng Cái 2, Đường Trần Quốc Nghiễn, Hồng Hải, Hạ Long, Quảng Ninh, 01110",Hạ Long,Hối là nhà hàng tại Hạ Long.,Hối Ẩm thực nhà hàng Hạ Long Quảng Ninh
QN_00165,Nắng Coffee,Ẩm thực,quán cà phê,20.9833928,107.2425278,Gulf of Tonkin,,Nắng Coffee là quán cà phê tại Quảng Ninh.,Nắng Coffee Ẩm thực quán cà phê  Quảng Ninh
QN_00166,Nhà Hàng Ngọc Trường,Ẩm thực,quán cà phê,20.9830991,107.2425002,Gulf of Tonkin,,Nhà Hàng Ngọc Trường là quán cà phê tại Quảng Ninh.,Nhà Hàng Ngọc Trường Ẩm thực quán cà phê  Quảng Ninh
QN_00167,Coffee Sun,Ẩm thực,quán cà phê,20.9835413,107.2426505,Gulf of Tonkin,,Coffee Sun là quán cà phê tại Quảng Ninh.,Coffee Sun Ẩm thực quán cà phê  Quảng Ninh
QN_00168,Cafe ban mê,Ẩm thực,quán cà phê,20.9571789,107.0509672,"Khách Sạn Minh Đức, 6A Phố Anh Đào, Bãi Cháy, Hạ Long, Quảng Ninh",Hạ Long,Cafe ban mê là quán cà phê tại Hạ Long.,Cafe ban mê Ẩm thực quán cà phê Hạ Long Quảng Ninh
QN_00169,Orchid Coffee,Ẩm thực,quán cà phê,20.952853,107.0256627,"Đại Lý Phụ Tùng Xe Máy Hương Báu, Đường Hạ Long, Bãi Cháy, Hạ Long, Quảng Ninh",Hạ Long,Orchid Coffee là quán cà phê tại Hạ Long.,Orchid Coffee Ẩm thực quán cà phê Hạ Long Quảng Ninh
QN_00170,Buffet Viên Chiên 49K,Ẩm thực,nhà hàng,20.9735212,107.0997931,"Đường Bãi Muối, Cao Thắng, Hạ Long, Quảng Ninh, 01109",Hạ Long,Buffet Viên Chiên 49K là nhà hàng tại Hạ Long.,Buffet Viên Chiên 49K Ẩm thực nhà hàng Hạ Long Quảng Ninh
QN_00171,Thiên Đường Tô Tượng Hạ Long,Ẩm thực,nhà hàng,20.9734373,107.0998404,"Cao Thắng, Hạ Long, Quảng Ninh",Hạ Long,Thiên Đường Tô Tượng Hạ Long là nhà hàng tại Hạ Long.,Thiên Đường Tô Tượng Hạ Long Ẩm thực nhà hàng Hạ Long Quảng Ninh
QN_00172,Paper Flowers Villa Ha Long - Rổ Hoa Giấy 🌸🌊 (Airbnb),Du lịch,khách sạn,20.9741851,107.0969139,"Cao Thắng, Hạ Long, Quảng Ninh",Hạ Long,Paper Flowers Villa Ha Long - Rổ Hoa Giấy 🌸🌊 (Airbnb) là khách sạn tại Hạ Long.,Paper Flowers Villa Ha Long - Rổ Hoa Giấy 🌸🌊 (Airbnb) Du lịch khách sạn Hạ Long Quảng Ninh
QN_00173,Chợ Trung Tâm Móng Cái,Du lịch,chợ truyền thống,21.5312782,107.9682744,"Phố Văn Đồn, Trần Phú, Móng Cái, Quảng Ninh, 01508",Móng Cái,Chợ Trung Tâm Móng Cái là chợ truyền thống tại Móng Cái.,Chợ Trung Tâm Móng Cái Du lịch chợ truyền thống Móng Cái Quảng Ninh
QN_00174,khách sạn trà cổ,Du lịch,khách sạn,21.4769852,108.0186348,"Đường Tỉnh Lộ 335, Trà Cổ, Móng Cái, Quảng Ninh, 01521",Móng Cái,khách sạn trà cổ là khách sạn tại Móng Cái.,khách sạn trà cổ Du lịch khách sạn Móng Cái Quảng Ninh
QN_00175,Khách sạn SAKURA,Du lịch,khách sạn,21.5294646,107.9734605,"Sakura Hotel, 68 Phố Vườn Trầu, Trần Phú, Móng Cái, Quảng Ninh, 01508",Móng Cái,Khách sạn SAKURA là khách sạn tại Móng Cái.,Khách sạn SAKURA Du lịch khách sạn Móng Cái Quảng Ninh
QN_00176,Chợ Vinh Cơ 2,Du lịch,trung tâm thương mại,21.5341674,107.9704802,"QL.18A, Trần Phú, Móng Cái, Quảng Ninh, 01508",Móng Cái,Chợ Vinh Cơ 2 là trung tâm thương mại tại Móng Cái.,Chợ Vinh Cơ 2 Du lịch trung tâm thương mại Móng Cái Quảng Ninh
QN_00177,Quảng trường Hoà Bình,Du lịch,trung tâm thương mại,21.5350324,107.9697954,"Đại Lộ Hòa Bình, Trần Phú, Móng Cái, Quảng Ninh, 01508",Móng Cái,Quảng trường Hoà Bình là trung tâm thương mại tại Móng Cái.,Quảng trường Hoà Bình Du lịch trung tâm thương mại Móng Cái Quảng Ninh
QN_00178,Cầu Bắc Luân - 北仑桥,Du lịch,địa điểm du lịch,21.5372827,107.9685908,"Đường Hữu Nghị, Trần Phú, Móng Cái, Quảng Ninh, 01508",Móng Cái,Cầu Bắc Luân - 北仑桥 là địa điểm du lịch tại Móng Cái.,Cầu Bắc Luân - 北仑桥 Du lịch địa điểm du lịch Móng Cái Quảng Ninh
QN_00179,Chợ Vinh Cơ,Du lịch,trung tâm thương mại,21.5331751,107.9712233,"Đại Lộ Hòa Bình, Trần Phú, Móng Cái, Quảng Ninh, 01508",Móng Cái,Chợ Vinh Cơ là trung tâm thương mại tại Móng Cái.,Chợ Vinh Cơ Du lịch trung tâm thương mại Móng Cái Quảng Ninh
QN_00180,Chợ số 3,Du lịch,chợ truyền thống,21.532697,107.9705449,"Phố Hoàng Quốc Việt, Trần Phú, Móng Cái, Quảng Ninh, 01508",Móng Cái,Chợ số 3 là chợ truyền thống tại Móng Cái.,Chợ số 3 Du lịch chợ truyền thống Móng Cái Quảng Ninh
QN_00181,Chợ Togi,Du lịch,chợ truyền thống,21.5323221,107.9718845,"Phố Trần Phú, Trần Phú, Móng Cái, Quảng Ninh, 01508",Móng Cái,Chợ Togi là chợ truyền thống tại Móng Cái.,Chợ Togi Du lịch chợ truyền thống Móng Cái Quảng Ninh
QN_00182,Móng Cái Plaza,Du lịch,trung tâm thương mại,21.5297621,107.9689376,"Phố Đông Trì, Trần Phú, Móng Cái, Quảng Ninh, 01508",Móng Cái,Móng Cái Plaza là trung tâm thương mại tại Móng Cái.,Móng Cái Plaza Du lịch trung tâm thương mại Móng Cái Quảng Ninh
QN_00183,Chợ Rừng,Du lịch,chợ truyền thống,20.9390372,106.7990497,"Phố Lê Lợi, Quảng Yên, Yên Hưng, Quảng Ninh, 02206",Yên Hưng,Chợ Rừng là chợ truyền thống tại Yên Hưng.,Chợ Rừng Du lịch chợ truyền thống Yên Hưng Quảng Ninh
QN_00184,Công viên Ka Long,Du lịch,công viên,21.5250502,107.9654233,"Đường Hữu Nghị, Hòa Lạc, Móng Cái, Quảng Ninh, 01506",Móng Cái,Công viên Ka Long là công viên tại Móng Cái.,Công viên Ka Long Du lịch công viên Móng Cái Quảng Ninh
QN_00185,Chợ Thọ Xuân,Du lịch,chợ truyền thống,21.5188153,107.9664127,"Phố Gốc Khế, Hòa Lạc, Móng Cái, Quảng Ninh, 01506",Móng Cái,Chợ Thọ Xuân là chợ truyền thống tại Móng Cái.,Chợ Thọ Xuân Du lịch chợ truyền thống Móng Cái Quảng Ninh
QN_00186,Chợ Cẩm Thịnh,Du lịch,chợ truyền thống,21.0072527,107.3444875,"341 Đường Trần Quốc Tảng, Cẩm Thịnh, Cẩm Phả, Quảng Ninh, 01213",Cẩm Phả,Chợ Cẩm Thịnh là chợ truyền thống tại Cẩm Phả.,Chợ Cẩm Thịnh Du lịch chợ truyền thống Cẩm Phả Quảng Ninh
QN_00187,Công viên Sa Vĩ,Du lịch,công viên,21.4914663,108.0669634,"Đường Tỉnh Lộ 335, Trà Cổ, Móng Cái, Quảng Ninh, 01521",Móng Cái,Công viên Sa Vĩ là công viên tại Móng Cái.,Công viên Sa Vĩ Du lịch công viên Móng Cái Quảng Ninh
QN_00188,Hòn Gà chọi,Du lịch,địa điểm du lịch,20.8904925,107.0262266,Hòn Gà Chọi,,Hòn Gà chọi là địa điểm du lịch tại Quảng Ninh.,Hòn Gà chọi Du lịch địa điểm du lịch  Quảng Ninh
QN_00189,Majestic Mong Cai,Du lịch,khách sạn,21.5338809,107.9719665,"Đại Lộ Hòa Bình, Trần Phú, Móng Cái, Quảng Ninh, 01508",Móng Cái,Majestic Mong Cai là khách sạn tại Móng Cái.,Majestic Mong Cai Du lịch khách sạn Móng Cái Quảng Ninh
QN_00190,Hidden beach,Du lịch,địa điểm du lịch,20.8169588,107.4701044,"Quan Lạn, Vân Đồn, Quảng Ninh",Vân Đồn,Hidden beach là địa điểm du lịch tại Vân Đồn.,Hidden beach Du lịch địa điểm du lịch Vân Đồn Quảng Ninh
QN_00191,Chợ trung tâm Uông Bí,Du lịch,chợ truyền thống,21.0347699,106.7696528,"494 Đường Quang Trung, Quang Trung, Uông Bí, Quảng Ninh, 02307",Uông Bí,Chợ trung tâm Uông Bí là chợ truyền thống tại Uông Bí.,Chợ trung tâm Uông Bí Du lịch chợ truyền thống Uông Bí Quảng Ninh
QN_00192,Công viên Mỏ Mạo Khê,Du lịch,công viên,21.068714,106.6015847,"Mạo Khê, Đông Triều, Quảng Ninh",Đông Triều,Công viên Mỏ Mạo Khê là công viên tại Đông Triều.,Công viên Mỏ Mạo Khê Du lịch công viên Đông Triều Quảng Ninh
QN_00193,Chợ Cột,Du lịch,chợ truyền thống,21.0843286,106.5124015,"Đông Triều, Quảng Ninh",Đông Triều,Chợ Cột là chợ truyền thống tại Đông Triều.,Chợ Cột Du lịch chợ truyền thống Đông Triều Quảng Ninh
QN_00194,Vincom Plaza Ha Long,Du lịch,trung tâm thương mại,20.9501573,107.083883,"Phố Cảng Mới, Bạch Đằng, Hạ Long, Quảng Ninh, 01108",Hạ Long,Vincom Plaza Ha Long là trung tâm thương mại tại Hạ Long.,Vincom Plaza Ha Long Du lịch trung tâm thương mại Hạ Long Quảng Ninh
QN_00195,Grand,Du lịch,khách sạn,21.5269373,107.9716428,"Đường Hùng Vương, Trần Phú, Móng Cái, Quảng Ninh, 01508",Móng Cái,Grand là khách sạn tại Móng Cái.,Grand Du lịch khách sạn Móng Cái Quảng Ninh
QN_00196,Mong Cai Palace Hotel,Du lịch,khách sạn,21.5266053,107.9722246,"Đại Lộ Hòa Bình, Trần Phú, Móng Cái, Quảng Ninh, 01508",Móng Cái,Mong Cai Palace Hotel là khách sạn tại Móng Cái.,Mong Cai Palace Hotel Du lịch khách sạn Móng Cái Quảng Ninh
QN_00197,Khách sạn Biển Bắc,Du lịch,khách sạn,21.5313057,107.9746691,"Trần Phú, Móng Cái, Quảng Ninh",Móng Cái,Khách sạn Biển Bắc là khách sạn tại Móng Cái.,Khách sạn Biển Bắc Du lịch khách sạn Móng Cái Quảng Ninh
QN_00198,Chợ Ka Long,Du lịch,chợ truyền thống,21.5296162,107.9565833,"Ka Long, Móng Cái, Quảng Ninh",Móng Cái,Chợ Ka Long là chợ truyền thống tại Móng Cái.,Chợ Ka Long Du lịch chợ truyền thống Móng Cái Quảng Ninh
QN_00199,Gió Biển,Du lịch,khách sạn,21.4759424,108.0165495,"Gio Bien Motel, Đường Tỉnh Lộ 335, Trà Cổ, Móng Cái, Quảng Ninh, 01521",Móng Cái,Gió Biển là khách sạn tại Móng Cái.,Gió Biển Du lịch khách sạn Móng Cái Quảng Ninh
QN_00200,Hoa Sơn Hotel,Du lịch,khách sạn,21.4826998,108.0305105,"Đường Tỉnh Lộ 335, Trà Cổ, Móng Cái, Quảng Ninh, 01521",Móng Cái,Hoa Sơn Hotel là khách sạn tại Móng Cái.,Hoa Sơn Hotel Du lịch khách sạn Móng Cái Quảng Ninh
QN_00201,Đền Xã Tắc,Du lịch,địa điểm du lịch,21.5338043,107.9652811,"Ka Long, Móng Cái, Quảng Ninh",Móng Cái,Đền Xã Tắc là địa điểm du lịch tại Móng Cái.,Đền Xã Tắc Du lịch địa điểm du lịch Móng Cái Quảng Ninh
QN_00202,Chợ số 2,Du lịch,chợ truyền thống,21.5320246,107.9694104,"Phố Văn Đồn, Trần Phú, Móng Cái, Quảng Ninh, 01508",Móng Cái,Chợ số 2 là chợ truyền thống tại Móng Cái.,Chợ số 2 Du lịch chợ truyền thống Móng Cái Quảng Ninh
QN_00203,Central Hotel,Du lịch,khách sạn,21.5290838,107.9687213,"Khách Sạn Thương Mại, Trần Phú, Móng Cái, Quảng Ninh",Móng Cái,Central Hotel là khách sạn tại Móng Cái.,Central Hotel Du lịch khách sạn Móng Cái Quảng Ninh
QN_00204,Khu tưởng niệm Liệt sĩ Pò Hèn,Du lịch,công viên,21.6377058,107.7600264,"Hải Sơn, Móng Cái, Quảng Ninh",Móng Cái,Khu tưởng niệm Liệt sĩ Pò Hèn là công viên tại Móng Cái.,Khu tưởng niệm Liệt sĩ Pò Hèn Du lịch công viên Móng Cái Quảng Ninh
QN_00205,Chợ cửa khẩu Bắc Phong Sinh,Du lịch,chợ truyền thống,21.624298,107.7190047,"Quảng Đức, Hải Hà, Quảng Ninh",Hải Hà,Chợ cửa khẩu Bắc Phong Sinh là chợ truyền thống tại Hải Hà.,Chợ cửa khẩu Bắc Phong Sinh Du lịch chợ truyền thống Hải Hà Quảng Ninh
QN_00206,Chợ Pò Hèn,Du lịch,chợ truyền thống,21.6423464,107.7628586,"Chợ Pò Hèn, Đường Quốc Lộ 18C, Hải Sơn, Móng Cái, Quảng Ninh, 01513",Móng Cái,Chợ Pò Hèn là chợ truyền thống tại Móng Cái.,Chợ Pò Hèn Du lịch chợ truyền thống Móng Cái Quảng Ninh
QN_00207,Công viên Nguyễn Bình,Du lịch,công viên,21.079971,106.5174548,"Đường Nguyễn Bình, Hồng Phong, Đức Chính, Đông Triều, Quảng Ninh, 02407",Đông Triều,Công viên Nguyễn Bình là công viên tại Đông Triều.,Công viên Nguyễn Bình Du lịch công viên Đông Triều Quảng Ninh
QN_00208,Chợ Cẩm Thủy,Du lịch,chợ truyền thống,21.0093951,107.263058,"12 Đường Nguyễn Văn Trỗi, Cẩm Thủy, Cẩm Phả, Quảng Ninh, 01221",Cẩm Phả,Chợ Cẩm Thủy là chợ truyền thống tại Cẩm Phả.,Chợ Cẩm Thủy Du lịch chợ truyền thống Cẩm Phả Quảng Ninh
QN_00209,Hai Yen Luxury Hotel,Du lịch,khách sạn,21.0102258,107.2695536,"1 Ngõ 398B Trần Phú, Cẩm Trung, Cẩm Phả, Quảng Ninh, 01206",Cẩm Phả,Hai Yen Luxury Hotel là khách sạn tại Cẩm Phả.,Hai Yen Luxury Hotel Du lịch khách sạn Cẩm Phả Quảng Ninh
QN_00210,Chợ Hà Lầm,Du lịch,trung tâm thương mại,20.9667113,107.1083259,"Chợ Hà Lầm, 642 Đường Hà Lầm, Hà Lầm, Hạ Long, Quảng Ninh, 01111",Hạ Long,Chợ Hà Lầm là trung tâm thương mại tại Hạ Long.,Chợ Hà Lầm Du lịch trung tâm thương mại Hạ Long Quảng Ninh
QN_00211,Công viên Lán Bè,Du lịch,công viên,20.9507823,107.0879903,"Đường Lê Thánh Tông, Bạch Đằng, Hạ Long, Quảng Ninh, 01108",Hạ Long,Công viên Lán Bè là công viên tại Hạ Long.,Công viên Lán Bè Du lịch công viên Hạ Long Quảng Ninh
QN_00212,Vườn hoa,Du lịch,công viên,20.949184,107.0829926,"Phố Truyền Đăng, Bạch Đằng, Hạ Long, Quảng Ninh, 01108",Hạ Long,Vườn hoa là công viên tại Hạ Long.,Vườn hoa Du lịch công viên Hạ Long Quảng Ninh
QN_00213,Khách sạn Bưu điện Hạ Long,Du lịch,khách sạn,20.956819,107.0502206,"ATM - Ngân Hàng Xuất Nhập Khẩu Việt Nam - Eximbank, Bãi Cháy, Hạ Long, Quảng Ninh",Hạ Long,Khách sạn Bưu điện Hạ Long là khách sạn tại Hạ Long.,Khách sạn Bưu điện Hạ Long Du lịch khách sạn Hạ Long Quảng Ninh
QN_00214,Chợ Hạ Long II,Du lịch,trung tâm thương mại,20.9582591,107.0849932,"Đường Trần Nguyên Hãn, Yết Kiêu, Hạ Long, Quảng Ninh, 01118",Hạ Long,Chợ Hạ Long II là trung tâm thương mại tại Hạ Long.,Chợ Hạ Long II Du lịch trung tâm thương mại Hạ Long Quảng Ninh
QN_00215,Chợ Cao Thắng,Du lịch,chợ truyền thống,20.9639619,107.0981302,"Cơ Sở Sản Xuất Giò Chả Oanh Thời, Đường Bãi Muối, Cao Thắng, Hạ Long, Quảng Ninh, 01109",Hạ Long,Chợ Cao Thắng là chợ truyền thống tại Hạ Long.,Chợ Cao Thắng Du lịch chợ truyền thống Hạ Long Quảng Ninh
QN_00216,Chợ Sa Tô,Du lịch,chợ truyền thống,20.9682109,107.0821845,"22 Phố Thành Công, Cao Xanh, Hạ Long, Quảng Ninh, 01117",Hạ Long,Chợ Sa Tô là chợ truyền thống tại Hạ Long.,Chợ Sa Tô Du lịch chợ truyền thống Hạ Long Quảng Ninh
QN_00217,Chợ Hồng Hà,Du lịch,chợ truyền thống,20.947675,107.1296194,"512 Đường Nguyễn Văn Cừ, Hạ Long, Quảng Ninh, 01113",Hạ Long,Chợ Hồng Hà là chợ truyền thống tại Hạ Long.,Chợ Hồng Hà Du lịch chợ truyền thống Hạ Long Quảng Ninh
QN_00218,Hồ Cô Tiên Palace,Ẩm thực,nhà hàng,20.9526901,107.0965589,"Phố Đông Hồ, Bạch Đằng, Hạ Long, Quảng Ninh, 01108",Hạ Long,Hồ Cô Tiên Palace là nhà hàng tại Hạ Long.,Hồ Cô Tiên Palace Ẩm thực nhà hàng Hạ Long Quảng Ninh
QN_00219,Sakura Coffee,Ẩm thực,quán cà phê,20.9558702,107.0737256,"Yết Kiêu, Hạ Long, Quảng Ninh",Hạ Long,Sakura Coffee là quán cà phê tại Hạ Long.,Sakura Coffee Ẩm thực quán cà phê Hạ Long Quảng Ninh
QN_00220,Mộc Trà Quán,Ẩm thực,quán cà phê,20.9551165,107.0740663,"Hồng Gai, Hạ Long, Quảng Ninh",Hạ Long,Mộc Trà Quán là quán cà phê tại Hạ Long.,Mộc Trà Quán Ẩm thực quán cà phê Hạ Long Quảng Ninh
QN_00221,Chợ Cái Dăm,Du lịch,chợ truyền thống,20.955726,107.0226526,"Đường Tiên Ông, Bãi Cháy, Hạ Long, Quảng Ninh, 01119",Hạ Long,Chợ Cái Dăm là chợ truyền thống tại Hạ Long.,Chợ Cái Dăm Du lịch chợ truyền thống Hạ Long Quảng Ninh
QN_00222,Ha Long Palace,Du lịch,khách sạn,20.9555053,107.0209196,"Ha Long Palace Hotel, Đường Hoàng Quốc Việt, Bãi Cháy, Hạ Long, Quảng Ninh, 01119",Hạ Long,Ha Long Palace là khách sạn tại Hạ Long.,Ha Long Palace Du lịch khách sạn Hạ Long Quảng Ninh
QN_00223,Marina,Du lịch,khách sạn,20.9547667,107.0218464,"Đường Hoàng Quốc Việt, Bãi Cháy, Hạ Long, Quảng Ninh, 01119",Hạ Long,Marina là khách sạn tại Hạ Long.,Marina Du lịch khách sạn Hạ Long Quảng Ninh
QN_00224,Crown Hotel,Du lịch,khách sạn,20.9545515,107.0221102,"Đường Hoàng Quốc Việt, Bãi Cháy, Hạ Long, Quảng Ninh, 01119",Hạ Long,Crown Hotel là khách sạn tại Hạ Long.,Crown Hotel Du lịch khách sạn Hạ Long Quảng Ninh
QN_00225,Mường Thanh Grand Hạ Long,Du lịch,khách sạn,20.9542299,107.0224025,"Avocado Bar, 7 Ô 20 Đường Hoàng Quốc Việt, Bãi Cháy, Hạ Long, Quảng Ninh, 01119",Hạ Long,Mường Thanh Grand Hạ Long là khách sạn tại Hạ Long.,Mường Thanh Grand Hạ Long Du lịch khách sạn Hạ Long Quảng Ninh
QN_00226,Moon Hotel,Du lịch,khách sạn,20.9546025,107.0223305,"Đường Tiên Ông, Bãi Cháy, Hạ Long, Quảng Ninh, 01119",Hạ Long,Moon Hotel là khách sạn tại Hạ Long.,Moon Hotel Du lịch khách sạn Hạ Long Quảng Ninh
QN_00227,Galaxy Ha Long Hotel,Du lịch,khách sạn,20.9547441,107.0222825,"Đường Tiên Ông, Bãi Cháy, Hạ Long, Quảng Ninh, 01119",Hạ Long,Galaxy Ha Long Hotel là khách sạn tại Hạ Long.,Galaxy Ha Long Hotel Du lịch khách sạn Hạ Long Quảng Ninh
QN_00228,Au Lac Hotel,Du lịch,khách sạn,20.9548845,107.022235,"Bản Địa Quán, Bãi Cháy, Hạ Long, Quảng Ninh, 01119",Hạ Long,Au Lac Hotel là khách sạn tại Hạ Long.,Au Lac Hotel Du lịch khách sạn Hạ Long Quảng Ninh
QN_00229,Chợ Hà Tu,Du lịch,chợ truyền thống,20.9595861,107.1537171,"Phòng Chẩn Trị Y Học Cổ Truyền Dân Tộc Y Sĩ Đào Bích Oanh, Hà Tu, Hạ Long, Quảng Ninh, 01114",Hạ Long,Chợ Hà Tu là chợ truyền thống tại Hạ Long.,Chợ Hà Tu Du lịch chợ truyền thống Hạ Long Quảng Ninh
QN_00230,Chợ Hà Phong,Du lịch,chợ truyền thống,20.9670645,107.15965,"Chợ Hà Phong, Phố Tân Lập, Hà Phong, Hạ Long, Quảng Ninh, 01115",Hạ Long,Chợ Hà Phong là chợ truyền thống tại Hạ Long.,Chợ Hà Phong Du lịch chợ truyền thống Hạ Long Quảng Ninh
QN_00231,Trường Tiểu học Minh Hà,Ẩm thực,quán cà phê,20.9570789,107.1597956,"Đường Hòa Bình, Hà Tu, Hạ Long, Quảng Ninh, 01114",Hạ Long,Trường Tiểu học Minh Hà là quán cà phê tại Hạ Long.,Trường Tiểu học Minh Hà Ẩm thực quán cà phê Hạ Long Quảng Ninh
QN_00232,Chợ Hà Trung,Du lịch,chợ truyền thống,20.9560958,107.1252997,"Phố Hòa Bình, Hà Trung, Hạ Long, Quảng Ninh, 01112",Hạ Long,Chợ Hà Trung là chợ truyền thống tại Hạ Long.,Chợ Hà Trung Du lịch chợ truyền thống Hạ Long Quảng Ninh
QN_00233,Khách sạn Hương Biển,Du lịch,khách sạn,20.9447395,107.1230503,"Ngõ 37 Nguyễn Văn Cừ, Hạ Long, Quảng Ninh, 01113",Hạ Long,Khách sạn Hương Biển là khách sạn tại Hạ Long.,Khách sạn Hương Biển Du lịch khách sạn Hạ Long Quảng Ninh
QN_00234,Novotel Ha Long,Du lịch,khách sạn,20.9519692,107.0419818,Novotel Ha Long Halong,,Novotel Ha Long là khách sạn tại Quảng Ninh.,Novotel Ha Long Du lịch khách sạn  Quảng Ninh
QN_00235,Khách sạn Sài Gòn Hạ Long,Du lịch,khách sạn,20.9517699,107.0396397,"Ha Long Party Cruise, Đường Hậu Cần, Bãi Cháy, Hạ Long, Quảng Ninh, 01119",Hạ Long,Khách sạn Sài Gòn Hạ Long là khách sạn tại Hạ Long.,Khách sạn Sài Gòn Hạ Long Du lịch khách sạn Hạ Long Quảng Ninh
QN_00236,Chợ Hạ Long 3,Du lịch,chợ truyền thống,20.9441282,107.1086543,"Agribank, Phố Hải Hà, Hồng Hải, Hạ Long, Quảng Ninh, 01110",Hạ Long,Chợ Hạ Long 3 là chợ truyền thống tại Hạ Long.,Chợ Hạ Long 3 Du lịch chợ truyền thống Hạ Long Quảng Ninh
QN_00237,Chợ Hà Khẩu,Du lịch,chợ truyền thống,20.9804166,106.9981724,"37 Đường Tiêu Giao, Hà Khẩu, Hạ Long, Quảng Ninh, 01122",Hạ Long,Chợ Hà Khẩu là chợ truyền thống tại Hạ Long.,Chợ Hà Khẩu Du lịch chợ truyền thống Hạ Long Quảng Ninh
QN_00238,Ánh Dương,Ẩm thực,nhà hàng,20.9527446,107.0438781,"Hotel Halong Bay, 152 Đường Hạ Long, Bãi Cháy, Hạ Long, Quảng Ninh",Hạ Long,Ánh Dương là nhà hàng tại Hạ Long.,Ánh Dương Ẩm thực nhà hàng Hạ Long Quảng Ninh
QN_00239,Hạ Long 1,Ẩm thực,nhà hàng,20.952118,107.0426313,"158 Đường Hạ Long, Bãi Cháy, Hạ Long, Quảng Ninh, 01119",Hạ Long,Hạ Long 1 là nhà hàng tại Hạ Long.,Hạ Long 1 Ẩm thực nhà hàng Hạ Long Quảng Ninh
QN_00240,Thuận Lợi 2,Ẩm thực,nhà hàng,20.9517718,107.0426471,"Showroom Giới Thiệu Sản Phẩm Coffee G8, Đường Hạ Long, Bãi Cháy, Hạ Long, Quảng Ninh, 01119",Hạ Long,Thuận Lợi 2 là nhà hàng tại Hạ Long.,Thuận Lợi 2 Ẩm thực nhà hàng Hạ Long Quảng Ninh
QN_00241,Chợ Trới,Du lịch,chợ truyền thống,21.0229463,106.9884769,"Đường Nguyễn Trãi, Hoành Bồ, Trới, Hạ Long, Quảng Ninh, 02106",Hạ Long,Chợ Trới là chợ truyền thống tại Hạ Long.,Chợ Trới Du lịch chợ truyền thống Hạ Long Quảng Ninh
QN_00242,Vườn hoa Thị trấn Trới,Du lịch,công viên,21.0263443,106.9934125,"Hoành Bồ, Trới, Hạ Long, Quảng Ninh",Hạ Long,Vườn hoa Thị trấn Trới là công viên tại Hạ Long.,Vườn hoa Thị trấn Trới Du lịch công viên Hạ Long Quảng Ninh
QN_00243,Chợ Minh Thành,Du lịch,chợ truyền thống,21.0037525,106.8580236,"Minh Thành, Yên Hưng, Quảng Ninh",Yên Hưng,Chợ Minh Thành là chợ truyền thống tại Yên Hưng.,Chợ Minh Thành Du lịch chợ truyền thống Yên Hưng Quảng Ninh
QN_00244,Chợ Km10 Quang Hanh,Du lịch,chợ truyền thống,20.9968109,107.2099319,"Đường Đặng Châu Tuệ, Quang Hanh, Cẩm Phả, Quảng Ninh, 01219",Cẩm Phả,Chợ Km10 Quang Hanh là chợ truyền thống tại Cẩm Phả.,Chợ Km10 Quang Hanh Du lịch chợ truyền thống Cẩm Phả Quảng Ninh
QN_00245,Chợ Suối Khoáng,Du lịch,chợ truyền thống,20.9852474,107.1950888,"Đường Đặng Châu Tuệ, Quang Hanh, Cẩm Phả, Quảng Ninh, 01219",Cẩm Phả,Chợ Suối Khoáng là chợ truyền thống tại Cẩm Phả.,Chợ Suối Khoáng Du lịch chợ truyền thống Cẩm Phả Quảng Ninh
QN_00246,Chợ Cẩm Thạch,Du lịch,chợ truyền thống,21.0104223,107.256404,"Nhà Thuốc, Đường Trần Phú, Cẩm Thạch, Cẩm Phả, Quảng Ninh",Cẩm Phả,Chợ Cẩm Thạch là chợ truyền thống tại Cẩm Phả.,Chợ Cẩm Thạch Du lịch chợ truyền thống Cẩm Phả Quảng Ninh
QN_00247,Chợ Cẩm Bình,Du lịch,chợ truyền thống,21.0089307,107.287721,"Đại Lý Nước Mắm Cái Rồng, Cẩm Bình, Cẩm Phả, Quảng Ninh, 01209",Cẩm Phả,Chợ Cẩm Bình là chợ truyền thống tại Cẩm Phả.,Chợ Cẩm Bình Du lịch chợ truyền thống Cẩm Phả Quảng Ninh
QN_00248,Chợ Ba Tầng,Du lịch,chợ truyền thống,21.0124662,107.2791479,"Làm Đẹp Kim Hồng, Đường Phan Bội Châu, Cẩm Thành, Cẩm Phả, Quảng Ninh, 01207",Cẩm Phả,Chợ Ba Tầng là chợ truyền thống tại Cẩm Phả.,Chợ Ba Tầng Du lịch chợ truyền thống Cẩm Phả Quảng Ninh
QN_00249,Chợ Địa Chất,Du lịch,chợ truyền thống,21.0131729,107.2797346,"2 Ngách 236/2 Trần Phú, Cẩm Thành, Cẩm Phả, Quảng Ninh",Cẩm Phả,Chợ Địa Chất là chợ truyền thống tại Cẩm Phả.,Chợ Địa Chất Du lịch chợ truyền thống Cẩm Phả Quảng Ninh
QN_00250,Công viên Cao Sơn Lưu Thủy,Du lịch,công viên,20.999197,107.3123952,"Vòng Xoay, Cẩm Sơn, Cẩm Phả, Quảng Ninh, 01211",Cẩm Phả,Công viên Cao Sơn Lưu Thủy là công viên tại Cẩm Phả.,Công viên Cao Sơn Lưu Thủy Du lịch công viên Cẩm Phả Quảng Ninh
QN_00251,Chợ Cẩm Phú,Du lịch,chợ truyền thống,21.0082722,107.3323159,"Đường Trần Quốc Tảng, Cẩm Phú, Cẩm Phả, Quảng Ninh, 01212",Cẩm Phả,Chợ Cẩm Phú là chợ truyền thống tại Cẩm Phả.,Chợ Cẩm Phú Du lịch chợ truyền thống Cẩm Phả Quảng Ninh
QN_00252,Legend Pearl,Du lịch,địa điểm du lịch,20.9573534,106.9513676,"Quốc Lộ 18, Đại Yên, Hạ Long, Quảng Ninh, 01124",Hạ Long,Legend Pearl là địa điểm du lịch tại Hạ Long.,Legend Pearl Du lịch địa điểm du lịch Hạ Long Quảng Ninh
QN_00253,Chợ Hạ Long,Du lịch,chợ truyền thống,21.0812929,107.4378656,"Đường Tỉnh Lộ 334, Hạ Long, Vân Đồn, Quảng Ninh, 01317",Vân Đồn,Chợ Hạ Long là chợ truyền thống tại Vân Đồn.,Chợ Hạ Long Du lịch chợ truyền thống Vân Đồn Quảng Ninh
QN_00254,Dolphinarium (closed?),Du lịch,địa điểm du lịch,20.9273103,106.9867109,"Tuần Châu, Hạ Long, Quảng Ninh",Hạ Long,Dolphinarium (closed?) là địa điểm du lịch tại Hạ Long.,Dolphinarium (closed?) Du lịch địa điểm du lịch Hạ Long Quảng Ninh
QN_00255,Legacy Yen Tu - MGallery,Du lịch,khách sạn,21.1374159,106.7245897,"Thượng Yên Công, Uông Bí, Quảng Ninh",Uông Bí,Legacy Yen Tu - MGallery là khách sạn tại Uông Bí.,Legacy Yen Tu - MGallery Du lịch khách sạn Uông Bí Quảng Ninh
QN_00256,Luxury6 Móng Cái,Du lịch,khách sạn,21.5274617,107.9712423,"Phố Nguyễn Văn Trỗi, Trần Phú, Móng Cái, Quảng Ninh, 01508",Móng Cái,Luxury6 Móng Cái là khách sạn tại Móng Cái.,Luxury6 Móng Cái Du lịch khách sạn Móng Cái Quảng Ninh
QN_00257,Vincom Plaza,Du lịch,trung tâm thương mại,21.5324287,107.9731285,"Đại Lộ Hòa Bình, Trần Phú, Móng Cái, Quảng Ninh, 01508",Móng Cái,Vincom Plaza là trung tâm thương mại tại Móng Cái.,Vincom Plaza Du lịch trung tâm thương mại Móng Cái Quảng Ninh
QN_00258,Hồng Nguyên,Du lịch,trung tâm thương mại,21.5350753,107.9715916,"Phố Thương Mại, Trần Phú, Móng Cái, Quảng Ninh, 01508",Móng Cái,Hồng Nguyên là trung tâm thương mại tại Móng Cái.,Hồng Nguyên Du lịch trung tâm thương mại Móng Cái Quảng Ninh
QN_00259,Công Đoàn Hotel,Du lịch,khách sạn,21.5292479,107.9692856,"Nhà Hàng Công Đoàn, Trần Phú, Móng Cái, Quảng Ninh",Móng Cái,Công Đoàn Hotel là khách sạn tại Móng Cái.,Công Đoàn Hotel Du lịch khách sạn Móng Cái Quảng Ninh
QN_00260,Nam Phong,Du lịch,khách sạn,21.5267648,107.9718191,"Nam Phong Coffee, Đường Hùng Vương, Trần Phú, Móng Cái, Quảng Ninh, 01508",Móng Cái,Nam Phong là khách sạn tại Móng Cái.,Nam Phong Du lịch khách sạn Móng Cái Quảng Ninh
QN_00261,Long Tứ,Ẩm thực,nhà hàng,21.5260685,107.9716852,"Đường Hùng Vương, Trần Phú, Móng Cái, Quảng Ninh, 01508",Móng Cái,Long Tứ là nhà hàng tại Móng Cái.,Long Tứ Ẩm thực nhà hàng Móng Cái Quảng Ninh
QN_00262,Vạn Xuân,Du lịch,khách sạn,21.5247186,107.972113,"Đại Lộ Hòa Bình, Hải Xuân, Móng Cái, Quảng Ninh, 01522",Móng Cái,Vạn Xuân là khách sạn tại Móng Cái.,Vạn Xuân Du lịch khách sạn Móng Cái Quảng Ninh
QN_00263,Tuyển Đạt,Du lịch,khách sạn,21.5262973,107.9734095,"Tuyến Đạt Motel, Hải Hòa, Móng Cái, Quảng Ninh, 01507",Móng Cái,Tuyển Đạt là khách sạn tại Móng Cái.,Tuyển Đạt Du lịch khách sạn Móng Cái Quảng Ninh
QN_00264,Viet Nhat I,Du lịch,khách sạn,21.5266526,107.9729449,"Cháo Dinh Dưỡng Ngọc Sáng, Trần Phú, Móng Cái, Quảng Ninh, 01508",Móng Cái,Viet Nhat I là khách sạn tại Móng Cái.,Viet Nhat I Du lịch khách sạn Móng Cái Quảng Ninh
QN_00265,Thảo Nhi,Ẩm thực,nhà hàng,21.5336322,107.9532691,"Câu Lạc Bộ Vui Chơi Trẻ Em Thảo Nhi, Ka Long, Ninh Dương, Móng Cái, Quảng Ninh, 01510",Móng Cái,Thảo Nhi là nhà hàng tại Móng Cái.,Thảo Nhi Ẩm thực nhà hàng Móng Cái Quảng Ninh
QN_00266,phoenix hotel,Du lịch,khách sạn,20.9430356,107.5467153,"Minh Châu, Vân Đồn, Quảng Ninh",Vân Đồn,phoenix hotel là khách sạn tại Vân Đồn.,phoenix hotel Du lịch khách sạn Vân Đồn Quảng Ninh
QN_00267,Công Viên Xuân Lâm,Du lịch,công viên,21.0235678,106.79883,"Trưng Vương, Uông Bí, Quảng Ninh",Uông Bí,Công Viên Xuân Lâm là công viên tại Uông Bí.,Công Viên Xuân Lâm Du lịch công viên Uông Bí Quảng Ninh
QN_00268,Nha Sàn Tùng Lâm,Ẩm thực,nhà hàng,21.1398789,106.7214858,"Thượng Yên Công, Uông Bí, Quảng Ninh",Uông Bí,Nha Sàn Tùng Lâm là nhà hàng tại Uông Bí.,Nha Sàn Tùng Lâm Ẩm thực nhà hàng Uông Bí Quảng Ninh
QN_00269,Nhà khách UBND huyện Cô Tô,Du lịch,nhà khách/homestay,20.9717937,107.7636177,"Cô Tô, Quảng Ninh",Cô Tô,Nhà khách UBND huyện Cô Tô là nhà khách/homestay tại Cô Tô.,Nhà khách UBND huyện Cô Tô Du lịch nhà khách/homestay Cô Tô Quảng Ninh
QN_00270,Phi Long Thần Tốc,Du lịch,địa điểm du lịch,20.95406,107.0479012,"Đường Hạ Long, Bãi Cháy, Hạ Long, Quảng Ninh, 01119",Hạ Long,Phi Long Thần Tốc là địa điểm du lịch tại Hạ Long.,Phi Long Thần Tốc Du lịch địa điểm du lịch Hạ Long Quảng Ninh
QN_00271,Wyndham Hotel,Du lịch,khách sạn,20.9595167,107.0603206,"12 Đường Hạ Long, Bãi Cháy, Hạ Long, Quảng Ninh, 01119",Hạ Long,Wyndham Hotel là khách sạn tại Hạ Long.,Wyndham Hotel Du lịch khách sạn Hạ Long Quảng Ninh
QN_00272,Chợ Rộc,Du lịch,chợ truyền thống,20.9392737,106.825278,"Tiền An, Yên Hưng, Quảng Ninh",Yên Hưng,Chợ Rộc là chợ truyền thống tại Yên Hưng.,Chợ Rộc Du lịch chợ truyền thống Yên Hưng Quảng Ninh
QN_00273,Chợ Trung tâm Hải Hà,Du lịch,chợ truyền thống,21.4497452,107.7492721,"Quảng Hà, Hải Hà, Quảng Ninh",Hải Hà,Chợ Trung tâm Hải Hà là chợ truyền thống tại Hải Hà.,Chợ Trung tâm Hải Hà Du lịch chợ truyền thống Hải Hà Quảng Ninh
QN_00274,Chợ Trung tâm Hải Hà 2,Du lịch,chợ truyền thống,21.4441558,107.7528856,"Quảng Hà, Hải Hà, Quảng Ninh",Hải Hà,Chợ Trung tâm Hải Hà 2 là chợ truyền thống tại Hải Hà.,Chợ Trung tâm Hải Hà 2 Du lịch chợ truyền thống Hải Hà Quảng Ninh
QN_00275,Siêu thị LanChi,Du lịch,trung tâm thương mại,20.9454915,106.7964453,"Đường Tỉnh Lộ 338, Yên Giang, Yên Hưng, Quảng Ninh, 02216",Yên Hưng,Siêu thị LanChi là trung tâm thương mại tại Yên Hưng.,Siêu thị LanChi Du lịch trung tâm thương mại Yên Hưng Quảng Ninh
QN_00276,Bể Bơi Vinhomes Golden Avennue,Du lịch,công viên,21.5294563,107.9967196,"Hải Hòa, Móng Cái, Quảng Ninh",Móng Cái,Bể Bơi Vinhomes Golden Avennue là công viên tại Móng Cái.,Bể Bơi Vinhomes Golden Avennue Du lịch công viên Móng Cái Quảng Ninh
QN_00277,The Yacht,Du lịch,khách sạn,20.9507272,107.0330164,"256 Đường Bãi Cháy, Bãi Cháy, Hạ Long, Quảng Ninh, 01119",Hạ Long,The Yacht là khách sạn tại Hạ Long.,The Yacht Du lịch khách sạn Hạ Long Quảng Ninh
QN_00278,Khách sạn Mường Thanh Luxury Quảng Ninh,Du lịch,khách sạn,20.9565159,107.0491579,"94 Đường Hạ Long, Bãi Cháy, Hạ Long, Quảng Ninh, 01119",Hạ Long,Khách sạn Mường Thanh Luxury Quảng Ninh là khách sạn tại Hạ Long.,Khách sạn Mường Thanh Luxury Quảng Ninh Du lịch khách sạn Hạ Long Quảng Ninh
QN_00279,Chợ Vườn Đào,Du lịch,chợ truyền thống,20.9600435,107.0527791,"Phố Anh Đào, Bãi Cháy, Hạ Long, Quảng Ninh, 01119",Hạ Long,Chợ Vườn Đào là chợ truyền thống tại Hạ Long.,Chợ Vườn Đào Du lịch chợ truyền thống Hạ Long Quảng Ninh
QN_00280,ICON 40,Du lịch,trung tâm thương mại,20.9591635,107.0016105,"Đường Hoàng Quốc Việt, Hùng Thắng, Hạ Long, Quảng Ninh, 01120",Hạ Long,ICON 40 là trung tâm thương mại tại Hạ Long.,ICON 40 Du lịch trung tâm thương mại Hạ Long Quảng Ninh
QN_00281,Công viên Vinhomes Dragon Bay,Du lịch,công viên,20.9509032,107.0717803,"Công Viên Vịnh Rồng, Hồng Gai, Hạ Long, Quảng Ninh, 01106",Hạ Long,Công viên Vinhomes Dragon Bay là công viên tại Hạ Long.,Công viên Vinhomes Dragon Bay Du lịch công viên Hạ Long Quảng Ninh
