id,name,domain,category_vi,latitude,longitude,address,district,description,search_text
DIA_DN00001,Chợ Vĩnh Tân,Du lịch,chợ,11.0437006,107.0186129,"Tỉnh Lộ 767, Vĩnh Tân, Vĩnh Cửu, Đồng Nai, 76912",Huyện Vĩnh Cửu,Chợ Vĩnh Tân là chợ tại Huyện Vĩnh Cửu.,Chợ Vĩnh Tân chợ Huyện Vĩnh Cửu
DIA_DN00002,Banh Bao 69,Ẩm thực,nhà hàng,10.696603,107.014973,"Bò Sữa Long Thành 3, Phước Thái, Long Thành, Đồng Nai",Huyện Long Thành,Banh Bao 69 là nhà hàng tại Huyện Long Thành.,Banh Bao 69 nhà hàng Huyện Long Thành
DIA_DN00003,Thanh Long 1,Ẩm thực,nhà hàng,10.697091,107.014619,"Quốc Lộ 51, Phước Thái, Long Thành, Đồng Nai, 76214",Huyện Long Thành,Thanh Long 1 là nhà hàng tại Huyện Long Thành.,Thanh Long 1 nhà hàng Huyện Long Thành
DIA_DN00004,Thanh Long 2,Ẩm thực,nhà hàng,10.697138,107.015201,"Quán Võng Bánh Bao 69 Tường Vy, Đường Quốc Lộ 51, Phước Thái, Long Thành, Đồng Nai, 76214",Huyện Long Thành,Thanh Long 2 là nhà hàng tại Huyện Long Thành.,Thanh Long 2 nhà hàng Huyện Long Thành
DIA_DN00005,Hải Hằng,Ẩm thực,nhà hàng,10.697362,107.014456,"Quốc Lộ 51, Phước Thái, Long Thành, Đồng Nai, 76214",Huyện Long Thành,Hải Hằng là nhà hàng tại Huyện Long Thành.,Hải Hằng nhà hàng Huyện Long Thành
DIA_DN00006,Ba Nhánh 2,Ẩm thực,nhà hàng,10.682323,107.024618,"Tiện Hàn Công Minh, 1780 Đường Quốc Lộ 51, Phước Thái, Long Thành, Đồng Nai, 76214",Huyện Long Thành,Ba Nhánh 2 là nhà hàng tại Huyện Long Thành.,Ba Nhánh 2 nhà hàng Huyện Long Thành
DIA_DN00007,Market,Du lịch,chợ,10.688255,107.020542,"Tạp Hóa Thiết Loan, Đường Quốc Lộ 51, Phước Thái, Long Thành, Đồng Nai, 76214",Huyện Long Thành,Market là chợ tại Huyện Long Thành.,Market chợ Huyện Long Thành
DIA_DN00008,Ap 3,Du lịch,chợ,10.692771,107.0163,"Phước Thái, Long Thành, Đồng Nai",Huyện Long Thành,Ap 3 là chợ tại Huyện Long Thành.,Ap 3 chợ Huyện Long Thành
DIA_DN00009,Ấp Tập Phước,Du lịch,chợ,10.706494,107.006428,"Quốc Lộ 51, Long Phước, Long Thành, Đồng Nai, 76213",Huyện Long Thành,Ấp Tập Phước là chợ tại Huyện Long Thành.,Ấp Tập Phước chợ Huyện Long Thành
DIA_DN00010,Ấp Long Phú,Du lịch,chợ,10.686698,107.020589,"Phước Thái, Long Thành, Đồng Nai",Huyện Long Thành,Ấp Long Phú là chợ tại Huyện Long Thành.,Ấp Long Phú chợ Huyện Long Thành
DIA_DN00011,Ấp Đất Mới,Du lịch,chợ,10.72898,106.989644,"2 Hẻm 1122/17 Quốc Lộ 51, Long Phước, Long Thành, Đồng Nai, 76213",Huyện Long Thành,Ấp Đất Mới là chợ tại Huyện Long Thành.,Ấp Đất Mới chợ Huyện Long Thành
DIA_DN00012,Goody,Du lịch,khách sạn,11.1594064,107.2787073,"Đường Hùng Vương, Phú Ngọc, Định Quán, Đồng Nai, 76713",Huyện Định Quán,Goody là khách sạn tại Huyện Định Quán.,Goody khách sạn Huyện Định Quán
DIA_DN00013,Cafe Tra My,Ẩm thực,quán cà phê,11.0129158,107.1743872,"Cafe Trà Mi, Quang Trung, Thống Nhất, Đồng Nai, 76407",Huyện Thống Nhất,Cafe Tra My là quán cà phê tại Huyện Thống Nhất.,Cafe Tra My quán cà phê Huyện Thống Nhất
DIA_DN00014,Tao Ngộ Miền Tây,Ẩm thực,nhà hàng,11.2953863,107.5012174,"Đường Hùng Vương, Phú Bình, Tân Phú, Đồng Nai, 76822",Huyện Tân Phú,Tao Ngộ Miền Tây là nhà hàng tại Huyện Tân Phú.,Tao Ngộ Miền Tây nhà hàng Huyện Tân Phú
DIA_DN00015,Quán Tư Đô,Ẩm thực,quán thức ăn nhanh,10.6660659,107.0329824,"Đường Quốc Lộ 51, Phước Thái, Long Thành, Đồng Nai, 76214",Huyện Long Thành,Quán Tư Đô là quán thức ăn nhanh tại Huyện Long Thành.,Quán Tư Đô quán thức ăn nhanh Huyện Long Thành
DIA_DN00016,Quán rừng Hùng núi đỏ,Ẩm thực,quán pub,10.9250972,107.2269387,"90 Đường Nguyễn Văn Trỗi, Bàu Sen, Long Khánh, Đồng Nai, 76467",TP. Long Khánh,Quán rừng Hùng núi đỏ là quán pub tại TP. Long Khánh.,Quán rừng Hùng núi đỏ quán pub TP. Long Khánh
DIA_DN00017,Rosa coffee,Ẩm thực,quán cà phê,11.0128706,107.1746485,"Đường Quốc Lộ 20, Quang Trung, Thống Nhất, Đồng Nai, 76407",Huyện Thống Nhất,Rosa coffee là quán cà phê tại Huyện Thống Nhất.,Rosa coffee quán cà phê Huyện Thống Nhất
DIA_DN00018,nha 38,Du lịch,bảo tàng,11.3082637,107.5072919,"Đường Hùng Vương, Phú Trung, Tân Phú, Đồng Nai, 76810",Huyện Tân Phú,nha 38 là bảo tàng tại Huyện Tân Phú.,nha 38 bảo tàng Huyện Tân Phú
DIA_DN00019,"Ấp Phú Quý 2, Xã La Ngà, Huyện Định Quán, Tỉnh Đồng Nai.",Du lịch,nhà nghỉ,11.1574303,107.2471634,"Đường Hùng Vương, La Ngà, Định Quán, Đồng Nai, 76714",Huyện Định Quán,"Ấp Phú Quý 2, Xã La Ngà, Huyện Định Quán, Tỉnh Đồng Nai. là nhà nghỉ tại Huyện Định Quán.","Ấp Phú Quý 2, Xã La Ngà, Huyện Định Quán, Tỉnh Đồng Nai. nhà nghỉ Huyện Định Quán"
DIA_DN00020,Bàu Sấu Nam Cát Tiên,Du lịch,địa điểm du lịch,11.4588741,107.3454316,"Đắc Lua, Tân Phú, Đồng Nai",Huyện Tân Phú,Bàu Sấu Nam Cát Tiên là địa điểm du lịch tại Huyện Tân Phú.,Bàu Sấu Nam Cát Tiên địa điểm du lịch Huyện Tân Phú
DIA_DN00021,Bàu Sấu,Du lịch,địa điểm du lịch,11.4591271,107.3453414,"Đắc Lua, Tân Phú, Đồng Nai",Huyện Tân Phú,Bàu Sấu là địa điểm du lịch tại Huyện Tân Phú.,Bàu Sấu địa điểm du lịch Huyện Tân Phú
DIA_DN00022,Cơm Việt,Ẩm thực,quán thức ăn nhanh,10.7036204,107.0101573,"Cơm Việt 68, Đường Quốc Lộ 51, Long Phước, Long Thành, Đồng Nai, 76213",Huyện Long Thành,Cơm Việt là quán thức ăn nhanh tại Huyện Long Thành.,Cơm Việt quán thức ăn nhanh Huyện Long Thành
DIA_DN00023,Cà phê Đồng Giao,Ẩm thực,quán cà phê,10.9534121,107.3267039,"Cafe Đồng Dao, Đường Liên Huyện Xuân Lộc-Long Khánh, Xuân Thọ, Xuân Lộc, Đồng Nai, 76611",TP. Long Khánh,Cà phê Đồng Giao là quán cà phê tại TP. Long Khánh.,Cà phê Đồng Giao quán cà phê TP. Long Khánh
DIA_DN00024,Cà Phê Củi,Ẩm thực,quán cà phê,10.9089879,107.3787862,"Xuân Hiệp, Xuân Lộc, Đồng Nai",Huyện Xuân Lộc,Cà Phê Củi là quán cà phê tại Huyện Xuân Lộc.,Cà Phê Củi quán cà phê Huyện Xuân Lộc
DIA_DN00025,cafe 131,Ẩm thực,quán cà phê,11.2784498,107.4764122,"Honda Ân, Đường Hùng Vương, Phú Thanh, Tân Phú, Đồng Nai, 76820",Huyện Tân Phú,cafe 131 là quán cà phê tại Huyện Tân Phú.,cafe 131 quán cà phê Huyện Tân Phú
DIA_DN00026,CH Rosa,Ẩm thực,nhà hàng,11.0129983,107.1748249,"Đường Quốc Lộ 20, Quang Trung, Thống Nhất, Đồng Nai, 76407",Huyện Thống Nhất,CH Rosa là nhà hàng tại Huyện Thống Nhất.,CH Rosa nhà hàng Huyện Thống Nhất
DIA_DN00027,cà phê cây Xoài,Ẩm thực,quán cà phê,10.9820167,107.1515752,"Đường Quốc Lộ 20, Bàu Hàm 2, Thống Nhất, Đồng Nai, 76407",Huyện Thống Nhất,cà phê cây Xoài là quán cà phê tại Huyện Thống Nhất.,cà phê cây Xoài quán cà phê Huyện Thống Nhất
DIA_DN00028,Hoàng Xuân Lâm,Ẩm thực,nhà hàng,10.9968079,107.1541376,"Đường Tỉnh Lộ 762, Quang Trung, Thống Nhất, Đồng Nai, 76407",Huyện Thống Nhất,Hoàng Xuân Lâm là nhà hàng tại Huyện Thống Nhất.,Hoàng Xuân Lâm nhà hàng Huyện Thống Nhất
DIA_DN00029,Nhà Hàng Hoa Anh Đào,Du lịch,khách sạn,11.2315329,107.4406445,"Trà Cổ, Tân Phú, Đồng Nai",Huyện Tân Phú,Nhà Hàng Hoa Anh Đào là khách sạn tại Huyện Tân Phú.,Nhà Hàng Hoa Anh Đào khách sạn Huyện Tân Phú
DIA_DN00030,trứ hằng,Ẩm thực,nhà hàng,11.1626937,107.2864419,"Đường Hùng Vương, Phú Ngọc, Định Quán, Đồng Nai, 76713",Huyện Định Quán,trứ hằng là nhà hàng tại Huyện Định Quán.,trứ hằng nhà hàng Huyện Định Quán
DIA_DN00031,Ngọc Minh Anh,Ẩm thực,nhà hàng,10.6960945,107.016365,"Quốc Lộ 51, Phước Thái, Long Thành, Đồng Nai, 76214",Huyện Long Thành,Ngọc Minh Anh là nhà hàng tại Huyện Long Thành.,Ngọc Minh Anh nhà hàng Huyện Long Thành
DIA_DN00032,Chợ Phước Hoà,Du lịch,chợ,10.7111536,107.0057555,"1431 Quốc Lộ 51, Long Phước, Long Thành, Đồng Nai, 76213",Huyện Long Thành,Chợ Phước Hoà là chợ tại Huyện Long Thành.,Chợ Phước Hoà chợ Huyện Long Thành
DIA_DN00033,Hoàng Minh Châu,Du lịch,khách sạn,10.6597755,107.0368887,"Hair Salon Kim Hiền, Phước Bình, Long Thành, Đồng Nai, 76216",Huyện Long Thành,Hoàng Minh Châu là khách sạn tại Huyện Long Thành.,Hoàng Minh Châu khách sạn Huyện Long Thành
DIA_DN00034,Chợ Phước Bình,Du lịch,chợ,10.659928,107.0375791,"Uốn Tóc Tuyết Hà, Phước Bình, Long Thành, Đồng Nai, 76216",Huyện Long Thành,Chợ Phước Bình là chợ tại Huyện Long Thành.,Chợ Phước Bình chợ Huyện Long Thành
DIA_DN00035,Quán cơm Út Linh,Ẩm thực,nhà hàng,10.6808662,107.0262905,"Quán Cơm Út Lành, Đường Quốc Lộ 51, Phước Thái, Long Thành, Đồng Nai, 76214",Huyện Long Thành,Quán cơm Út Linh là nhà hàng tại Huyện Long Thành.,Quán cơm Út Linh nhà hàng Huyện Long Thành
DIA_DN00036,Quán Hoàng,Ẩm thực,nhà hàng,10.6669332,107.0333771,"Quán Ăn Hoàng, Đường Quốc Lộ 51, Phước Bình, Long Thành, Đồng Nai, 76216",Huyện Long Thành,Quán Hoàng là nhà hàng tại Huyện Long Thành.,Quán Hoàng nhà hàng Huyện Long Thành
DIA_DN00037,nhà riêng,Du lịch,nhà nghỉ,10.6874515,107.0452711,"Tân Hiệp, Long Thành, Đồng Nai",Huyện Long Thành,nhà riêng là nhà nghỉ tại Huyện Long Thành.,nhà riêng nhà nghỉ Huyện Long Thành
DIA_DN00038,cơm chay,Ẩm thực,nhà hàng,10.9602958,107.140469,"272 Quốc Lộ 20, Bàu Hàm 2, Thống Nhất, Đồng Nai, 76414",Huyện Thống Nhất,cơm chay là nhà hàng tại Huyện Thống Nhất.,cơm chay nhà hàng Huyện Thống Nhất
DIA_DN00039,cơm chay,Ẩm thực,nhà hàng,10.960293,107.1400791,"Quốc Lộ 20, Bàu Hàm 2, Thống Nhất, Đồng Nai, 76414",Huyện Thống Nhất,cơm chay là nhà hàng tại Huyện Thống Nhất.,cơm chay nhà hàng Huyện Thống Nhất
DIA_DN00040,Bánh bao 69 THANH LONG,Ẩm thực,nhà hàng,10.6976553,107.0147542,"Quốc Lộ 51, Phước Thái, Long Thành, Đồng Nai, 76214",Huyện Long Thành,Bánh bao 69 THANH LONG là nhà hàng tại Huyện Long Thành.,Bánh bao 69 THANH LONG nhà hàng Huyện Long Thành
DIA_DN00041,Quán ăn ngon,Ẩm thực,nhà hàng,11.024831,107.4444056,"1340 Đường Tỉnh 766, Xuân Thành, Xuân Lộc, Đồng Nai, 76608",Huyện Xuân Lộc,Quán ăn ngon là nhà hàng tại Huyện Xuân Lộc.,Quán ăn ngon nhà hàng Huyện Xuân Lộc
DIA_DN00042,Napoli Coffee,Ẩm thực,quán cà phê,11.0385954,107.173214,"Fashion Mốt, Đường Quốc Lộ 20, Gia Tân 3, Thống Nhất, Đồng Nai, 76409",Huyện Thống Nhất,Napoli Coffee là quán cà phê tại Huyện Thống Nhất.,Napoli Coffee quán cà phê Huyện Thống Nhất
DIA_DN00043,Thúy an,Ẩm thực,nhà hàng,11.0396814,107.1733233,"Studio-Make Up Merry, Đường Quốc Lộ 20, Gia Tân 3, Thống Nhất, Đồng Nai, 76409",Huyện Thống Nhất,Thúy an là nhà hàng tại Huyện Thống Nhất.,Thúy an nhà hàng Huyện Thống Nhất
DIA_DN00044,Quan Bác Chín,Ẩm thực,nhà hàng,11.0450563,107.1724527,"Cafe Lọ Lem, Đường Quốc Lộ 20, Gia Tân 2, Thống Nhất, Đồng Nai, 76410",Huyện Thống Nhất,Quan Bác Chín là nhà hàng tại Huyện Thống Nhất.,Quan Bác Chín nhà hàng Huyện Thống Nhất
DIA_DN00045,Sushi,Ẩm thực,nhà hàng,11.0451802,107.1722317,"Tiệm Bánh Mạnh Phát, Đường Quốc Lộ 20, Gia Tân 2, Thống Nhất, Đồng Nai, 76410",Huyện Thống Nhất,Sushi là nhà hàng tại Huyện Thống Nhất.,Sushi nhà hàng Huyện Thống Nhất
DIA_DN00046,Thiên Thanh 2,Du lịch,nhà nghỉ,11.0493109,107.1714513,"Đường Quốc Lộ 20, Gia Tân 2, Thống Nhất, Đồng Nai, 76410",Huyện Thống Nhất,Thiên Thanh 2 là nhà nghỉ tại Huyện Thống Nhất.,Thiên Thanh 2 nhà nghỉ Huyện Thống Nhất
DIA_DN00047,Cơm Tấm Tám Tèo,Ẩm thực,nhà hàng,11.0143059,107.1767431,"Đường Bình Lộc, Quang Trung, Thống Nhất, Đồng Nai, 76407",Huyện Thống Nhất,Cơm Tấm Tám Tèo là nhà hàng tại Huyện Thống Nhất.,Cơm Tấm Tám Tèo nhà hàng Huyện Thống Nhất
DIA_DN00048,Quán Ăn Cơm Niêu,Ẩm thực,nhà hàng,11.0128315,107.1752974,"Quán Diễm Hương, Đường Quốc Lộ 20, Quang Trung, Thống Nhất, Đồng Nai, 76407",Huyện Thống Nhất,Quán Ăn Cơm Niêu là nhà hàng tại Huyện Thống Nhất.,Quán Ăn Cơm Niêu nhà hàng Huyện Thống Nhất
DIA_DN00049,Home Cơm,Ẩm thực,nhà hàng,11.0133133,107.1757963,"Đường Quốc Lộ 20, Quang Trung, Thống Nhất, Đồng Nai, 76407",Huyện Thống Nhất,Home Cơm là nhà hàng tại Huyện Thống Nhất.,Home Cơm nhà hàng Huyện Thống Nhất
DIA_DN00050,9 Tỷ Dê,Ẩm thực,nhà hàng,11.0140426,107.1765769,"Garage Việt, Đường Quốc Lộ 20, Quang Trung, Thống Nhất, Đồng Nai, 76407",Huyện Thống Nhất,9 Tỷ Dê là nhà hàng tại Huyện Thống Nhất.,9 Tỷ Dê nhà hàng Huyện Thống Nhất
DIA_DN00051,Tây Hồ,Ẩm thực,nhà hàng,10.9586195,107.1400291,"Quốc Lộ 20, Bàu Hàm 2, Thống Nhất, Đồng Nai, 76414",Huyện Thống Nhất,Tây Hồ là nhà hàng tại Huyện Thống Nhất.,Tây Hồ nhà hàng Huyện Thống Nhất
DIA_DN00052,Anh Hậu P Lâm,Du lịch,homestay,11.261629,107.4220923,"Đường Hùng Vương, Tân Phú, Đồng Nai, 76806",Huyện Tân Phú,Anh Hậu P Lâm là homestay tại Huyện Tân Phú.,Anh Hậu P Lâm homestay Huyện Tân Phú
DIA_DN00053,nha Vinh Am,Du lịch,homestay,11.0418062,107.2267333,"Xuân Thiện, Thống Nhất, Đồng Nai",Huyện Thống Nhất,nha Vinh Am là homestay tại Huyện Thống Nhất.,nha Vinh Am homestay Huyện Thống Nhất
DIA_DN00054,Tư Hoà 112,Ẩm thực,nhà hàng,11.1814941,107.3433382,"Đường Hùng Vương, Định Quán, Đồng Nai, 76706",Huyện Định Quán,Tư Hoà 112 là nhà hàng tại Huyện Định Quán.,Tư Hoà 112 nhà hàng Huyện Định Quán
DIA_DN00055,Địa điểm,Du lịch,bảo tàng,10.9034456,107.4842612,"Xuân Tâm, Xuân Lộc, Đồng Nai",Huyện Xuân Lộc,Địa điểm là bảo tàng tại Huyện Xuân Lộc.,Địa điểm bảo tàng Huyện Xuân Lộc
DIA_DN00056,Xe,Du lịch,bảo tàng,10.9012903,107.4718903,"Xuân Tâm, Xuân Lộc, Đồng Nai",Huyện Xuân Lộc,Xe là bảo tàng tại Huyện Xuân Lộc.,Xe bảo tàng Huyện Xuân Lộc
DIA_DN00057,Pho Phu,Ẩm thực,nhà hàng,10.7288799,106.9923356,"Quốc Lộ 51, Long Phước, Long Thành, Đồng Nai, 76213",Huyện Long Thành,Pho Phu là nhà hàng tại Huyện Long Thành.,Pho Phu nhà hàng Huyện Long Thành
DIA_DN00058,NĐ Garden,Ẩm thực,quán cà phê,10.714297,107.0028285,"1210 Quốc Lộ 51, Long Phước, Long Thành, Đồng Nai, 76213",Huyện Long Thành,NĐ Garden là quán cà phê tại Huyện Long Thành.,NĐ Garden quán cà phê Huyện Long Thành
DIA_DN00059,Northsea,Ẩm thực,nhà hàng,10.7251374,106.9954902,"1162 Quốc Lộ 51, Long Phước, Long Thành, Đồng Nai, 76213",Huyện Long Thành,Northsea là nhà hàng tại Huyện Long Thành.,Northsea nhà hàng Huyện Long Thành
DIA_DN00060,Thanh Long 1,Ẩm thực,nhà hàng,10.7090999,107.0058522,"Quốc Lộ 51, Long Phước, Long Thành, Đồng Nai, 76213",Huyện Long Thành,Thanh Long 1 là nhà hàng tại Huyện Long Thành.,Thanh Long 1 nhà hàng Huyện Long Thành
DIA_DN00061,Cafe Phuong Bac,Ẩm thực,quán cà phê,11.1574109,107.2416924,"Đường Hùng Vương, La Ngà, Định Quán, Đồng Nai, 76714",Huyện Định Quán,Cafe Phuong Bac là quán cà phê tại Huyện Định Quán.,Cafe Phuong Bac quán cà phê Huyện Định Quán
DIA_DN00062,cà phê võng,Ẩm thực,quán cà phê,11.3696329,107.5149956,"Phú An, Tân Phú, Đồng Nai",Huyện Tân Phú,cà phê võng là quán cà phê tại Huyện Tân Phú.,cà phê võng quán cà phê Huyện Tân Phú
DIA_DN00063,Xe 2,Du lịch,bảo tàng,10.904872,107.4794735,"Xuân Tâm, Xuân Lộc, Đồng Nai",Huyện Xuân Lộc,Xe 2 là bảo tàng tại Huyện Xuân Lộc.,Xe 2 bảo tàng Huyện Xuân Lộc
DIA_DN00064,Container,Du lịch,homestay,11.2769853,107.4484984,"Phú Xuân, Tân Phú, Đồng Nai",Huyện Tân Phú,Container là homestay tại Huyện Tân Phú.,Container homestay Huyện Tân Phú
DIA_DN00065,Thuỷ Mộc Garden,Ẩm thực,quán cà phê,10.7237166,107.053925,"Bàu Cạn, Long Thành, Đồng Nai",Huyện Long Thành,Thuỷ Mộc Garden là quán cà phê tại Huyện Long Thành.,Thuỷ Mộc Garden quán cà phê Huyện Long Thành
DIA_DN00066,Không Gian Tím,Ẩm thực,quán cà phê,10.7244966,107.0550676,"Bàu Cạn, Long Thành, Đồng Nai",Huyện Long Thành,Không Gian Tím là quán cà phê tại Huyện Long Thành.,Không Gian Tím quán cà phê Huyện Long Thành
DIA_DN00067,Đậu coffee,Ẩm thực,quán cà phê,10.7237693,107.0586618,"Cơm Tấm Sườn Cây, Bàu Cạn, Long Thành, Đồng Nai, 76217",Huyện Long Thành,Đậu coffee là quán cà phê tại Huyện Long Thành.,Đậu coffee quán cà phê Huyện Long Thành
DIA_DN00068,QA-Út Hiên -Lý Thái Tổ-Ấp Cát Lái- Đại Phước-,Ẩm thực,nhà hàng,10.7525473,106.7940511,"Đường Phan Văn Đáng, Phú Hữu, Nhơn Trạch, Đồng Nai, 76260",Huyện Nhơn Trạch,QA-Út Hiên -Lý Thái Tổ-Ấp Cát Lái- Đại Phước- là nhà hàng tại Huyện Nhơn Trạch.,QA-Út Hiên -Lý Thái Tổ-Ấp Cát Lái- Đại Phước- nhà hàng Huyện Nhơn Trạch
DIA_DN00069,CF-Hoa Sứ -Hùng Vương-Ấp Thị Cầu- Phú Đông-,Ẩm thực,quán cà phê,10.714163,106.8036389,"Đường Võ Thị Sáu, Phú Đông, Nhơn Trạch, Đồng Nai, 76261",Huyện Nhơn Trạch,CF-Hoa Sứ -Hùng Vương-Ấp Thị Cầu- Phú Đông- là quán cà phê tại Huyện Nhơn Trạch.,CF-Hoa Sứ -Hùng Vương-Ấp Thị Cầu- Phú Đông- quán cà phê Huyện Nhơn Trạch
DIA_DN00070,CF- An -Phạm Thái Bường-Ấp Hoà Bình- Phước Khánh-,Ẩm thực,quán cà phê,10.690295,106.8016533,"Đường Phạm Thái Bường, Phước Khánh, Nhơn Trạch, Đồng Nai, 76263",Huyện Nhơn Trạch,CF- An -Phạm Thái Bường-Ấp Hoà Bình- Phước Khánh- là quán cà phê tại Huyện Nhơn Trạch.,CF- An -Phạm Thái Bường-Ấp Hoà Bình- Phước Khánh- quán cà phê Huyện Nhơn Trạch
DIA_DN00071,QA-Đồng Quê 1 -Phạm Thái Bường-Ấp Hoà Bình- Phước Khánh-,Ẩm thực,nhà hàng,10.6851512,106.7932091,"Đường Phạm Thái Bường, Phước Khánh, Nhơn Trạch, Đồng Nai, 76263",Huyện Nhơn Trạch,QA-Đồng Quê 1 -Phạm Thái Bường-Ấp Hoà Bình- Phước Khánh- là nhà hàng tại Huyện Nhơn Trạch.,QA-Đồng Quê 1 -Phạm Thái Bường-Ấp Hoà Bình- Phước Khánh- nhà hàng Huyện Nhơn Trạch
DIA_DN00072,QA-Phương Vy -Phạm Thái Bường-Ấp Hoà Bình- Phước Khánh-có tủ,Ẩm thực,nhà hàng,10.6815912,106.7881034,"Đường Phạm Thái Bường, Phước Khánh, Nhơn Trạch, Đồng Nai, 76263",Huyện Nhơn Trạch,QA-Phương Vy -Phạm Thái Bường-Ấp Hoà Bình- Phước Khánh-có tủ là nhà hàng tại Huyện Nhơn Trạch.,QA-Phương Vy -Phạm Thái Bường-Ấp Hoà Bình- Phước Khánh-có tủ nhà hàng Huyện Nhơn Trạch
DIA_DN00073,CF-Nam Dương -Phạm Thái Bường-Ấp Hoà Bình- Phước Khánh-,Ẩm thực,quán cà phê,10.6809797,106.787693,"Đường Phạm Thái Bường, Phước Khánh, Nhơn Trạch, Đồng Nai, 76263",Huyện Nhơn Trạch,CF-Nam Dương -Phạm Thái Bường-Ấp Hoà Bình- Phước Khánh- là quán cà phê tại Huyện Nhơn Trạch.,CF-Nam Dương -Phạm Thái Bường-Ấp Hoà Bình- Phước Khánh- quán cà phê Huyện Nhơn Trạch
DIA_DN00074,NET-Blue c -Phạm Thái Bường-Ấp 2- Phước Khánh-,Khác,địa điểm,10.6789303,106.7880889,"Phước Khánh, Nhơn Trạch, Đồng Nai",Huyện Nhơn Trạch,NET-Blue c -Phạm Thái Bường-Ấp 2- Phước Khánh- là địa điểm tại Huyện Nhơn Trạch.,NET-Blue c -Phạm Thái Bường-Ấp 2- Phước Khánh- địa điểm Huyện Nhơn Trạch
DIA_DN00075,CF-Bến Thượng Hải -Phạm Thái Bường-Ấp 2- Phước Khánh-,Ẩm thực,quán cà phê,10.6749264,106.7869656,"Phước Khánh, Nhơn Trạch, Đồng Nai",Huyện Nhơn Trạch,CF-Bến Thượng Hải -Phạm Thái Bường-Ấp 2- Phước Khánh- là quán cà phê tại Huyện Nhơn Trạch.,CF-Bến Thượng Hải -Phạm Thái Bường-Ấp 2- Phước Khánh- quán cà phê Huyện Nhơn Trạch
DIA_DN00076,CF-Thanh Nga -Phạm Thái Bường-Ấp 2- Phước Khánh-có tủ,Ẩm thực,quán cà phê,10.6745002,106.7892561,"Phước Khánh, Nhơn Trạch, Đồng Nai",Huyện Nhơn Trạch,CF-Thanh Nga -Phạm Thái Bường-Ấp 2- Phước Khánh-có tủ là quán cà phê tại Huyện Nhơn Trạch.,CF-Thanh Nga -Phạm Thái Bường-Ấp 2- Phước Khánh-có tủ quán cà phê Huyện Nhơn Trạch
DIA_DN00077,CF-Tùng -Phạm Thái Bường-Ấp 2- Phước Khánh-có tủ,Ẩm thực,quán cà phê,10.6745602,106.789291,"Phước Khánh, Nhơn Trạch, Đồng Nai",Huyện Nhơn Trạch,CF-Tùng -Phạm Thái Bường-Ấp 2- Phước Khánh-có tủ là quán cà phê tại Huyện Nhơn Trạch.,CF-Tùng -Phạm Thái Bường-Ấp 2- Phước Khánh-có tủ quán cà phê Huyện Nhơn Trạch
DIA_DN00078,KDL-Bằng Lăng Tím Hùng Vương-Ấp Chính Nghĩa-Vĩnh Thanh-,Du lịch,địa điểm du lịch,10.6626679,106.8584542,"Phước Khánh, Nhơn Trạch, Đồng Nai",Huyện Nhơn Trạch,KDL-Bằng Lăng Tím Hùng Vương-Ấp Chính Nghĩa-Vĩnh Thanh- là địa điểm du lịch tại Huyện Nhơn Trạch.,KDL-Bằng Lăng Tím Hùng Vương-Ấp Chính Nghĩa-Vĩnh Thanh- địa điểm du lịch Huyện Nhơn Trạch
DIA_DN00079,KDL-Bò Cạp Vàng Hùng Vương-Ấp Chính Nghĩa-Vĩnh Thanh-,Du lịch,địa điểm du lịch,10.6591759,106.8560403,"Phước Khánh, Nhơn Trạch, Đồng Nai",Huyện Nhơn Trạch,KDL-Bò Cạp Vàng Hùng Vương-Ấp Chính Nghĩa-Vĩnh Thanh- là địa điểm du lịch tại Huyện Nhơn Trạch.,KDL-Bò Cạp Vàng Hùng Vương-Ấp Chính Nghĩa-Vĩnh Thanh- địa điểm du lịch Huyện Nhơn Trạch
DIA_DN00080,TUk TUk Long Thành,Ẩm thực,quán bar,10.6843743,107.0225839,"Đường Quốc Lộ 51, Phước Thái, Long Thành, Đồng Nai, 76214",Huyện Long Thành,TUk TUk Long Thành là quán bar tại Huyện Long Thành.,TUk TUk Long Thành quán bar Huyện Long Thành
DIA_DN00081,"Cẩm Mỹ, Đồng Nai",Du lịch,homestay,10.7689956,107.3454128,"Xuân Tây, Cẩm Mỹ, Đồng Nai",Huyện Cẩm Mỹ,"Cẩm Mỹ, Đồng Nai là homestay tại Huyện Cẩm Mỹ.","Cẩm Mỹ, Đồng Nai homestay Huyện Cẩm Mỹ"
DIA_DN00082,Đất Hồ Sông Ray,Du lịch,nhà nghỉ,10.6790329,107.3377448,"Lâm San, Cẩm Mỹ, Đồng Nai",Huyện Cẩm Mỹ,Đất Hồ Sông Ray là nhà nghỉ tại Huyện Cẩm Mỹ.,Đất Hồ Sông Ray nhà nghỉ Huyện Cẩm Mỹ
DIA_DN00083,Đá Ba Chồng,Du lịch,địa điểm du lịch,11.190788,107.3484014,"Đường Hùng Vương, Định Quán, Đồng Nai, 76706",Huyện Định Quán,Đá Ba Chồng là địa điểm du lịch tại Huyện Định Quán.,Đá Ba Chồng địa điểm du lịch Huyện Định Quán
DIA_DN00084,Khu Nhà Nghỉ Dưỡng Hi Vọng Xanh,Du lịch,homestay,11.4266271,107.4345619,"Nam Cát Tiên, Tân Phú, Đồng Nai",Huyện Tân Phú,Khu Nhà Nghỉ Dưỡng Hi Vọng Xanh là homestay tại Huyện Tân Phú.,Khu Nhà Nghỉ Dưỡng Hi Vọng Xanh homestay Huyện Tân Phú
DIA_DN00085,Cây Tung Cô Thụ,Du lịch,địa điểm du lịch,11.4506693,107.3644575,"Đắc Lua, Tân Phú, Đồng Nai",Huyện Tân Phú,Cây Tung Cô Thụ là địa điểm du lịch tại Huyện Tân Phú.,Cây Tung Cô Thụ địa điểm du lịch Huyện Tân Phú
DIA_DN00086,KFC,Ẩm thực,quán thức ăn nhanh,10.9587962,106.8341887,"1276 Đường Phạm Văn Thuận, Tân Tiến, Biên Hòa, Đồng Nai, 76115",TP. Biên Hòa,KFC là quán thức ăn nhanh tại TP. Biên Hòa.,KFC quán thức ăn nhanh TP. Biên Hòa
DIA_DN00087,Restaurant,Ẩm thực,nhà hàng,11.4230563,107.4288735,"Đắc Lua, Tân Phú, Đồng Nai",Huyện Tân Phú,Restaurant là nhà hàng tại Huyện Tân Phú.,Restaurant nhà hàng Huyện Tân Phú
DIA_DN00088,Lotteria,Ẩm thực,quán thức ăn nhanh,10.9577874,106.8434766,"Đường Phạm Văn Thuận, Thống Nhất, Biên Hòa, Đồng Nai",TP. Biên Hòa,Lotteria là quán thức ăn nhanh tại TP. Biên Hòa.,Lotteria quán thức ăn nhanh TP. Biên Hòa
DIA_DN00089,Ốc Hai Lúa,Ẩm thực,nhà hàng,10.961506,106.8544154,"Quán Bồ Câu 242, 6 Đường Trương Định, Tân Mai, Biên Hòa, Đồng Nai, 76135",TP. Biên Hòa,Ốc Hai Lúa là nhà hàng tại TP. Biên Hòa.,Ốc Hai Lúa nhà hàng TP. Biên Hòa
DIA_DN00090,Highlands Coffee,Ẩm thực,quán cà phê,10.9665422,106.8546238,"1135 Đường Nguyễn Ái Quốc, Tân Hiệp, Biên Hòa, Đồng Nai, 76111",TP. Biên Hòa,Highlands Coffee là quán cà phê tại TP. Biên Hòa.,Highlands Coffee quán cà phê TP. Biên Hòa
DIA_DN00091,Bún Bò,Ẩm thực,quán pub,10.8862405,106.9002588,"Quốc Lộ 51, Phước Tân, Biên Hòa, Đồng Nai, 76132",TP. Biên Hòa,Bún Bò là quán pub tại TP. Biên Hòa.,Bún Bò quán pub TP. Biên Hòa
DIA_DN00092,Lotteria,Ẩm thực,quán thức ăn nhanh,10.9484286,106.8169121,"Lotteria Vinatex Biên Hòa, 3 Đường Nguyễn Văn Nghĩa, Quang Vinh, Biên Hòa, Đồng Nai, 76119",TP. Biên Hòa,Lotteria là quán thức ăn nhanh tại TP. Biên Hòa.,Lotteria quán thức ăn nhanh TP. Biên Hòa
DIA_DN00093,Nem Bắc,Ẩm thực,quán thức ăn nhanh,10.9566492,106.8512088,"Đường Dương Bạch Mai, Tân Mai, Biên Hòa, Đồng Nai, 76135",TP. Biên Hòa,Nem Bắc là quán thức ăn nhanh tại TP. Biên Hòa.,Nem Bắc quán thức ăn nhanh TP. Biên Hòa
DIA_DN00094,Nhà Nghỉ Tú Anh,Du lịch,nhà nghỉ,11.2302483,107.3024179,"Ngọc Định, Định Quán, Đồng Nai",Huyện Định Quán,Nhà Nghỉ Tú Anh là nhà nghỉ tại Huyện Định Quán.,Nhà Nghỉ Tú Anh nhà nghỉ Huyện Định Quán
DIA_DN00095,Bánh mì chay Lạc Tâm,Ẩm thực,quán thức ăn nhanh,10.9480509,106.8149987,"Vựa Gạo Trúc Đào, 81 Đường Phan Chu Trinh, Hòa Bình, Biên Hòa, Đồng Nai, 76122",TP. Biên Hòa,Bánh mì chay Lạc Tâm là quán thức ăn nhanh tại TP. Biên Hòa.,Bánh mì chay Lạc Tâm quán thức ăn nhanh TP. Biên Hòa
DIA_DN00096,Chợ đêm Biên Hùng,Du lịch,chợ,10.9533848,106.8215467,"Quán Bia Tươi 33, 39/141 Đường Trịnh Hoài Đức, Trung Dũng, Biên Hòa, Đồng Nai, 76118",TP. Biên Hòa,Chợ đêm Biên Hùng là chợ tại TP. Biên Hòa.,Chợ đêm Biên Hùng chợ TP. Biên Hòa
DIA_DN00097,Neo Suki,Ẩm thực,nhà hàng,10.9468166,106.8276402,"Cửa Hàng Tạp Hóa Chị Nguyệt, R64 Đường Võ Thị Sáu, Thống Nhất, Biên Hòa, Đồng Nai, 76108",TP. Biên Hòa,Neo Suki là nhà hàng tại TP. Biên Hòa.,Neo Suki nhà hàng TP. Biên Hòa
DIA_DN00098,Homestay Tây,Du lịch,homestay,11.0223864,107.0492927,"Cây Gáo, Trảng Bom, Đồng Nai",Huyện Trảng Bom,Homestay Tây là homestay tại Huyện Trảng Bom.,Homestay Tây homestay Huyện Trảng Bom
DIA_DN00099,KOI Coffee,Ẩm thực,quán cà phê,10.9229223,107.2597827,"Hẻm 430 Hồ Thị Hương, Bàu Trâm, Long Khánh, Đồng Nai, 76458",TP. Long Khánh,KOI Coffee là quán cà phê tại TP. Long Khánh.,KOI Coffee quán cà phê TP. Long Khánh
DIA_DN00100,Lẩu Tôm 5 Ri,Ẩm thực,nhà hàng,10.9507292,106.8089206,"Hẻm 293/26 Cách Mạng Tháng 8, Hòa Bình, Biên Hòa, Đồng Nai, 76122",TP. Biên Hòa,Lẩu Tôm 5 Ri là nhà hàng tại TP. Biên Hòa.,Lẩu Tôm 5 Ri nhà hàng TP. Biên Hòa
DIA_DN00101,Mann Coffee,Ẩm thực,quán cà phê,11.1131837,106.9893348,"Hiếu Liêm, Vĩnh Cửu, Đồng Nai",Huyện Vĩnh Cửu,Mann Coffee là quán cà phê tại Huyện Vĩnh Cửu.,Mann Coffee quán cà phê Huyện Vĩnh Cửu
DIA_DN00102,Bò Năm Hoà,Ẩm thực,nhà hàng,10.7756741,106.9562002,"9 Đường Đinh Bộ Lĩnh, Long Thành, Đồng Nai, 76206",Huyện Long Thành,Bò Năm Hoà là nhà hàng tại Huyện Long Thành.,Bò Năm Hoà nhà hàng Huyện Long Thành
DIA_DN00103,Green Bamboo Lodge,Du lịch,khách sạn,11.420824,107.4302228,"Nam Cát Tiên, Tân Phú, Đồng Nai",Huyện Tân Phú,Green Bamboo Lodge là khách sạn tại Huyện Tân Phú.,Green Bamboo Lodge khách sạn Huyện Tân Phú
DIA_DN00104,Cửa Hàng Tiện Lợi - Cam Xanh Xanh Cam,Ẩm thực,quán thức ăn nhanh,10.9475835,107.0083777,"Mì Độ An Phát, Trảng Bom, Đồng Nai, 76306",Huyện Trảng Bom,Cửa Hàng Tiện Lợi - Cam Xanh Xanh Cam là quán thức ăn nhanh tại Huyện Trảng Bom.,Cửa Hàng Tiện Lợi - Cam Xanh Xanh Cam quán thức ăn nhanh Huyện Trảng Bom
DIA_DN00105,Lava Rock Viet Nam Lodge,Du lịch,khách sạn,11.4213545,107.4305206,"Nam Cát Tiên, Tân Phú, Đồng Nai",Huyện Tân Phú,Lava Rock Viet Nam Lodge là khách sạn tại Huyện Tân Phú.,Lava Rock Viet Nam Lodge khách sạn Huyện Tân Phú
DIA_DN00106,iD Lounge,Ẩm thực,quán cà phê,10.7646353,106.9466246,"Long Thành, Đồng Nai",Huyện Long Thành,iD Lounge là quán cà phê tại Huyện Long Thành.,iD Lounge quán cà phê Huyện Long Thành
DIA_DN00107,KHÁCH SẠN D & T,Du lịch,khách sạn,10.9421471,107.1391284,"Đường Quốc Lộ 1, Xuân Thạnh, Thống Nhất, Đồng Nai, 76414",Huyện Thống Nhất,KHÁCH SẠN D & T là khách sạn tại Huyện Thống Nhất.,KHÁCH SẠN D & T khách sạn Huyện Thống Nhất
DIA_DN00108,Maktub Eatery & homebar,Ẩm thực,nhà hàng,10.7468708,106.7928574,"Đường Phan Văn Đáng, Phú Hữu, Nhơn Trạch, Đồng Nai, 76260",Huyện Nhơn Trạch,Maktub Eatery & homebar là nhà hàng tại Huyện Nhơn Trạch.,Maktub Eatery & homebar nhà hàng Huyện Nhơn Trạch
DIA_DN00109,Tiệm Trà Xinh,Ẩm thực,quán cà phê,11.0021825,106.9866332,"Cắt Tóc Nam Mr Huy, Đường Tỉnh Lộ 767, Bắc Sơn, Trảng Bom, Đồng Nai, 76313",Huyện Trảng Bom,Tiệm Trà Xinh là quán cà phê tại Huyện Trảng Bom.,Tiệm Trà Xinh quán cà phê Huyện Trảng Bom
DIA_DN00110,Thèm Food & Tea,Ẩm thực,quán thức ăn nhanh,11.0899609,107.1996341,"Cửa Hàng Tạp Hóa Cô Thêu, Túc Trưng, Định Quán, Đồng Nai, 76716",Huyện Định Quán,Thèm Food & Tea là quán thức ăn nhanh tại Huyện Định Quán.,Thèm Food & Tea quán thức ăn nhanh Huyện Định Quán
DIA_DN00111,Quản Cô Hiền,Ẩm thực,nhà hàng,11.1089161,107.0279349,"Cơ Khí Đại Lộc, Đường Quang Trung, Vĩnh An, Vĩnh Cửu, Đồng Nai, 76906",Huyện Vĩnh Cửu,Quản Cô Hiền là nhà hàng tại Huyện Vĩnh Cửu.,Quản Cô Hiền nhà hàng Huyện Vĩnh Cửu
DIA_DN00112,Jollibee,Ẩm thực,quán thức ăn nhanh,10.9665049,106.8549853,"Hẻm 548 Đồng Khởi, Tân Hiệp, Biên Hòa, Đồng Nai, 76111",TP. Biên Hòa,Jollibee là quán thức ăn nhanh tại TP. Biên Hòa.,Jollibee quán thức ăn nhanh TP. Biên Hòa
DIA_DN00113,KFC,Ẩm thực,quán thức ăn nhanh,10.9663346,106.8549842,"14 Hẻm 548 Đồng Khởi, Tân Hiệp, Biên Hòa, Đồng Nai, 76111",TP. Biên Hòa,KFC là quán thức ăn nhanh tại TP. Biên Hòa.,KFC quán thức ăn nhanh TP. Biên Hòa
DIA_DN00114,Cụm công trình Văn hóa,Du lịch,công viên,10.9602922,106.813802,"Đường Phan Đình Phùng, Tân Phong, Biên Hòa, Đồng Nai, 76117",TP. Biên Hòa,Cụm công trình Văn hóa là công viên tại TP. Biên Hòa.,Cụm công trình Văn hóa công viên TP. Biên Hòa
DIA_DN00115,Chợ Xuân Quế,Du lịch,chợ,10.8442331,107.1663828,"Dịch Vụ Vi Tính Phước Long, Xuân Quế, Cẩm Mỹ, Đồng Nai, 76507",Huyện Cẩm Mỹ,Chợ Xuân Quế là chợ tại Huyện Cẩm Mỹ.,Chợ Xuân Quế chợ Huyện Cẩm Mỹ
DIA_DN00116,Bún riêu cua 6868,Ẩm thực,nhà hàng,10.9622136,106.8495798,"Hẻm 148 Phan Trung, Tân Tiến, Biên Hòa, Đồng Nai, 76115",TP. Biên Hòa,Bún riêu cua 6868 là nhà hàng tại TP. Biên Hòa.,Bún riêu cua 6868 nhà hàng TP. Biên Hòa
DIA_DN00117,Flamme Buffalo,Ẩm thực,nhà hàng,10.9584026,106.8434337,"Điểm Mua Bán Sắt - Đồng - Nhôm, Đường Trương Định, Tân Mai, Biên Hòa, Đồng Nai, 76135",TP. Biên Hòa,Flamme Buffalo là nhà hàng tại TP. Biên Hòa.,Flamme Buffalo nhà hàng TP. Biên Hòa
DIA_DN00118,Nhà hàng Tây Bắc,Ẩm thực,nhà hàng,11.4205878,107.4314311,"Nam Cát Tiên, Tân Phú, Đồng Nai",Huyện Tân Phú,Nhà hàng Tây Bắc là nhà hàng tại Huyện Tân Phú.,Nhà hàng Tây Bắc nhà hàng Huyện Tân Phú
DIA_DN00119,Hơi Thở Rừng,Ẩm thực,nhà hàng,11.4206823,107.4310338,"Nam Cát Tiên, Tân Phú, Đồng Nai",Huyện Tân Phú,Hơi Thở Rừng là nhà hàng tại Huyện Tân Phú.,Hơi Thở Rừng nhà hàng Huyện Tân Phú
DIA_DN00120,Cà phê Cát Tiên mơ,Ẩm thực,quán cà phê,11.4209196,107.4302288,"Nam Cát Tiên, Tân Phú, Đồng Nai",Huyện Tân Phú,Cà phê Cát Tiên mơ là quán cà phê tại Huyện Tân Phú.,Cà phê Cát Tiên mơ quán cà phê Huyện Tân Phú
DIA_DN00121,Lava Rock,Ẩm thực,nhà hàng,11.4207067,107.4305415,"Nam Cát Tiên, Tân Phú, Đồng Nai",Huyện Tân Phú,Lava Rock là nhà hàng tại Huyện Tân Phú.,Lava Rock nhà hàng Huyện Tân Phú
DIA_DN00122,Bamboo,Ẩm thực,nhà hàng,11.4207303,107.4304208,"Nam Cát Tiên, Tân Phú, Đồng Nai",Huyện Tân Phú,Bamboo là nhà hàng tại Huyện Tân Phú.,Bamboo nhà hàng Huyện Tân Phú
DIA_DN00123,pho,Ẩm thực,nhà hàng,11.4220669,107.4363239,"Cửa Sắt Đức Tiến 2, Đường Vườn Quốc Gia Cát Tiên, Nam Cát Tiên, Tân Phú, Đồng Nai, 76813",Huyện Tân Phú,pho là nhà hàng tại Huyện Tân Phú.,pho nhà hàng Huyện Tân Phú
DIA_DN00124,BBQ,Ẩm thực,nhà hàng,11.4248836,107.4337147,"Đường 600A, Nam Cát Tiên, Tân Phú, Đồng Nai, 76813",Huyện Tân Phú,BBQ là nhà hàng tại Huyện Tân Phú.,BBQ nhà hàng Huyện Tân Phú
DIA_DN00125,Botanical Garden Area - nothing special to be seen here,Du lịch,địa điểm du lịch,11.4415798,107.4305197,"Đắc Lua, Tân Phú, Đồng Nai",Huyện Tân Phú,Botanical Garden Area - nothing special to be seen here là địa điểm du lịch tại Huyện Tân Phú.,Botanical Garden Area - nothing special to be seen here địa điểm du lịch Huyện Tân Phú
DIA_DN00126,Cafe Cội Nguồn,Ẩm thực,quán cà phê,10.9365129,106.8311907,"149 Đường Đỗ Văn Thi, Hiệp Hòa, Biên Hòa, Đồng Nai, 76126",TP. Biên Hòa,Cafe Cội Nguồn là quán cà phê tại TP. Biên Hòa.,Cafe Cội Nguồn quán cà phê TP. Biên Hòa
DIA_DN00127,Khu du lịch Thác Giang Điền,Du lịch,địa điểm du lịch,10.9168296,106.989119,"Khu Du Lịch Thác Giang Điền, Giang Điền, Trảng Bom, Đồng Nai",Huyện Trảng Bom,Khu du lịch Thác Giang Điền là địa điểm du lịch tại Huyện Trảng Bom.,Khu du lịch Thác Giang Điền địa điểm du lịch Huyện Trảng Bom
DIA_DN00128,Chợ Biên Hòa,Du lịch,chợ,10.9464622,106.8143888,"Đường Phan Chu Trinh, Thanh Bình, Biên Hòa, Đồng Nai, 76106",TP. Biên Hòa,Chợ Biên Hòa là chợ tại TP. Biên Hòa.,Chợ Biên Hòa chợ TP. Biên Hòa
DIA_DN00129,Nhà thiếu nhi tỉnh Đồng Nai,Du lịch,công viên,10.9458424,106.816716,"Đường Nguyễn Văn Trị, Thanh Bình, Biên Hòa, Đồng Nai, 76106",TP. Biên Hòa,Nhà thiếu nhi tỉnh Đồng Nai là công viên tại TP. Biên Hòa.,Nhà thiếu nhi tỉnh Đồng Nai công viên TP. Biên Hòa
DIA_DN00130,Công viên Lam Sơn,Du lịch,công viên,10.9084709,106.8481238,"Đường Lê Văn Duyệt, An Bình, Biên Hòa, Đồng Nai, 76128",TP. Biên Hòa,Công viên Lam Sơn là công viên tại TP. Biên Hòa.,Công viên Lam Sơn công viên TP. Biên Hòa
DIA_DN00131,Công viên Khu Công nghiệp Biên Hoà 2,Du lịch,công viên,10.9077788,106.8561365,"Đường Số 3A, Long Bình Tân, Biên Hòa, Đồng Nai, 76129",TP. Biên Hòa,Công viên Khu Công nghiệp Biên Hoà 2 là công viên tại TP. Biên Hòa.,Công viên Khu Công nghiệp Biên Hoà 2 công viên TP. Biên Hòa
DIA_DN00132,Công viên Quyết Thắng,Du lịch,công viên,10.9489236,106.8221204,"Công Viên, Đường Hà Huy Giáp, Biên Hòa, Đồng Nai, 76107",TP. Biên Hòa,Công viên Quyết Thắng là công viên tại TP. Biên Hòa.,Công viên Quyết Thắng công viên TP. Biên Hòa
DIA_DN00133,Công viên Khu dân cư Bửu Long,Du lịch,công viên,10.956918,106.8086232,"Đường N7, Bửu Long, Biên Hòa, Đồng Nai, 76120",TP. Biên Hòa,Công viên Khu dân cư Bửu Long là công viên tại TP. Biên Hòa.,Công viên Khu dân cư Bửu Long công viên TP. Biên Hòa
DIA_DN00134,Chợ Trảng Bom,Du lịch,chợ,10.9551262,107.0144046,"86 Đường Phan Chu Trinh, Trảng Bom, Đồng Nai, 76306",Huyện Trảng Bom,Chợ Trảng Bom là chợ tại Huyện Trảng Bom.,Chợ Trảng Bom chợ Huyện Trảng Bom
DIA_DN00135,Chợ Long Thành,Du lịch,chợ,10.7770924,106.9562343,"Đường N4, Long Thành, Đồng Nai, 76206",Huyện Long Thành,Chợ Long Thành là chợ tại Huyện Long Thành.,Chợ Long Thành chợ Huyện Long Thành
DIA_DN00136,Chợ Phước Thái,Du lịch,chợ,10.6791342,107.0284203,"Đường Quốc Lộ 51, Phước Thái, Long Thành, Đồng Nai, 76214",Huyện Long Thành,Chợ Phước Thái là chợ tại Huyện Long Thành.,Chợ Phước Thái chợ Huyện Long Thành
DIA_DN00137,Thiền viện Linh Chiếu,Khác,địa điểm,10.6852296,107.0239249,"Đường Quốc Lộ 51, Phước Thái, Long Thành, Đồng Nai, 76214",Huyện Long Thành,Thiền viện Linh Chiếu là địa điểm tại Huyện Long Thành.,Thiền viện Linh Chiếu địa điểm Huyện Long Thành
DIA_DN00138,Thiền viện Thường Chiếu,Khác,địa điểm,10.6839938,107.0263956,"Phước Thái, Long Thành, Đồng Nai",Huyện Long Thành,Thiền viện Thường Chiếu là địa điểm tại Huyện Long Thành.,Thiền viện Thường Chiếu địa điểm Huyện Long Thành
DIA_DN00139,Công viên Biên Hùng,Du lịch,công viên,10.9521473,106.8211669,"Công Viên Biên Hùng, Đường 30 Tháng 4, Trung Dũng, Biên Hòa, Đồng Nai",TP. Biên Hòa,Công viên Biên Hùng là công viên tại TP. Biên Hòa.,Công viên Biên Hùng công viên TP. Biên Hòa
DIA_DN00140,Công viên Cách mạng Tháng 8,Du lịch,công viên,10.9479348,106.8153989,"Công Viên Cách Mạng Tháng Tám, Đường Cách Mạng Tháng 8, Thanh Bình, Biên Hòa, Đồng Nai, 76106",TP. Biên Hòa,Công viên Cách mạng Tháng 8 là công viên tại TP. Biên Hòa.,Công viên Cách mạng Tháng 8 công viên TP. Biên Hòa
DIA_DN00141,Công viên Trung tâm Long Thành,Du lịch,công viên,10.78712,106.9495635,"Trung Tâm Giao Dịch Viễn Thông Long Thành, Long Thành, Đồng Nai, 76206",Huyện Long Thành,Công viên Trung tâm Long Thành là công viên tại Huyện Long Thành.,Công viên Trung tâm Long Thành công viên Huyện Long Thành
DIA_DN00142,Công viên Phường Xuân An,Du lịch,công viên,10.9315373,107.2446709,"Cửa Hàng Chăm Sóc Sức Khỏe, 8 Đường Nguyễn Thái Học, Xuân An, Long Khánh, Đồng Nai, 76456",TP. Long Khánh,Công viên Phường Xuân An là công viên tại TP. Long Khánh.,Công viên Phường Xuân An công viên TP. Long Khánh
DIA_DN00143,Chợ Trà Cổ,Du lịch,chợ,10.9451478,106.9804951,"19 Đường Số 5, Bình Minh, Trảng Bom, Đồng Nai, 76315",Huyện Trảng Bom,Chợ Trà Cổ là chợ tại Huyện Trảng Bom.,Chợ Trà Cổ chợ Huyện Trảng Bom
DIA_DN00144,Chợ Hòa Bình,Du lịch,chợ,10.6987184,106.8184117,"Vĩnh Thanh, Nhơn Trạch, Đồng Nai",Huyện Nhơn Trạch,Chợ Hòa Bình là chợ tại Huyện Nhơn Trạch.,Chợ Hòa Bình chợ Huyện Nhơn Trạch
DIA_DN00145,Tiệm Trà Sweetie coffee,Ẩm thực,quán cà phê,10.9501139,107.1410264,"Quốc Lộ 20, Xuân Thạnh, Thống Nhất, Đồng Nai, 76406",Huyện Thống Nhất,Tiệm Trà Sweetie coffee là quán cà phê tại Huyện Thống Nhất.,Tiệm Trà Sweetie coffee quán cà phê Huyện Thống Nhất
DIA_DN00146,Chợ Trảng Dài,Du lịch,chợ,10.9834316,106.8605824,"Chợ Trảng Dài, Đường Trần Văn Xã, Trảng Dài, Biên Hòa, Đồng Nai, 76116",TP. Biên Hòa,Chợ Trảng Dài là chợ tại TP. Biên Hòa.,Chợ Trảng Dài chợ TP. Biên Hòa
DIA_DN00147,Công viên Chiến thắng Long Bình,Du lịch,công viên,10.9375894,106.8693193,"Đường Số 2A, Bình Đa, Biên Hòa, Đồng Nai, 76127",TP. Biên Hòa,Công viên Chiến thắng Long Bình là công viên tại TP. Biên Hòa.,Công viên Chiến thắng Long Bình công viên TP. Biên Hòa
DIA_DN00148,Công viên Sông Ray,Du lịch,công viên,10.7638444,107.3488806,"Đường Tỉnh Lộ 765, Xuân Tây, Cẩm Mỹ, Đồng Nai, 76512",Huyện Cẩm Mỹ,Công viên Sông Ray là công viên tại Huyện Cẩm Mỹ.,Công viên Sông Ray công viên Huyện Cẩm Mỹ
DIA_DN00149,Công viên Sunflower City,Du lịch,công viên,10.6870503,106.9282305,"Phước An, Nhơn Trạch, Đồng Nai",Huyện Nhơn Trạch,Công viên Sunflower City là công viên tại Huyện Nhơn Trạch.,Công viên Sunflower City công viên Huyện Nhơn Trạch
DIA_DN00150,Chợ Dầu Giây,Du lịch,chợ,10.9442656,107.1387959,"Quốc Lộ 20, Xuân Thạnh, Thống Nhất, Đồng Nai, 76414",Huyện Thống Nhất,Chợ Dầu Giây là chợ tại Huyện Thống Nhất.,Chợ Dầu Giây chợ Huyện Thống Nhất
DIA_DN00151,Trung tâm Thương mại Hoàng Đức,Du lịch,trung tâm thương mại,10.9321124,107.2436334,"198 Đường Hùng Vương, Xuân An, Long Khánh, Đồng Nai, 76464",TP. Long Khánh,Trung tâm Thương mại Hoàng Đức là trung tâm thương mại tại TP. Long Khánh.,Trung tâm Thương mại Hoàng Đức trung tâm thương mại TP. Long Khánh
DIA_DN00152,Công viên Hòa Bình,Du lịch,công viên,10.915042,107.24132,"Công Viên Hòa Bình, Phú Bình, Long Khánh, Đồng Nai",TP. Long Khánh,Công viên Hòa Bình là công viên tại TP. Long Khánh.,Công viên Hòa Bình công viên TP. Long Khánh
DIA_DN00153,Chợ Long Khánh,Du lịch,chợ,10.9376867,107.2412221,"Đường N4, Xuân Trung, Long Khánh, Đồng Nai, 76463",TP. Long Khánh,Chợ Long Khánh là chợ tại TP. Long Khánh.,Chợ Long Khánh chợ TP. Long Khánh
DIA_DN00154,Khu du lịch Suối Tre,Du lịch,công viên,10.9471486,107.2130516,"Đường Số 11, Suối Tre, Long Khánh, Đồng Nai, 76462",TP. Long Khánh,Khu du lịch Suối Tre là công viên tại TP. Long Khánh.,Khu du lịch Suối Tre công viên TP. Long Khánh
DIA_DN00155,Chợ Đầu Mối Nông Sản Thực Phẩm Dầu Giây,Du lịch,chợ,10.9490481,107.1414239,"Xuân Thạnh, Thống Nhất, Đồng Nai",Huyện Thống Nhất,Chợ Đầu Mối Nông Sản Thực Phẩm Dầu Giây là chợ tại Huyện Thống Nhất.,Chợ Đầu Mối Nông Sản Thực Phẩm Dầu Giây chợ Huyện Thống Nhất
DIA_DN00156,Chợ Cẩm Mỹ,Du lịch,chợ,10.8162115,107.2305443,"Long Giao, Cẩm Mỹ, Đồng Nai",Huyện Cẩm Mỹ,Chợ Cẩm Mỹ là chợ tại Huyện Cẩm Mỹ.,Chợ Cẩm Mỹ chợ Huyện Cẩm Mỹ
DIA_DN00157,Công viên Trung tâm,Du lịch,công viên,10.8097903,107.2213868,"Đường Hương Lộ 10, Long Giao, Cẩm Mỹ, Đồng Nai, 76506",Huyện Cẩm Mỹ,Công viên Trung tâm là công viên tại Huyện Cẩm Mỹ.,Công viên Trung tâm công viên Huyện Cẩm Mỹ
DIA_DN00158,Chợ Hoàng Quân,Du lịch,chợ,10.7841176,107.2221717,"Quán Thường, Long Giao, Cẩm Mỹ, Đồng Nai, 76506",Huyện Cẩm Mỹ,Chợ Hoàng Quân là chợ tại Huyện Cẩm Mỹ.,Chợ Hoàng Quân chợ Huyện Cẩm Mỹ
DIA_DN00159,Chợ Nhân Nghĩa,Du lịch,chợ,10.8371087,107.2362091,"Đường Quốc Lộ 56, Nhân Nghĩa, Cẩm Mỹ, Đồng Nai, 76515",Huyện Cẩm Mỹ,Chợ Nhân Nghĩa là chợ tại Huyện Cẩm Mỹ.,Chợ Nhân Nghĩa chợ Huyện Cẩm Mỹ
DIA_DN00160,Di tích Nhà lao Tân Hiệp,Khác,địa điểm,10.9635507,106.8423247,"Đường Nguyễn Ái Quốc, Tân Tiến, Biên Hòa, Đồng Nai, 76115",TP. Biên Hòa,Di tích Nhà lao Tân Hiệp là địa điểm tại TP. Biên Hòa.,Di tích Nhà lao Tân Hiệp địa điểm TP. Biên Hòa
DIA_DN00161,Quảng trường tỉnh Đồng Nai,Du lịch,công viên,10.9582141,106.828654,"Tân Phong, Biên Hòa, Đồng Nai",TP. Biên Hòa,Quảng trường tỉnh Đồng Nai là công viên tại TP. Biên Hòa.,Quảng trường tỉnh Đồng Nai công viên TP. Biên Hòa
DIA_DN00162,Chợ mới Bàu Cạn,Du lịch,chợ,10.7237877,107.0514654,"Chợ Bàu Cạn, Bàu Cạn, Long Thành, Đồng Nai, 76217",Huyện Long Thành,Chợ mới Bàu Cạn là chợ tại Huyện Long Thành.,Chợ mới Bàu Cạn chợ Huyện Long Thành
DIA_DN00163,Chợ cũ Bàu Cạn,Du lịch,chợ,10.7259975,107.0517899,"Tạp Hóa Tiến Thương, Bàu Cạn, Long Thành, Đồng Nai, 76217",Huyện Long Thành,Chợ cũ Bàu Cạn là chợ tại Huyện Long Thành.,Chợ cũ Bàu Cạn chợ Huyện Long Thành
DIA_DN00164,Công viên Kỷ niệm,Du lịch,công viên,10.9560655,106.8273154,"Công Viên Đài Kỷ Niệm Thành Phố Biên Hòa, Đường Nguyễn Ái Quốc, Trung Dũng, Biên Hòa, Đồng Nai, 76118",TP. Biên Hòa,Công viên Kỷ niệm là công viên tại TP. Biên Hòa.,Công viên Kỷ niệm công viên TP. Biên Hòa
DIA_DN00165,Khu du lịch Bửu Long,Du lịch,công viên,10.9630001,106.794413,"Bửu Long, Biên Hòa, Đồng Nai",TP. Biên Hòa,Khu du lịch Bửu Long là công viên tại TP. Biên Hòa.,Khu du lịch Bửu Long công viên TP. Biên Hòa
DIA_DN00166,Khu du lịch Sinh thái Vườn Xoài,Du lịch,công viên,10.9189347,106.9333547,"Đường Đinh Quang Ân, Phước Tân, Biên Hòa, Đồng Nai, 76132",TP. Biên Hòa,Khu du lịch Sinh thái Vườn Xoài là công viên tại TP. Biên Hòa.,Khu du lịch Sinh thái Vườn Xoài công viên TP. Biên Hòa
DIA_DN00167,Công viên Dương Tử Giang,Du lịch,công viên,10.9630988,106.8425861,"Đường Nguyễn Ái Quốc, Tân Tiến, Biên Hòa, Đồng Nai, 76115",TP. Biên Hòa,Công viên Dương Tử Giang là công viên tại TP. Biên Hòa.,Công viên Dương Tử Giang công viên TP. Biên Hòa
DIA_DN00168,Công viên Chiến thắng Sân bay Biên Hòa,Du lịch,công viên,10.9567247,106.8264031,"Đài Tưởng Niệm, Trung Dũng, Biên Hòa, Đồng Nai, 76118",TP. Biên Hòa,Công viên Chiến thắng Sân bay Biên Hòa là công viên tại TP. Biên Hòa.,Công viên Chiến thắng Sân bay Biên Hòa công viên TP. Biên Hòa
DIA_DN00169,Quán Treo,Ẩm thực,quán cà phê,10.9559031,106.8428201,"Quán 369, Đường Võ Thị Sáu, Thống Nhất, Biên Hòa, Đồng Nai, 76108",TP. Biên Hòa,Quán Treo là quán cà phê tại TP. Biên Hòa.,Quán Treo quán cà phê TP. Biên Hòa
DIA_DN00170,Khách sạn Aurora,Du lịch,khách sạn,10.9573937,106.8448341,"Wooshu Hotel, 253 Đường Phạm Văn Thuận, Tân Mai, Biên Hòa, Đồng Nai",TP. Biên Hòa,Khách sạn Aurora là khách sạn tại TP. Biên Hòa.,Khách sạn Aurora khách sạn TP. Biên Hòa
DIA_DN00171,Chợ Tân Hiệp,Du lịch,chợ,10.9629047,106.8557637,"Đường Phạm Văn Khoai, Tân Hiệp, Biên Hòa, Đồng Nai, 76111",TP. Biên Hòa,Chợ Tân Hiệp là chợ tại TP. Biên Hòa.,Chợ Tân Hiệp chợ TP. Biên Hòa
DIA_DN00172,Chợ Hóa An,Du lịch,chợ,10.9355325,106.8042842,"Đường Nguyễn Ái Quốc, Hóa An, Biên Hòa, Đồng Nai, 76123",TP. Biên Hòa,Chợ Hóa An là chợ tại TP. Biên Hòa.,Chợ Hóa An chợ TP. Biên Hòa
DIA_DN00173,Nhà hàng Đồng Quê,Ẩm thực,nhà hàng,10.9525124,106.8434456,"Đường Huỳnh Văn Hớn, Thống Nhất, Biên Hòa, Đồng Nai, 76108",TP. Biên Hòa,Nhà hàng Đồng Quê là nhà hàng tại TP. Biên Hòa.,Nhà hàng Đồng Quê nhà hàng TP. Biên Hòa
DIA_DN00174,Công viên huyện Vĩnh Cửu,Du lịch,công viên,11.0955873,107.0398397,"Đường Nguyễn Tất Thành, Vĩnh An, Vĩnh Cửu, Đồng Nai, 76906",Huyện Vĩnh Cửu,Công viên huyện Vĩnh Cửu là công viên tại Huyện Vĩnh Cửu.,Công viên huyện Vĩnh Cửu công viên Huyện Vĩnh Cửu
DIA_DN00175,Chợ Tân Bình,Du lịch,chợ,10.9997289,106.8094463,"Đường Tỉnh 768, Tân Bình, Vĩnh Cửu, Đồng Nai, 76916",Huyện Vĩnh Cửu,Chợ Tân Bình là chợ tại Huyện Vĩnh Cửu.,Chợ Tân Bình chợ Huyện Vĩnh Cửu
DIA_DN00176,Cafe Hương Sen,Ẩm thực,quán cà phê,10.9655818,106.7921084,"38 Đường Huỳnh Văn Nghệ, Bửu Long, Biên Hòa, Đồng Nai, 76120",TP. Biên Hòa,Cafe Hương Sen là quán cà phê tại TP. Biên Hòa.,Cafe Hương Sen quán cà phê TP. Biên Hòa
DIA_DN00177,Coffee Ngự Thuỷ,Ẩm thực,quán cà phê,10.9612756,106.855541,"Coffee Ngự Thủy, Đường Phạm Văn Khoai, Tân Mai, Biên Hòa, Đồng Nai, 76111",TP. Biên Hòa,Coffee Ngự Thuỷ là quán cà phê tại TP. Biên Hòa.,Coffee Ngự Thuỷ quán cà phê TP. Biên Hòa
DIA_DN00178,Bảo tàng tỉnh Đồng Nai,Du lịch,bảo tàng,10.9584601,106.8298077,"Đường Nguyễn Ái Quốc, Tân Phong, Biên Hòa, Đồng Nai, 76117",TP. Biên Hòa,Bảo tàng tỉnh Đồng Nai là bảo tàng tại TP. Biên Hòa.,Bảo tàng tỉnh Đồng Nai bảo tàng TP. Biên Hòa
DIA_DN00179,Chợ Hiệp Hòa,Du lịch,chợ,10.9308165,106.832293,"1 Hẻm 90 Đặng Văn Trơn, Hiệp Hòa, Biên Hòa, Đồng Nai, 76126",TP. Biên Hòa,Chợ Hiệp Hòa là chợ tại TP. Biên Hòa.,Chợ Hiệp Hòa chợ TP. Biên Hòa
DIA_DN00180,Khu du lịch Ngọc Hoa Trang,Du lịch,công viên,10.9277912,106.8370496,"Hiệp Hòa, Biên Hòa, Đồng Nai",TP. Biên Hòa,Khu du lịch Ngọc Hoa Trang là công viên tại TP. Biên Hòa.,Khu du lịch Ngọc Hoa Trang công viên TP. Biên Hòa
DIA_DN00181,Phin Workshop,Ẩm thực,quán cà phê,10.9599598,106.8319257,"Billiards Đạt, Đường Nguyễn Ái Quốc, Tân Phong, Biên Hòa, Đồng Nai, 76117",TP. Biên Hòa,Phin Workshop là quán cà phê tại TP. Biên Hòa.,Phin Workshop quán cà phê TP. Biên Hòa
DIA_DN00182,Khách sạn Hoà Bình,Du lịch,khách sạn,10.9443805,106.8209715,"Công Ty Sách & Thiết Bị Trường Học Đồng Nai - Cửa Hàng, 10 Đường Võ Thị Sáu, Biên Hòa, Đồng Nai, 76107",TP. Biên Hòa,Khách sạn Hoà Bình là khách sạn tại TP. Biên Hòa.,Khách sạn Hoà Bình khách sạn TP. Biên Hòa
DIA_DN00183,Chợ Tân Biên,Du lịch,chợ,10.9670951,106.8895189,"Hẻm 127/82/2 Quốc Lộ 1A, Tân Biên, Biên Hòa, Đồng Nai, 76112",TP. Biên Hòa,Chợ Tân Biên là chợ tại TP. Biên Hòa.,Chợ Tân Biên chợ TP. Biên Hòa
DIA_DN00184,Vincom,Du lịch,trung tâm thương mại,10.9576282,106.8434304,"Đường Phạm Văn Thuận, Thống Nhất, Biên Hòa, Đồng Nai",TP. Biên Hòa,Vincom là trung tâm thương mại tại TP. Biên Hòa.,Vincom trung tâm thương mại TP. Biên Hòa
DIA_DN00185,Chợ Tân Mai,Du lịch,chợ,10.9546965,106.8514052,"985 Đường Phạm Văn Thuận, Tân Mai, Biên Hòa, Đồng Nai, 76135",TP. Biên Hòa,Chợ Tân Mai là chợ tại TP. Biên Hòa.,Chợ Tân Mai chợ TP. Biên Hòa
DIA_DN00186,Công viên Đồng Tràm,Du lịch,công viên,10.9542785,106.8421978,"Đường Võ Thị Sáu, Thống Nhất, Biên Hòa, Đồng Nai, 76108",TP. Biên Hòa,Công viên Đồng Tràm là công viên tại TP. Biên Hòa.,Công viên Đồng Tràm công viên TP. Biên Hòa
DIA_DN00187,Lẩu dê Vườn Xoài 15,Ẩm thực,nhà hàng,10.9646566,106.8465935,"Cửa Hàng Vật Liệu Xây Dựng & Trang Trí Nội Thất Kiến An Gia, Đường Nguyễn Ái Quốc, Tân Tiến, Biên Hòa, Đồng Nai, 76115",TP. Biên Hòa,Lẩu dê Vườn Xoài 15 là nhà hàng tại TP. Biên Hòa.,Lẩu dê Vườn Xoài 15 nhà hàng TP. Biên Hòa
DIA_DN00188,Nhà hàng Hoàng Vân,Ẩm thực,nhà hàng,10.9012784,106.8518495,"Quốc Lộ 51, Long Bình Tân, Biên Hòa, Đồng Nai, 76129",TP. Biên Hòa,Nhà hàng Hoàng Vân là nhà hàng tại TP. Biên Hòa.,Nhà hàng Hoàng Vân nhà hàng TP. Biên Hòa
DIA_DN00189,Chợ Long Bình Tân,Du lịch,chợ,10.9035578,106.8506978,"Giày Dép Nhân Hậu, Long Bình Tân, Biên Hòa, Đồng Nai, 76129",TP. Biên Hòa,Chợ Long Bình Tân là chợ tại TP. Biên Hòa.,Chợ Long Bình Tân chợ TP. Biên Hòa
DIA_DN00190,Chợ Tân Tiến,Du lịch,chợ,10.9644102,106.8491845,"Hẻm 148 Phan Trung, Tân Tiến, Biên Hòa, Đồng Nai, 76115",TP. Biên Hòa,Chợ Tân Tiến là chợ tại TP. Biên Hòa.,Chợ Tân Tiến chợ TP. Biên Hòa
DIA_DN00191,Nhà hàng Đồng Trường,Ẩm thực,nhà hàng,11.1116063,107.1022138,"Mã Đà, Vĩnh Cửu, Đồng Nai",Huyện Vĩnh Cửu,Nhà hàng Đồng Trường là nhà hàng tại Huyện Vĩnh Cửu.,Nhà hàng Đồng Trường nhà hàng Huyện Vĩnh Cửu
DIA_DN00192,Nhà hàng 126 Kaiserin,Ẩm thực,nhà hàng,10.9675813,106.8556009,"1042 Đường Nguyễn Ái Quốc, Trảng Dài, Biên Hòa, Đồng Nai, 76116",TP. Biên Hòa,Nhà hàng 126 Kaiserin là nhà hàng tại TP. Biên Hòa.,Nhà hàng 126 Kaiserin nhà hàng TP. Biên Hòa
DIA_DN00193,Chợ Bửu Hoà,Du lịch,chợ,10.9293858,106.8207143,"5 Hẻm 623 Bùi Hữu Nghĩa, Bửu Hòa, Biên Hòa, Đồng Nai, 76125",TP. Biên Hòa,Chợ Bửu Hoà là chợ tại TP. Biên Hòa.,Chợ Bửu Hoà chợ TP. Biên Hòa
DIA_DN00194,Chợ Tam Hiệp,Du lịch,chợ,10.9461134,106.8570809,"VietinBank - Phòng Giao Dịch Tam Hiệp, Tam Hiệp, Biên Hòa, Đồng Nai, 76109",TP. Biên Hòa,Chợ Tam Hiệp là chợ tại TP. Biên Hòa.,Chợ Tam Hiệp chợ TP. Biên Hòa
DIA_DN00195,Nhà hàng Diamond,Ẩm thực,nhà hàng,10.9524801,106.8734022,"Quốc Lộ 1A, Long Bình, Biên Hòa, Đồng Nai, 76134",TP. Biên Hòa,Nhà hàng Diamond là nhà hàng tại TP. Biên Hòa.,Nhà hàng Diamond nhà hàng TP. Biên Hòa
DIA_DN00196,Chợ Bửu Long,Du lịch,chợ,10.9559255,106.8064595,"Trà Sữa Doremon, Bửu Long, Biên Hòa, Đồng Nai, 76120",TP. Biên Hòa,Chợ Bửu Long là chợ tại TP. Biên Hòa.,Chợ Bửu Long chợ TP. Biên Hòa
DIA_DN00197,Chợ Biên Hòa,Du lịch,chợ,10.9462789,106.8154647,"Đường Lý Thường Kiệt, Thanh Bình, Biên Hòa, Đồng Nai, 76106",TP. Biên Hòa,Chợ Biên Hòa là chợ tại TP. Biên Hòa.,Chợ Biên Hòa chợ TP. Biên Hòa
DIA_DN00198,Highlands Coffee,Ẩm thực,quán cà phê,10.9557293,106.8649731,"Quán Ăn Gia Đình Những Người Bạn-Hầm Rượu, Đường Đồng Khởi, Tân Hiệp, Biên Hòa, Đồng Nai, 76111",TP. Biên Hòa,Highlands Coffee là quán cà phê tại TP. Biên Hòa.,Highlands Coffee quán cà phê TP. Biên Hòa
DIA_DN00199,Nhà khách 71,Du lịch,khách sạn,10.9452162,106.8230212,"169 Đường Hà Huy Giáp, Biên Hòa, Đồng Nai, 76107",TP. Biên Hòa,Nhà khách 71 là khách sạn tại TP. Biên Hòa.,Nhà khách 71 khách sạn TP. Biên Hòa
DIA_DN00200,Highlands Coffee,Ẩm thực,quán cà phê,10.9505782,106.8214245,"Café Andi, Đường Hưng Đạo Vương, Thanh Bình, Biên Hòa, Đồng Nai, 76106",TP. Biên Hòa,Highlands Coffee là quán cà phê tại TP. Biên Hòa.,Highlands Coffee quán cà phê TP. Biên Hòa
DIA_DN00201,Highlands Coffee,Ẩm thực,quán cà phê,10.9550626,106.8098758,"Điểm Bán Sim-Card Phượng Nguyên, 9/1 Đường Hồ Văn Đại, Quang Vinh, Biên Hòa, Đồng Nai, 76119",TP. Biên Hòa,Highlands Coffee là quán cà phê tại TP. Biên Hòa.,Highlands Coffee quán cà phê TP. Biên Hòa
DIA_DN00202,Highlands Coffee,Ẩm thực,quán cà phê,10.9480205,106.8554655,"Phở Lý Quốc Sư Hà Nội, 705 Đường Phạm Văn Thuận, Tam Hiệp, Biên Hòa, Đồng Nai, 76109",TP. Biên Hòa,Highlands Coffee là quán cà phê tại TP. Biên Hòa.,Highlands Coffee quán cà phê TP. Biên Hòa
DIA_DN00203,Nhà hàng Tiệc cưới Tuấn Tài,Ẩm thực,nhà hàng,10.9515079,106.8549117,"Cơ Điện Lạnh Vạn Thái, Đường Phạm Văn Thuận, Tam Hiệp, Biên Hòa, Đồng Nai, 76109",TP. Biên Hòa,Nhà hàng Tiệc cưới Tuấn Tài là nhà hàng tại TP. Biên Hòa.,Nhà hàng Tiệc cưới Tuấn Tài nhà hàng TP. Biên Hòa
DIA_DN00204,Highlands Coffee,Ẩm thực,quán cà phê,10.9691585,106.8658851,"Dịch Vụ Cầm Đồ Lê Quyền, 2 Đường Nguyễn Ái Quốc, Tân Hiệp, Biên Hòa, Đồng Nai, 76111",TP. Biên Hòa,Highlands Coffee là quán cà phê tại TP. Biên Hòa.,Highlands Coffee quán cà phê TP. Biên Hòa
DIA_DN00205,Nhà hàng Tiệc cưới Su Sê,Ẩm thực,nhà hàng,10.9456079,106.8679888,"Hẻm 750 Quốc Lộ 1A, Tam Hòa, Biên Hòa, Đồng Nai, 76110",TP. Biên Hòa,Nhà hàng Tiệc cưới Su Sê là nhà hàng tại TP. Biên Hòa.,Nhà hàng Tiệc cưới Su Sê nhà hàng TP. Biên Hòa
DIA_DN00206,Nhà hàng Ngọc Hương,Ẩm thực,nhà hàng,10.9452458,106.867971,"778 Quốc Lộ 1A, Tam Hòa, Biên Hòa, Đồng Nai, 76110",TP. Biên Hòa,Nhà hàng Ngọc Hương là nhà hàng tại TP. Biên Hòa.,Nhà hàng Ngọc Hương nhà hàng TP. Biên Hòa
DIA_DN00207,Chợ Tân Mai 2,Du lịch,chợ,10.8751235,106.9104289,"1603 Quốc Lộ 51, Phước Tân, Biên Hòa, Đồng Nai, 76132",TP. Biên Hòa,Chợ Tân Mai 2 là chợ tại TP. Biên Hòa.,Chợ Tân Mai 2 chợ TP. Biên Hòa
DIA_DN00208,Chợ Hương Phước,Du lịch,chợ,10.8871388,106.8995009,"Chợ Hương Phước, Đường Quốc Lộ 51, Phước Tân, Biên Hòa, Đồng Nai, 76132",TP. Biên Hòa,Chợ Hương Phước là chợ tại TP. Biên Hòa.,Chợ Hương Phước chợ TP. Biên Hòa
DIA_DN00209,Nhà hàng Cọ Dầu,Ẩm thực,nhà hàng,10.9598663,106.7909451,"Bửu Long, Biên Hòa, Đồng Nai",TP. Biên Hòa,Nhà hàng Cọ Dầu là nhà hàng tại TP. Biên Hòa.,Nhà hàng Cọ Dầu nhà hàng TP. Biên Hòa
DIA_DN00210,Highlands Coffee,Ẩm thực,quán cà phê,10.9609137,106.8499739,"Cafe Phương Vy, Đường Phan Trung, Tân Tiến, Biên Hòa, Đồng Nai, 76115",TP. Biên Hòa,Highlands Coffee là quán cà phê tại TP. Biên Hòa.,Highlands Coffee quán cà phê TP. Biên Hòa
DIA_DN00211,Nhà hàng Du Long,Ẩm thực,nhà hàng,10.9621041,106.7913156,"Bửu Long, Biên Hòa, Đồng Nai",TP. Biên Hòa,Nhà hàng Du Long là nhà hàng tại TP. Biên Hòa.,Nhà hàng Du Long nhà hàng TP. Biên Hòa
DIA_DN00212,Khách sạn The Mira Central Park,Du lịch,khách sạn,10.959697,106.8336513,"Hẻm 1809 Nguyễn Ái Quốc, Tân Tiến, Biên Hòa, Đồng Nai, 76115",TP. Biên Hòa,Khách sạn The Mira Central Park là khách sạn tại TP. Biên Hòa.,Khách sạn The Mira Central Park khách sạn TP. Biên Hòa
DIA_DN00213,Nhà khách Bộ chỉ huy Quân sự tỉnh Đồng Nai,Du lịch,khách sạn,10.9648838,106.8347891,"Cơ Sở Trang Trí Nội Thất Cửa Nhôm Cao Cấp Tiến Lên, Đường Lương Văn Nho, Tân Phong, Biên Hòa, Đồng Nai, 76117",TP. Biên Hòa,Nhà khách Bộ chỉ huy Quân sự tỉnh Đồng Nai là khách sạn tại TP. Biên Hòa.,Nhà khách Bộ chỉ huy Quân sự tỉnh Đồng Nai khách sạn TP. Biên Hòa
DIA_DN00214,The Farm Coffee,Ẩm thực,quán cà phê,10.9571078,106.8276215,"Đường Nguyễn Ái Quốc, Tân Phong, Biên Hòa, Đồng Nai, 76117",TP. Biên Hòa,The Farm Coffee là quán cà phê tại TP. Biên Hòa.,The Farm Coffee quán cà phê TP. Biên Hòa
DIA_DN00215,Chợ An Bình,Du lịch,chợ,10.9281014,106.8543667,"Chợ An Bình, Đường Số 5, An Bình, Biên Hòa, Đồng Nai, 76128",TP. Biên Hòa,Chợ An Bình là chợ tại TP. Biên Hòa.,Chợ An Bình chợ TP. Biên Hòa
DIA_DN00216,Dịch vụ Nấu ăn Trường Thọ,Ẩm thực,nhà hàng,10.9693015,106.8541771,"11 Hẻm 620 Đồng Khởi, Trảng Dài, Biên Hòa, Đồng Nai, 76116",TP. Biên Hòa,Dịch vụ Nấu ăn Trường Thọ là nhà hàng tại TP. Biên Hòa.,Dịch vụ Nấu ăn Trường Thọ nhà hàng TP. Biên Hòa
DIA_DN00217,Nhà hàng Kim Ngọc Phát,Ẩm thực,nhà hàng,10.9612695,106.8495046,"Nhà Hàng Kim Ngọc Phát, Đường Phan Trung, Tân Tiến, Biên Hòa, Đồng Nai, 76115",TP. Biên Hòa,Nhà hàng Kim Ngọc Phát là nhà hàng tại TP. Biên Hòa.,Nhà hàng Kim Ngọc Phát nhà hàng TP. Biên Hòa
DIA_DN00218,Burger Việt,Ẩm thực,quán thức ăn nhanh,10.9551218,106.8258211,"Xí Nghiệp In Đồng Nai - Cửa Hàng Kinh Doanh, 177 Đường 30 Tháng 4, Trung Dũng, Biên Hòa, Đồng Nai, 76118",TP. Biên Hòa,Burger Việt là quán thức ăn nhanh tại TP. Biên Hòa.,Burger Việt quán thức ăn nhanh TP. Biên Hòa
DIA_DN00219,Bee,Ẩm thực,quán cà phê,10.9550183,106.8256729,"KFC, 165 Đường 30 Tháng 4, Trung Dũng, Biên Hòa, Đồng Nai, 76118",TP. Biên Hòa,Bee là quán cà phê tại TP. Biên Hòa.,Bee quán cà phê TP. Biên Hòa
DIA_DN00220,Mì cay Seoul Biên Hùng,Ẩm thực,nhà hàng,10.954935,106.8255712,"Hiệu Sách Quốc Việt, 157 Đường 30 Tháng 4, Trung Dũng, Biên Hòa, Đồng Nai, 76118",TP. Biên Hòa,Mì cay Seoul Biên Hùng là nhà hàng tại TP. Biên Hòa.,Mì cay Seoul Biên Hùng nhà hàng TP. Biên Hòa
DIA_DN00221,Honey,Ẩm thực,quán cà phê,10.9546571,106.825248,"Ủy Ban Nhân Dân Phường Trung Dũng, 139 Đường 30 Tháng 4, Trung Dũng, Biên Hòa, Đồng Nai, 76118",TP. Biên Hòa,Honey là quán cà phê tại TP. Biên Hòa.,Honey quán cà phê TP. Biên Hòa
DIA_DN00222,Vibes,Ẩm thực,quán cà phê,10.9543202,106.8248462,"Công Ty Ảnh Màu Quốc Tế, 129 Đường 30 Tháng 4, Trung Dũng, Biên Hòa, Đồng Nai, 76118",TP. Biên Hòa,Vibes là quán cà phê tại TP. Biên Hòa.,Vibes quán cà phê TP. Biên Hòa
DIA_DN00223,Nhà khách Mã Đà,Du lịch,homestay,11.1110227,107.0512009,"Đường Tỉnh Lộ 767, Mã Đà, Vĩnh Cửu, Đồng Nai, 76907",Huyện Vĩnh Cửu,Nhà khách Mã Đà là homestay tại Huyện Vĩnh Cửu.,Nhà khách Mã Đà homestay Huyện Vĩnh Cửu
DIA_DN00224,Chợ Mã Đà,Du lịch,chợ,11.1087366,107.0554931,"Đường Tỉnh Lộ 767, Mã Đà, Vĩnh Cửu, Đồng Nai, 76907",Huyện Vĩnh Cửu,Chợ Mã Đà là chợ tại Huyện Vĩnh Cửu.,Chợ Mã Đà chợ Huyện Vĩnh Cửu
DIA_DN00225,Quán Đồng Khởi,Ẩm thực,nhà hàng,10.9605098,106.8567355,"2 Hẻm 518/1 Đồng Khởi, Tân Hiệp, Biên Hòa, Đồng Nai, 76111",TP. Biên Hòa,Quán Đồng Khởi là nhà hàng tại TP. Biên Hòa.,Quán Đồng Khởi nhà hàng TP. Biên Hòa
DIA_DN00226,Lion Coffee,Ẩm thực,quán cà phê,10.959279,106.8571567,"Trường Phổ Thông Trung Học Dân Lập Đức Trí, 9A Đường Phạm Văn Khoai, Tân Hiệp, Biên Hòa, Đồng Nai, 76111",TP. Biên Hòa,Lion Coffee là quán cà phê tại TP. Biên Hòa.,Lion Coffee quán cà phê TP. Biên Hòa
DIA_DN00227,Bún Riêu 2,Ẩm thực,nhà hàng,10.9607717,106.8572837,"29 Hẻm 518 Đồng Khởi, Tân Hiệp, Biên Hòa, Đồng Nai, 76111",TP. Biên Hòa,Bún Riêu 2 là nhà hàng tại TP. Biên Hòa.,Bún Riêu 2 nhà hàng TP. Biên Hòa
DIA_DN00228,Café 93,Ẩm thực,quán cà phê,10.9509656,106.8206895,"Doanh Nghiệp Tư Nhân Trang Trí Nội Thất Cao Cấp Cao Kỷ, 89 Đường Hưng Đạo Vương, Trung Dũng, Biên Hòa, Đồng Nai, 76118",TP. Biên Hòa,Café 93 là quán cà phê tại TP. Biên Hòa.,Café 93 quán cà phê TP. Biên Hòa
DIA_DN00229,Khách sạn Đồng Nai,Du lịch,khách sạn,10.9580504,106.8314774,"57/2 Đường Lê A, Tân Tiến, Biên Hòa, Đồng Nai, 76115",TP. Biên Hòa,Khách sạn Đồng Nai là khách sạn tại TP. Biên Hòa.,Khách sạn Đồng Nai khách sạn TP. Biên Hòa
DIA_DN00230,Tiệm mì Anh Nam,Ẩm thực,nhà hàng,10.9595279,106.8574823,"9 Hẻm 512 Đồng Khởi, Tân Hiệp, Biên Hòa, Đồng Nai, 76111",TP. Biên Hòa,Tiệm mì Anh Nam là nhà hàng tại TP. Biên Hòa.,Tiệm mì Anh Nam nhà hàng TP. Biên Hòa
DIA_DN00231,Chợ Tân Phú,Du lịch,chợ,11.2665307,107.4258904,"Tân Phú, Đồng Nai",Huyện Tân Phú,Chợ Tân Phú là chợ tại Huyện Tân Phú.,Chợ Tân Phú chợ Huyện Tân Phú
DIA_DN00232,Chợ Định Quán,Du lịch,chợ,11.19618,107.3505421,"Định Quán, Đồng Nai",Huyện Định Quán,Chợ Định Quán là chợ tại Huyện Định Quán.,Chợ Định Quán chợ Huyện Định Quán
DIA_DN00233,Chợ mới Phú Vinh,Du lịch,chợ,11.2092782,107.359632,"Phú Vinh, Định Quán, Đồng Nai",Huyện Định Quán,Chợ mới Phú Vinh là chợ tại Huyện Định Quán.,Chợ mới Phú Vinh chợ Huyện Định Quán
DIA_DN00234,Chợ Ngã ba Gia Canh,Du lịch,chợ,11.1999148,107.3580521,"Chợ Ngã Ba Gia Canh, Đường Nguyễn Ái Quốc, Định Quán, Đồng Nai, 76706",Huyện Định Quán,Chợ Ngã ba Gia Canh là chợ tại Huyện Định Quán.,Chợ Ngã ba Gia Canh chợ Huyện Định Quán
DIA_DN00235,Bún Phương Uyên,Ẩm thực,nhà hàng,10.9593627,106.8582112,"Nhà Nghỉ Phú Thái, Tân Hiệp, Biên Hòa, Đồng Nai, 76111",TP. Biên Hòa,Bún Phương Uyên là nhà hàng tại TP. Biên Hòa.,Bún Phương Uyên nhà hàng TP. Biên Hòa
DIA_DN00236,Chợ Tân Phong,Du lịch,chợ,10.9638365,106.8378273,"9 Hẻm 1506 Nguyễn Ái Quốc, Tân Phong, Biên Hòa, Đồng Nai, 76117",TP. Biên Hòa,Chợ Tân Phong là chợ tại TP. Biên Hòa.,Chợ Tân Phong chợ TP. Biên Hòa
DIA_DN00237,Chợ cũ Long Thành,Du lịch,chợ,10.7842643,106.9507094,"Hẻm 249 Lê Duẩn, Long Thành, Đồng Nai, 76206",Huyện Long Thành,Chợ cũ Long Thành là chợ tại Huyện Long Thành.,Chợ cũ Long Thành chợ Huyện Long Thành
DIA_DN00238,Chợ Hiếu Liêm,Du lịch,chợ,11.1144042,106.9661072,"Chợ Hiếu Liêm, Đường Số 6, Hiếu Liêm, Vĩnh Cửu, Đồng Nai, 76909",Huyện Vĩnh Cửu,Chợ Hiếu Liêm là chợ tại Huyện Vĩnh Cửu.,Chợ Hiếu Liêm chợ Huyện Vĩnh Cửu
DIA_DN00239,Công viên 30 Tháng 4,Du lịch,công viên,10.9707754,106.8922173,"Công Viên Ba Mươi Tháng Tư, Tân Biên, Biên Hòa, Đồng Nai",TP. Biên Hòa,Công viên 30 Tháng 4 là công viên tại TP. Biên Hòa.,Công viên 30 Tháng 4 công viên TP. Biên Hòa
DIA_DN00240,Quán Ra Khơi,Ẩm thực,nhà hàng,10.9492699,106.8371816,"Linh Phụ Kiện Điện Thoại Sim Số Đẹp Quốc Hưng, Đường Võ Thị Sáu, Thống Nhất, Biên Hòa, Đồng Nai, 76108",TP. Biên Hòa,Quán Ra Khơi là nhà hàng tại TP. Biên Hòa.,Quán Ra Khơi nhà hàng TP. Biên Hòa
DIA_DN00241,Domino's,Ẩm thực,quán thức ăn nhanh,10.960802,106.8496672,"Cửa Hàng Điện Tử - Điện Lạnh Đức Thọ, 260 Đường Phan Trung, Tân Tiến, Biên Hòa, Đồng Nai, 76115",TP. Biên Hòa,Domino's là quán thức ăn nhanh tại TP. Biên Hòa.,Domino's quán thức ăn nhanh TP. Biên Hòa
DIA_DN00242,Mộc Golden Coffee And Tea,Ẩm thực,quán cà phê,10.9550304,106.8595649,"9 Hẻm 28 Nguyễn Bảo Đức, Tam Hiệp, Biên Hòa, Đồng Nai, 76109",TP. Biên Hòa,Mộc Golden Coffee And Tea là quán cà phê tại TP. Biên Hòa.,Mộc Golden Coffee And Tea quán cà phê TP. Biên Hòa
DIA_DN00243,KFC,Ẩm thực,quán thức ăn nhanh,10.9453986,106.8574353,"KFC, 37/21 Đường Phạm Văn Thuận, Tam Hiệp, Biên Hòa, Đồng Nai, 76109",TP. Biên Hòa,KFC là quán thức ăn nhanh tại TP. Biên Hòa.,KFC quán thức ăn nhanh TP. Biên Hòa
DIA_DN00244,Niso Cafe,Ẩm thực,quán cà phê,10.9463464,106.8325579,"Cafe Bảo Quỳnh, Đường N8, Thống Nhất, Biên Hòa, Đồng Nai, 76108",TP. Biên Hòa,Niso Cafe là quán cà phê tại TP. Biên Hòa.,Niso Cafe quán cà phê TP. Biên Hòa
DIA_DN00245,Bò Corner 2,Ẩm thực,nhà hàng,10.9688431,106.8649771,"Doanh Nghiệp Tư Nhân Đức Trị 1 - Salon Ô Tô, Đường Nguyễn Ái Quốc, Tân Hiệp, Biên Hòa, Đồng Nai, 76111",TP. Biên Hòa,Bò Corner 2 là nhà hàng tại TP. Biên Hòa.,Bò Corner 2 nhà hàng TP. Biên Hòa
DIA_DN00246,The Cowboys,Ẩm thực,nhà hàng,10.9621491,106.8592714,"Tiệm Uốn Tóc Bảo Khanh, Đường Phạm Văn Khoai, Tân Hiệp, Biên Hòa, Đồng Nai, 76111",TP. Biên Hòa,The Cowboys là nhà hàng tại TP. Biên Hòa.,The Cowboys nhà hàng TP. Biên Hòa
DIA_DN00247,Chợ An Chu,Du lịch,chợ,10.9630315,106.9478102,"Đường Chợ An Chu, Bắc Sơn, Trảng Bom, Đồng Nai, 76313",Huyện Trảng Bom,Chợ An Chu là chợ tại Huyện Trảng Bom.,Chợ An Chu chợ Huyện Trảng Bom
DIA_DN00248,Quán bò Corner,Ẩm thực,nhà hàng,10.9599644,106.8470678,"Tiệm Hớt Tóc Hưng, Đường Phan Trung, Tân Mai, Biên Hòa, Đồng Nai, 76135",TP. Biên Hòa,Quán bò Corner là nhà hàng tại TP. Biên Hòa.,Quán bò Corner nhà hàng TP. Biên Hòa
DIA_DN00249,Chợ Bà Thức,Du lịch,chợ,10.9829454,106.8424105,"Hẻm 209 Nguyễn Văn Tiên, Tân Phong, Biên Hòa, Đồng Nai, 76117",TP. Biên Hòa,Chợ Bà Thức là chợ tại TP. Biên Hòa.,Chợ Bà Thức chợ TP. Biên Hòa
DIA_DN00250,K1,Du lịch,homestay,10.9479598,106.9969533,"Đường Nguyễn Đức Cảnh, Trảng Bom, Đồng Nai, 76306",Huyện Trảng Bom,K1 là homestay tại Huyện Trảng Bom.,K1 homestay Huyện Trảng Bom
DIA_DN00251,Khu du lịch Suối Mơ,Du lịch,công viên,11.229137,107.443032,"Trà Cổ, Tân Phú, Đồng Nai",Huyện Tân Phú,Khu du lịch Suối Mơ là công viên tại Huyện Tân Phú.,Khu du lịch Suối Mơ công viên Huyện Tân Phú
DIA_DN00252,Trung tâm chiếu phim và mua sắm Thanh Bình,Du lịch,trung tâm thương mại,10.9566822,106.8292994,"Nhà Sách Nhân Văn, 394 Đường Phạm Văn Thuận, Biên Hòa, Đồng Nai, 76107",TP. Biên Hòa,Trung tâm chiếu phim và mua sắm Thanh Bình là trung tâm thương mại tại TP. Biên Hòa.,Trung tâm chiếu phim và mua sắm Thanh Bình trung tâm thương mại TP. Biên Hòa
DIA_DN00253,Cà phê Nắng,Ẩm thực,quán cà phê,10.9684156,106.8570349,"2 Hẻm 1034/2 Nguyễn Ái Quốc, Trảng Dài, Biên Hòa, Đồng Nai, 76116",TP. Biên Hòa,Cà phê Nắng là quán cà phê tại TP. Biên Hòa.,Cà phê Nắng quán cà phê TP. Biên Hòa
DIA_DN00254,Izakaya Tozu,Ẩm thực,nhà hàng,10.944849,106.8215433,"Choc Ice Cream & Coffee, 20 Đường Võ Thị Sáu, Biên Hòa, Đồng Nai, 76107",TP. Biên Hòa,Izakaya Tozu là nhà hàng tại TP. Biên Hòa.,Izakaya Tozu nhà hàng TP. Biên Hòa
DIA_DN00255,Độc Quán,Ẩm thực,nhà hàng,10.9562581,106.8086383,"D70 Đường N4, Bửu Long, Biên Hòa, Đồng Nai, 76120",TP. Biên Hòa,Độc Quán là nhà hàng tại TP. Biên Hòa.,Độc Quán nhà hàng TP. Biên Hòa
DIA_DN00256,Cơm niêu Quê Hương,Ẩm thực,nhà hàng,10.9560418,106.8090124,"Đường N1, Bửu Long, Biên Hòa, Đồng Nai, 76120",TP. Biên Hòa,Cơm niêu Quê Hương là nhà hàng tại TP. Biên Hòa.,Cơm niêu Quê Hương nhà hàng TP. Biên Hòa
DIA_DN00257,Ốc Beo,Ẩm thực,nhà hàng,10.9616106,106.8543422,"Quán Bồ Câu 242, 6 Đường Trương Định, Tân Mai, Biên Hòa, Đồng Nai, 76135",TP. Biên Hòa,Ốc Beo là nhà hàng tại TP. Biên Hòa.,Ốc Beo nhà hàng TP. Biên Hòa
DIA_DN00258,Quán Nhậu Tự Do,Ẩm thực,nhà hàng,10.9616737,106.8533987,"Quán Hải Sản Tươi Sống, Đường Phan Trung, Tân Mai, Biên Hòa, Đồng Nai, 76115",TP. Biên Hòa,Quán Nhậu Tự Do là nhà hàng tại TP. Biên Hòa.,Quán Nhậu Tự Do nhà hàng TP. Biên Hòa
DIA_DN00259,Phuc Loc Rest Stop,Ẩm thực,khu ẩm thực,11.0081177,107.1689013,"Đường Quốc Lộ 20, Quang Trung, Thống Nhất, Đồng Nai, 76407",Huyện Thống Nhất,Phuc Loc Rest Stop là khu ẩm thực tại Huyện Thống Nhất.,Phuc Loc Rest Stop khu ẩm thực Huyện Thống Nhất
DIA_DN00260,Cháo súp hương Thùy Vân,Ẩm thực,nhà hàng,10.9502839,106.8127832,"Beauty Salon Vân Ánh, 66 Đường Cách Mạng Tháng 8, Quang Vinh, Biên Hòa, Đồng Nai, 76122",TP. Biên Hòa,Cháo súp hương Thùy Vân là nhà hàng tại TP. Biên Hòa.,Cháo súp hương Thùy Vân nhà hàng TP. Biên Hòa
DIA_DN00261,Quán Cô Thanh,Ẩm thực,nhà hàng,10.9669707,106.8553654,"Quán Cháo Gỏi Gà Vịt, Đường Nguyễn Ái Quốc, Tân Hiệp, Biên Hòa, Đồng Nai, 76111",TP. Biên Hòa,Quán Cô Thanh là nhà hàng tại TP. Biên Hòa.,Quán Cô Thanh nhà hàng TP. Biên Hòa
DIA_DN00262,Buffet Lẩu Đại Dương,Ẩm thực,nhà hàng,10.9482558,106.8355677,"Quán Café Sân Vườn BiBi, Đường Võ Thị Sáu, Thống Nhất, Biên Hòa, Đồng Nai, 76108",TP. Biên Hòa,Buffet Lẩu Đại Dương là nhà hàng tại TP. Biên Hòa.,Buffet Lẩu Đại Dương nhà hàng TP. Biên Hòa
DIA_DN00263,Vườn tượng Danh nhân Trấn Biên,Du lịch,công viên,10.9621661,106.8016279,"Bửu Long, Biên Hòa, Đồng Nai",TP. Biên Hòa,Vườn tượng Danh nhân Trấn Biên là công viên tại TP. Biên Hòa.,Vườn tượng Danh nhân Trấn Biên công viên TP. Biên Hòa
DIA_DN00264,Cà Phê Milano,Ẩm thực,quán cà phê,10.9659223,106.8493555,"Phòng Khám Chuyên Khoa Tâm Thần Kinh Bác Sĩ Nguyễn Thành Quang, 43A Đường Nguyễn Ái Quốc, Tân Phong, Biên Hòa, Đồng Nai, 76117",TP. Biên Hòa,Cà Phê Milano là quán cà phê tại TP. Biên Hòa.,Cà Phê Milano quán cà phê TP. Biên Hòa
DIA_DN00265,Thủy Tiên ECO-LODGE,Du lịch,homestay,11.4239612,107.4320477,"Đường 600A, Nam Cát Tiên, Tân Phú, Đồng Nai, 76813",Huyện Tân Phú,Thủy Tiên ECO-LODGE là homestay tại Huyện Tân Phú.,Thủy Tiên ECO-LODGE homestay Huyện Tân Phú
DIA_DN00266,Quán 93 Bia hơi Hà Nội,Ẩm thực,nhà hàng,10.975086,106.8504516,"Sửa Xe Anh Bình, Đường Đồng Khởi, Tân Phong, Biên Hòa, Đồng Nai, 76117",TP. Biên Hòa,Quán 93 Bia hơi Hà Nội là nhà hàng tại TP. Biên Hòa.,Quán 93 Bia hơi Hà Nội nhà hàng TP. Biên Hòa
DIA_DN00267,Cà phê Hoàng Phát,Ẩm thực,quán cà phê,10.9413994,107.1477217,"Xuân Thạnh, Thống Nhất, Đồng Nai",Huyện Thống Nhất,Cà phê Hoàng Phát là quán cà phê tại Huyện Thống Nhất.,Cà phê Hoàng Phát quán cà phê Huyện Thống Nhất
DIA_DN00268,Bò Bít Tết Only,Ẩm thực,quán thức ăn nhanh,10.9583711,106.8335821,"Hội Liên Hiệp Phụ Nữ Thành Phố Biên Hòa, 101 Đường Phạm Văn Thuận, Tân Tiến, Biên Hòa, Đồng Nai, 76115",TP. Biên Hòa,Bò Bít Tết Only là quán thức ăn nhanh tại TP. Biên Hòa.,Bò Bít Tết Only quán thức ăn nhanh TP. Biên Hòa
DIA_DN00269,Chợ Xuân Quế,Du lịch,chợ,10.8441307,107.1663913,"Xuân Quế, Cẩm Mỹ, Đồng Nai",Huyện Cẩm Mỹ,Chợ Xuân Quế là chợ tại Huyện Cẩm Mỹ.,Chợ Xuân Quế chợ Huyện Cẩm Mỹ
DIA_DN00270,Phố Xanh,Ẩm thực,quán cà phê,10.9705638,106.8539138,"Cafe Phố Xanh, Trảng Dài, Biên Hòa, Đồng Nai, 76116",TP. Biên Hòa,Phố Xanh là quán cà phê tại TP. Biên Hòa.,Phố Xanh quán cà phê TP. Biên Hòa
DIA_DN00271,Chú Minh,Ẩm thực,nhà hàng,10.9699604,106.8535683,"Phở Bò Vy Vy, 93/12 Đường Đồng Khởi, Tân Phong, Biên Hòa, Đồng Nai, 76117",TP. Biên Hòa,Chú Minh là nhà hàng tại TP. Biên Hòa.,Chú Minh nhà hàng TP. Biên Hòa
DIA_DN00272,Chú Minh,Ẩm thực,nhà hàng,10.9698853,106.8535882,"Beauty Salon Ngọc Minh, Đường Đồng Khởi, Trảng Dài, Biên Hòa, Đồng Nai, 76117",TP. Biên Hòa,Chú Minh là nhà hàng tại TP. Biên Hòa.,Chú Minh nhà hàng TP. Biên Hòa
DIA_DN00273,Cô Nga,Ẩm thực,nhà hàng,10.9698324,106.8535994,"Sửa Xe Sáu Trí, 332 Đường Đồng Khởi, Trảng Dài, Biên Hòa, Đồng Nai, 76117",TP. Biên Hòa,Cô Nga là nhà hàng tại TP. Biên Hòa.,Cô Nga nhà hàng TP. Biên Hòa
DIA_DN00274,Jollibee,Ẩm thực,quán thức ăn nhanh,10.9470899,106.8271154,"Quán Cơm Tấm, Đường Võ Thị Sáu, Thống Nhất, Biên Hòa, Đồng Nai, 76108",TP. Biên Hòa,Jollibee là quán thức ăn nhanh tại TP. Biên Hòa.,Jollibee quán thức ăn nhanh TP. Biên Hòa
DIA_DN00275,Hotel Ngọc Sơn,Du lịch,khách sạn,10.9484333,106.8323424,"Ngọc Sơn Hotel, Đường N11, Thống Nhất, Biên Hòa, Đồng Nai, 76108",TP. Biên Hòa,Hotel Ngọc Sơn là khách sạn tại TP. Biên Hòa.,Hotel Ngọc Sơn khách sạn TP. Biên Hòa
DIA_DN00276,La La Land,Ẩm thực,quán cà phê,10.9485491,106.8326436,"K23 Đường Võ Thị Sáu, Thống Nhất, Biên Hòa, Đồng Nai, 76108",TP. Biên Hòa,La La Land là quán cà phê tại TP. Biên Hòa.,La La Land quán cà phê TP. Biên Hòa
DIA_DN00277,Phúc Long,Ẩm thực,quán cà phê,10.9482837,106.8323788,"Ngoc Phat Garden Café - Restaurant, K20 Đường Võ Thị Sáu, Thống Nhất, Biên Hòa, Đồng Nai, 76108",TP. Biên Hòa,Phúc Long là quán cà phê tại TP. Biên Hòa.,Phúc Long quán cà phê TP. Biên Hòa
DIA_DN00278,The 9 Livehouse,Ẩm thực,quán pub,10.9483647,106.8318489,"Cửa Hàng Phú Minh, Đường A10, Thống Nhất, Biên Hòa, Đồng Nai, 76108",TP. Biên Hòa,The 9 Livehouse là quán pub tại TP. Biên Hòa.,The 9 Livehouse quán pub TP. Biên Hòa
DIA_DN00279,Highlands Coffee,Ẩm thực,quán cà phê,10.9483336,106.8326955,"Cafe IQ, Đường Võ Thị Sáu, Thống Nhất, Biên Hòa, Đồng Nai, 76108",TP. Biên Hòa,Highlands Coffee là quán cà phê tại TP. Biên Hòa.,Highlands Coffee quán cà phê TP. Biên Hòa
DIA_DN00280,Đậu Coffee,Ẩm thực,quán cà phê,10.9488383,106.8328854,"H1 Đường A11, Thống Nhất, Biên Hòa, Đồng Nai, 76108",TP. Biên Hòa,Đậu Coffee là quán cà phê tại TP. Biên Hòa.,Đậu Coffee quán cà phê TP. Biên Hòa
DIA_DN00281,1893 Dalat,Ẩm thực,quán cà phê,10.9487612,106.8329039,"H1 Đường A11, Thống Nhất, Biên Hòa, Đồng Nai, 76108",TP. Biên Hòa,1893 Dalat là quán cà phê tại TP. Biên Hòa.,1893 Dalat quán cà phê TP. Biên Hòa
DIA_DN00282,Flamme Buffalo 2,Ẩm thực,nhà hàng,10.9481257,106.8307605,"K13 Đường Võ Thị Sáu, Thống Nhất, Biên Hòa, Đồng Nai, 76108",TP. Biên Hòa,Flamme Buffalo 2 là nhà hàng tại TP. Biên Hòa.,Flamme Buffalo 2 nhà hàng TP. Biên Hòa
DIA_DN00283,VIP Lounge,Ẩm thực,quán pub,10.948253,106.8314357,"K18 Đường Võ Thị Sáu, Thống Nhất, Biên Hòa, Đồng Nai, 76108",TP. Biên Hòa,VIP Lounge là quán pub tại TP. Biên Hòa.,VIP Lounge quán pub TP. Biên Hòa
DIA_DN00284,T-Rex,Ẩm thực,quán cà phê,10.9480737,106.8315416,"K18 Đường Võ Thị Sáu, Thống Nhất, Biên Hòa, Đồng Nai, 76108",TP. Biên Hòa,T-Rex là quán cà phê tại TP. Biên Hòa.,T-Rex quán cà phê TP. Biên Hòa
DIA_DN00285,KATINAT,Ẩm thực,quán cà phê,10.9479053,106.8307287,"Trà Sữa Cafe Hello Kitty Meo Meo, Đường Võ Thị Sáu, Thống Nhất, Biên Hòa, Đồng Nai, 76108",TP. Biên Hòa,KATINAT là quán cà phê tại TP. Biên Hòa.,KATINAT quán cà phê TP. Biên Hòa
DIA_DN00286,Trung Nguyên E-Coffee,Ẩm thực,quán cà phê,10.948639,106.8317296,"Đường N11, Thống Nhất, Biên Hòa, Đồng Nai, 76108",TP. Biên Hòa,Trung Nguyên E-Coffee là quán cà phê tại TP. Biên Hòa.,Trung Nguyên E-Coffee quán cà phê TP. Biên Hòa
DIA_DN00287,Karaoke Hân Linh,Ẩm thực,quán pub,10.9488003,106.8316578,"Cafe Góc Xanh, Thống Nhất, Biên Hòa, Đồng Nai, 76108",TP. Biên Hòa,Karaoke Hân Linh là quán pub tại TP. Biên Hòa.,Karaoke Hân Linh quán pub TP. Biên Hòa
DIA_DN00288,Cha La,Ẩm thực,quán cà phê,10.9489374,106.8325805,"Quán Hương Rừng, 156 Đường N11, Thống Nhất, Biên Hòa, Đồng Nai, 76108",TP. Biên Hòa,Cha La là quán cà phê tại TP. Biên Hòa.,Cha La quán cà phê TP. Biên Hòa
DIA_DN00289,Khách sạn Hy Thành,Du lịch,khách sạn,10.9488123,106.8324763,"Hy Thành Hotel, Đường N11, Thống Nhất, Biên Hòa, Đồng Nai, 76108",TP. Biên Hòa,Khách sạn Hy Thành là khách sạn tại TP. Biên Hòa.,Khách sạn Hy Thành khách sạn TP. Biên Hòa
DIA_DN00290,Vịt nướng lu Năm Vân,Ẩm thực,nhà hàng,10.9466217,106.8244252,"Tiệm Sửa Xe, 98A/1 Đường Võ Thị Sáu, Biên Hòa, Đồng Nai, 76107",TP. Biên Hòa,Vịt nướng lu Năm Vân là nhà hàng tại TP. Biên Hòa.,Vịt nướng lu Năm Vân nhà hàng TP. Biên Hòa
DIA_DN00291,Texas Chicken Võ Thị Sáu,Ẩm thực,quán thức ăn nhanh,10.9466659,106.8246476,"Quán Café Hương Thủy, 98A/1 Đường Võ Thị Sáu, Biên Hòa, Đồng Nai, 76107",TP. Biên Hòa,Texas Chicken Võ Thị Sáu là quán thức ăn nhanh tại TP. Biên Hòa.,Texas Chicken Võ Thị Sáu quán thức ăn nhanh TP. Biên Hòa
DIA_DN00292,Anh Khoa,Ẩm thực,quán cà phê,11.0594704,106.9298568,"Đường Tỉnh Lộ 768, Tân An, Vĩnh Cửu, Đồng Nai, 76911",Huyện Vĩnh Cửu,Anh Khoa là quán cà phê tại Huyện Vĩnh Cửu.,Anh Khoa quán cà phê Huyện Vĩnh Cửu
DIA_DN00293,KFC,Ẩm thực,quán thức ăn nhanh,10.9605771,106.8500258,"Bưu Điện, Đường Phan Trung, Tân Mai, Biên Hòa, Đồng Nai, 76115",TP. Biên Hòa,KFC là quán thức ăn nhanh tại TP. Biên Hòa.,KFC quán thức ăn nhanh TP. Biên Hòa
DIA_DN00294,Hang Đá Đức Mẹ,Du lịch,địa điểm du lịch,10.9600423,106.951182,"Tạp Hóa Nhật Phương, 2145 Đường Quốc Lộ 1, Bắc Sơn, Trảng Bom, Đồng Nai, 76313",Huyện Trảng Bom,Hang Đá Đức Mẹ là địa điểm du lịch tại Huyện Trảng Bom.,Hang Đá Đức Mẹ địa điểm du lịch Huyện Trảng Bom
DIA_DN00295,Chợ Phú Cường,Du lịch,chợ,11.0874369,107.1836044,"Phú Cường, Định Quán, Đồng Nai",Huyện Định Quán,Chợ Phú Cường là chợ tại Huyện Định Quán.,Chợ Phú Cường chợ Huyện Định Quán
DIA_DN00296,Công viên Nguyễn Văn Trị,Du lịch,công viên,10.9474994,106.8123542,"14 Đường Hoàng Minh Châu, Hòa Bình, Biên Hòa, Đồng Nai, 76122",TP. Biên Hòa,Công viên Nguyễn Văn Trị là công viên tại TP. Biên Hòa.,Công viên Nguyễn Văn Trị công viên TP. Biên Hòa
DIA_DN00297,Công viên Thống Nhất,Du lịch,công viên,10.9488686,107.0188499,"Trảng Bom, Đồng Nai",Huyện Trảng Bom,Công viên Thống Nhất là công viên tại Huyện Trảng Bom.,Công viên Thống Nhất công viên Huyện Trảng Bom
