id,name,domain,category_vi,latitude,longitude,address,district,description,search_text
SL_00001,Sunrise Hotel,Du lịch,khách sạn,21.3333832,103.903894,"Đường Điện Biên, Tô Hiệu, Sơn La, 34112",Sơn La,Sunrise Hotel là khách sạn tại Sơn La.,Sunrise Hotel Du lịch khách sạn Sơn La Sơn La
SL_00002,Nga Nghi sign,Du lịch,nhà khách/homestay,21.5385473,103.6231021,"Đường Quốc Lộ 6, Phổng Lái, Thuận Châu, Sơn La, 34317",Thuận Châu,Nga Nghi sign là nhà khách/homestay tại Thuận Châu.,Nga Nghi sign Du lịch nhà khách/homestay Thuận Châu Sơn La
SL_00003,Nga Nghi sign,Du lịch,nhà khách/homestay,21.5375494,103.6306019,"Đường Quốc Lộ 6, Phổng Lái, Thuận Châu, Sơn La, 34317",Thuận Châu,Nga Nghi sign là nhà khách/homestay tại Thuận Châu.,Nga Nghi sign Du lịch nhà khách/homestay Thuận Châu Sơn La
SL_00004,Nga Nghi sign,Du lịch,nhà khách/homestay,21.4372665,103.687311,"Đường Hai Mươi Mốt Tháng Mười Một, Chiềng Ly, Thuận Châu, Sơn La, 34315",Thuận Châu,Nga Nghi sign là nhà khách/homestay tại Thuận Châu.,Nga Nghi sign Du lịch nhà khách/homestay Thuận Châu Sơn La
SL_00005,Mai Ly,Ẩm thực,nhà hàng,21.3340545,103.9047217,"Chiềng Lề, Sơn La",Sơn La,Mai Ly là nhà hàng tại Sơn La.,Mai Ly Ẩm thực nhà hàng Sơn La Sơn La
SL_00006,Cong Doan Hotel,Du lịch,khách sạn,21.3348363,103.9047528,"Chiềng Lề, Sơn La",Sơn La,Cong Doan Hotel là khách sạn tại Sơn La.,Cong Doan Hotel Du lịch khách sạn Sơn La Sơn La
SL_00007,Huong Sen Yen Chau,Du lịch,nhà khách/homestay,21.0459468,104.3004115,"Khách Sạn Hương Sen, Yên Châu, Sơn La, 34656",Yên Châu,Huong Sen Yen Chau là nhà khách/homestay tại Yên Châu.,Huong Sen Yen Chau Du lịch nhà khách/homestay Yên Châu Sơn La
SL_00008,Huong Duong Nga Nghi,Du lịch,nhà khách/homestay,21.0484743,104.3041563,"Đường Quốc Lộ 6, Yên Châu, Sơn La, 34656",Yên Châu,Huong Duong Nga Nghi là nhà khách/homestay tại Yên Châu.,Huong Duong Nga Nghi Du lịch nhà khách/homestay Yên Châu Sơn La
SL_00009,Nga Nghi sign,Du lịch,nhà khách/homestay,20.8643257,104.5960455,"Khách Sạn Sao Xanh, Đường Nguyễn Lương Bằng, Mộc Châu, Sơn La, 34706",Mộc Châu,Nga Nghi sign là nhà khách/homestay tại Mộc Châu.,Nga Nghi sign Du lịch nhà khách/homestay Mộc Châu Sơn La
SL_00010,Huong Sen Hotel,Du lịch,khách sạn,20.8468012,104.6413299,"Đường Trần Huy Liệu, Mộc Châu, Sơn La, 34706",Mộc Châu,Huong Sen Hotel là khách sạn tại Mộc Châu.,Huong Sen Hotel Du lịch khách sạn Mộc Châu Sơn La
SL_00011,Nga Nghi sign,Du lịch,nhà khách/homestay,20.8001375,104.7053973,"Quốc Lộ 6, Vân Hồ, Sơn La, 34806",Vân Hồ,Nga Nghi sign là nhà khách/homestay tại Vân Hồ.,Nga Nghi sign Du lịch nhà khách/homestay Vân Hồ Sơn La
SL_00012,Nhà hàng 64 Mộc Châu,Ẩm thực,nhà hàng,20.804791,104.70184,"Quốc Lộ 6, Vân Hồ, Sơn La, 34806",Vân Hồ,Nhà hàng 64 Mộc Châu là nhà hàng tại Vân Hồ.,Nhà hàng 64 Mộc Châu Ẩm thực nhà hàng Vân Hồ Sơn La
SL_00013,Hải Tình Restaurant,Ẩm thực,nhà hàng,21.3268254,103.9143003,"Công An 113 Thị Xã Sơn La, Đường Điện Biên, Quyết Thắng, Sơn La, 34113",Sơn La,Hải Tình Restaurant là nhà hàng tại Sơn La.,Hải Tình Restaurant Ẩm thực nhà hàng Sơn La Sơn La
SL_00014,Tượng đài Mai Sơn,Khác,địa điểm,21.1392723,104.1949588,"Đường Quốc Lộ 37, Cò Nòi, Mai Sơn, Sơn La, 34527",Mai Sơn,Tượng đài Mai Sơn là địa điểm tại Mai Sơn.,Tượng đài Mai Sơn Khác địa điểm Mai Sơn Sơn La
SL_00015,Go Coffee,Ẩm thực,quán cà phê,20.8472909,104.6390049,"Đường Trần Huy Liệu, Mộc Châu, Sơn La, 34706",Mộc Châu,Go Coffee là quán cà phê tại Mộc Châu.,Go Coffee Ẩm thực quán cà phê Mộc Châu Sơn La
SL_00016,Rừng thông,Du lịch,địa điểm du lịch,20.8283779,104.6280971,"Đông Sang, Mộc Châu, Sơn La",Mộc Châu,Rừng thông là địa điểm du lịch tại Mộc Châu.,Rừng thông Du lịch địa điểm du lịch Mộc Châu Sơn La
SL_00017,Nha nghi tran anh,Du lịch,khách sạn,20.9234929,103.9698458,"Chiềng Khương, Sông Mã, Sơn La",Sông Mã,Nha nghi tran anh là khách sạn tại Sông Mã.,Nha nghi tran anh Du lịch khách sạn Sông Mã Sơn La
SL_00018,Nhangi Guesthouse,Du lịch,nhà khách/homestay,21.3335124,103.9032403,"Chiềng Lề, Sơn La",Sơn La,Nhangi Guesthouse là nhà khách/homestay tại Sơn La.,Nhangi Guesthouse Du lịch nhà khách/homestay Sơn La Sơn La
SL_00019,Sao Xanh Hotel,Du lịch,khách sạn,20.8644164,104.5962696,"Khách Sạn Sao Xanh, Đường Nguyễn Lương Bằng, Mộc Châu, Sơn La, 34706",Mộc Châu,Sao Xanh Hotel là khách sạn tại Mộc Châu.,Sao Xanh Hotel Du lịch khách sạn Mộc Châu Sơn La
SL_00020,Thanh Binh Hotel,Du lịch,khách sạn,20.8578437,104.6102978,"Đường Nguyễn Lương Bằng, Mộc Châu, Sơn La, 34706",Mộc Châu,Thanh Binh Hotel là khách sạn tại Mộc Châu.,Thanh Binh Hotel Du lịch khách sạn Mộc Châu Sơn La
SL_00021,Khách sạn Hoa Anh Đào,Du lịch,khách sạn,21.3244013,103.9174018,"Quyết Thắng, Sơn La",Sơn La,Khách sạn Hoa Anh Đào là khách sạn tại Sơn La.,Khách sạn Hoa Anh Đào Du lịch khách sạn Sơn La Sơn La
SL_00022,Pho Giang Lac,Ẩm thực,quán cà phê,21.3249253,103.9182554,"Quyết Thắng, Sơn La",Sơn La,Pho Giang Lac là quán cà phê tại Sơn La.,Pho Giang Lac Ẩm thực quán cà phê Sơn La Sơn La
SL_00023,Nha Hang Viet The Restaurant,Ẩm thực,nhà hàng,21.3246234,103.9185412,"Quyết Thắng, Sơn La",Sơn La,Nha Hang Viet The Restaurant là nhà hàng tại Sơn La.,Nha Hang Viet The Restaurant Ẩm thực nhà hàng Sơn La Sơn La
SL_00024,Duc Giang Thit Cho Met,Ẩm thực,nhà hàng,21.3249057,103.9187426,"Quyết Thắng, Sơn La",Sơn La,Duc Giang Thit Cho Met là nhà hàng tại Sơn La.,Duc Giang Thit Cho Met Ẩm thực nhà hàng Sơn La Sơn La
SL_00025,Ta xua,Du lịch,địa điểm du lịch,21.3269626,104.4229408,"Xím Vàng, Bắc Yên, Sơn La",Bắc Yên,Ta xua là địa điểm du lịch tại Bắc Yên.,Ta xua Du lịch địa điểm du lịch Bắc Yên Sơn La
SL_00026,Thực Dơn Phở Thái,Ẩm thực,nhà hàng,20.848577,104.6386836,"Đường Trần Huy Liệu, Mộc Châu, Sơn La, 34706",Mộc Châu,Thực Dơn Phở Thái là nhà hàng tại Mộc Châu.,Thực Dơn Phở Thái Ẩm thực nhà hàng Mộc Châu Sơn La
SL_00027,Nha Nghi Linda,Du lịch,khách sạn,21.3339215,103.9045578,"Chiềng Lề, Sơn La",Sơn La,Nha Nghi Linda là khách sạn tại Sơn La.,Nha Nghi Linda Du lịch khách sạn Sơn La Sơn La
SL_00028,Nha Nghi,Du lịch,khách sạn,20.782958,104.750404,"Quốc Lộ 6, Vân Hồ, Sơn La, 34806",Vân Hồ,Nha Nghi là khách sạn tại Vân Hồ.,Nha Nghi Du lịch khách sạn Vân Hồ Sơn La
SL_00029,Homestay,Du lịch,nhà khách/homestay,20.8253756,104.63213,"Đông Sang, Mộc Châu, Sơn La",Mộc Châu,Homestay là nhà khách/homestay tại Mộc Châu.,Homestay Du lịch nhà khách/homestay Mộc Châu Sơn La
SL_00030,NHA NGHI Ngoc Guesthouse,Du lịch,khách sạn,21.302784,103.9398338,"Đường Trần Đăng Ninh, Quyết Tâm, Sơn La, 34114",Sơn La,NHA NGHI Ngoc Guesthouse là khách sạn tại Sơn La.,NHA NGHI Ngoc Guesthouse Du lịch khách sạn Sơn La Sơn La
SL_00031,NHA NGHI Bao Ngoc Guesthouse,Du lịch,khách sạn,21.30272,103.9403559,"Đường Lê Duẩn, Quyết Tâm, Sơn La, 34114",Sơn La,NHA NGHI Bao Ngoc Guesthouse là khách sạn tại Sơn La.,NHA NGHI Bao Ngoc Guesthouse Du lịch khách sạn Sơn La Sơn La
SL_00032,Nhu' Ngqc,Du lịch,khách sạn,21.3044818,103.9352423,"Khách Sạn Nâm La, 408 Đường Trần Đăng Ninh, Quyết Tâm, Sơn La, 34114",Sơn La,Nhu' Ngqc là khách sạn tại Sơn La.,Nhu' Ngqc Du lịch khách sạn Sơn La Sơn La
SL_00033,NHA NGHI,Du lịch,khách sạn,21.3058446,103.9329721,"Đường Trần Đăng Ninh, Quyết Tâm, Sơn La, 34114",Sơn La,NHA NGHI là khách sạn tại Sơn La.,NHA NGHI Du lịch khách sạn Sơn La Sơn La
SL_00034,Hôtel Windsor,Du lịch,khách sạn,21.305302,103.9326437,"Đường Trần Đăng Ninh, Quyết Tâm, Sơn La, 34114",Sơn La,Hôtel Windsor là khách sạn tại Sơn La.,Hôtel Windsor Du lịch khách sạn Sơn La Sơn La
SL_00035,Nhà Hàng Hoa Ban Tây Bắc,Ẩm thực,nhà hàng,21.3033544,103.9416226,"Đường Lê Duẩn, Quyết Tâm, Sơn La, 34114",Sơn La,Nhà Hàng Hoa Ban Tây Bắc là nhà hàng tại Sơn La.,Nhà Hàng Hoa Ban Tây Bắc Ẩm thực nhà hàng Sơn La Sơn La
SL_00036,NHÀ NGHI TRO Guesthouse,Du lịch,khách sạn,21.3006019,103.9435659,"Đường Lê Duẩn, Quyết Tâm, Sơn La, 34114",Sơn La,NHÀ NGHI TRO Guesthouse là khách sạn tại Sơn La.,NHÀ NGHI TRO Guesthouse Du lịch khách sạn Sơn La Sơn La
SL_00037,Hoa Lu,Du lịch,khách sạn,21.3030155,103.9381703,"Đường Trần Đăng Ninh, Quyết Tâm, Sơn La, 34114",Sơn La,Hoa Lu là khách sạn tại Sơn La.,Hoa Lu Du lịch khách sạn Sơn La Sơn La
SL_00038,NHA NGHI Ngoc Ha Guesthouse,Du lịch,khách sạn,21.3027893,103.9398678,"Đường Trần Đăng Ninh, Quyết Tâm, Sơn La, 34114",Sơn La,NHA NGHI Ngoc Ha Guesthouse là khách sạn tại Sơn La.,NHA NGHI Ngoc Ha Guesthouse Du lịch khách sạn Sơn La Sơn La
SL_00039,NHA NGHI Tuan Dat Guesthouse,Du lịch,khách sạn,21.3033596,103.9417656,"Đường Lê Duẩn, Quyết Tâm, Sơn La, 34114",Sơn La,NHA NGHI Tuan Dat Guesthouse là khách sạn tại Sơn La.,NHA NGHI Tuan Dat Guesthouse Du lịch khách sạn Sơn La Sơn La
SL_00040,Truong Sinh,Du lịch,khách sạn,21.3059087,103.9329758,"Đường Trần Đăng Ninh, Quyết Tâm, Sơn La, 34114",Sơn La,Truong Sinh là khách sạn tại Sơn La.,Truong Sinh Du lịch khách sạn Sơn La Sơn La
SL_00041,NHA NGHI QUANG TUNG Guesthouse,Du lịch,khách sạn,21.2996638,103.944223,"Nhà Nghỉ Minh Đức, Đường Lê Duẩn, Quyết Tâm, Sơn La, 34114",Sơn La,NHA NGHI QUANG TUNG Guesthouse là khách sạn tại Sơn La.,NHA NGHI QUANG TUNG Guesthouse Du lịch khách sạn Sơn La Sơn La
SL_00042,Homestay,Du lịch,nhà khách/homestay,20.8235522,104.6283986,"Đông Sang, Mộc Châu, Sơn La",Mộc Châu,Homestay là nhà khách/homestay tại Mộc Châu.,Homestay Du lịch nhà khách/homestay Mộc Châu Sơn La
SL_00043,Quan La,Ẩm thực,nhà hàng,20.8423948,104.6699186,"Đường Lê Thanh Nghị, Phiêng Luông, Mộc Châu, Sơn La, 34720",Mộc Châu,Quan La là nhà hàng tại Mộc Châu.,Quan La Ẩm thực nhà hàng Mộc Châu Sơn La
SL_00044,Tân Lập Tea,Ẩm thực,quán cà phê,20.8338086,104.6936343,"Đường Thảo Nguyên, Phiêng Luông, Mộc Châu, Sơn La, 34720",Mộc Châu,Tân Lập Tea là quán cà phê tại Mộc Châu.,Tân Lập Tea Ẩm thực quán cà phê Mộc Châu Sơn La
SL_00045,nha nghi sơn mến,Du lịch,khách sạn,20.8447945,104.6391643,"Mộc Châu, Sơn La",Mộc Châu,nha nghi sơn mến là khách sạn tại Mộc Châu.,nha nghi sơn mến Du lịch khách sạn Mộc Châu Sơn La
SL_00046,Press Café,Ẩm thực,quán cà phê,21.3273041,103.9120256,"Tỉnh Lộ 106, Quyết Thắng, Sơn La, 34113",Sơn La,Press Café là quán cà phê tại Sơn La.,Press Café Ẩm thực quán cà phê Sơn La Sơn La
SL_00047,Uy Chiên,Du lịch,nhà khách/homestay,21.3005022,103.9432538,"Đường Lê Duẩn, Quyết Tâm, Sơn La, 34114",Sơn La,Uy Chiên là nhà khách/homestay tại Sơn La.,Uy Chiên Du lịch nhà khách/homestay Sơn La Sơn La
SL_00048,Nhà nghỉ Vấn lương,Du lịch,khách sạn,20.7804134,104.8367006,"Quốc Lộ 6, Lóng Luông, Vân Hồ, Sơn La, 34807",Vân Hồ,Nhà nghỉ Vấn lương là khách sạn tại Vân Hồ.,Nhà nghỉ Vấn lương Du lịch khách sạn Vân Hồ Sơn La
SL_00049,Hong Long,Du lịch,khách sạn,21.2588304,104.6419456,"Huy Bắc, Phù Yên, Sơn La",Phù Yên,Hong Long là khách sạn tại Phù Yên.,Hong Long Du lịch khách sạn Phù Yên Sơn La
SL_00050,Nha Nghi Viet Bac,Du lịch,nhà khách/homestay,21.6487783,104.2419827,"Đường Tỉnh Lộ 109, Ngọc Chiến, Mường La, Sơn La, 34208",Mường La,Nha Nghi Viet Bac là nhà khách/homestay tại Mường La.,Nha Nghi Viet Bac Du lịch nhà khách/homestay Mường La Sơn La
SL_00051,Cơm - Lâu Nướng,Ẩm thực,nhà hàng,21.0455922,104.2974235,"Đường Quốc Lộ 6, Yên Châu, Sơn La, 34656",Yên Châu,Cơm - Lâu Nướng là nhà hàng tại Yên Châu.,Cơm - Lâu Nướng Ẩm thực nhà hàng Yên Châu Sơn La
SL_00052,"Thùy Lâm (com, pho, bun 30k)",Ẩm thực,nhà hàng,20.8558497,104.6170021,"Nhà Nghỉ Huyền Đức, Đường Nguyễn Lương Bằng, Mộc Châu, Sơn La, 34706",Mộc Châu,"Thùy Lâm (com, pho, bun 30k) là nhà hàng tại Mộc Châu.","Thùy Lâm (com, pho, bun 30k) Ẩm thực nhà hàng Mộc Châu Sơn La"
SL_00053,So Do nha nghi,Du lịch,nhà nghỉ,20.8513214,104.6253265,"Đường Trần Huy Liệu, Mộc Châu, Sơn La, 34706",Mộc Châu,So Do nha nghi là nhà nghỉ tại Mộc Châu.,So Do nha nghi Du lịch nhà nghỉ Mộc Châu Sơn La
SL_00054,Thuy lam. (Com pho 30k),Ẩm thực,nhà hàng,20.8557473,104.6169891,"Nhà Nghỉ Huyền Đức, Đường Nguyễn Lương Bằng, Mộc Châu, Sơn La, 34706",Mộc Châu,Thuy lam. (Com pho 30k) là nhà hàng tại Mộc Châu.,Thuy lam. (Com pho 30k) Ẩm thực nhà hàng Mộc Châu Sơn La
SL_00055,Nha Nghi Van Luông,Du lịch,nhà khách/homestay,20.7801595,104.8367508,"Quốc Lộ 6, Lóng Luông, Vân Hồ, Sơn La, 34807",Vân Hồ,Nha Nghi Van Luông là nhà khách/homestay tại Vân Hồ.,Nha Nghi Van Luông Du lịch nhà khách/homestay Vân Hồ Sơn La
SL_00056,Tuân Gù Quán,Ẩm thực,nhà hàng,20.8593072,104.6058345,"Đường Nguyễn Lương Bằng, Mộc Châu, Sơn La, 34706",Mộc Châu,Tuân Gù Quán là nhà hàng tại Mộc Châu.,Tuân Gù Quán Ẩm thực nhà hàng Mộc Châu Sơn La
SL_00057,Chimi Farm,Du lịch,địa điểm du lịch,20.8330556,104.6264663,"Đông Sang, Mộc Châu, Sơn La",Mộc Châu,Chimi Farm là địa điểm du lịch tại Mộc Châu.,Chimi Farm Du lịch địa điểm du lịch Mộc Châu Sơn La
SL_00058,Local Noodle shop.,Ẩm thực,nhà hàng,21.6553817,104.2652365,"Đường Tỉnh Lộ 109, Ngọc Chiến, Mường La, Sơn La, 34208",Mường La,Local Noodle shop. là nhà hàng tại Mường La.,Local Noodle shop. Ẩm thực nhà hàng Mường La Sơn La
SL_00059,Truc Linh Bungalow,Du lịch,khách sạn,20.8401289,104.6710772,"Đường Lê Thanh Nghị, Phiêng Luông, Mộc Châu, Sơn La, 34720",Mộc Châu,Truc Linh Bungalow là khách sạn tại Mộc Châu.,Truc Linh Bungalow Du lịch khách sạn Mộc Châu Sơn La
SL_00060,Chợ Chiềng Mung,Du lịch,chợ truyền thống,21.2382756,104.0147546,"Đường Quốc Lộ 6, Chiềng Mung, Mai Sơn, Sơn La, 34513",Mai Sơn,Chợ Chiềng Mung là chợ truyền thống tại Mai Sơn.,Chợ Chiềng Mung Du lịch chợ truyền thống Mai Sơn Sơn La
SL_00061,Văn Bia Quế Lâm ngự chế,Khác,địa điểm,21.3471755,103.9099095,"Chiềng Lề, Sơn La",Sơn La,Văn Bia Quế Lâm ngự chế là địa điểm tại Sơn La.,Văn Bia Quế Lâm ngự chế Khác địa điểm Sơn La Sơn La
SL_00062,Nghĩa trang Liệt sỹ Nhà Tù Sơn La,Khác,địa điểm,21.3307476,103.9064158,"Đường Điện Biên, Tô Hiệu, Sơn La, 34112",Sơn La,Nghĩa trang Liệt sỹ Nhà Tù Sơn La là địa điểm tại Sơn La.,Nghĩa trang Liệt sỹ Nhà Tù Sơn La Khác địa điểm Sơn La Sơn La
SL_00063,Pha Đin Lộng Gió,Du lịch,địa điểm du lịch,21.5558389,103.5193162,"Tỏa Tình, Tuần Giáo, Điện Biên",Tuần Giáo,Pha Đin Lộng Gió là địa điểm du lịch tại Tuần Giáo.,Pha Đin Lộng Gió Du lịch địa điểm du lịch Tuần Giáo Sơn La
SL_00064,hoan chiếng pha,Ẩm thực,quán cà phê,21.5047745,103.6459787,"Chiềng Pha, Thuận Châu, Sơn La",Thuận Châu,hoan chiếng pha là quán cà phê tại Thuận Châu.,hoan chiếng pha Ẩm thực quán cà phê Thuận Châu Sơn La
SL_00065,Binh Muoi Noi,Ẩm thực,quán cà phê,21.3327921,103.8168411,"Muội Nọi, Thuận Châu, Sơn La",Thuận Châu,Binh Muoi Noi là quán cà phê tại Thuận Châu.,Binh Muoi Noi Ẩm thực quán cà phê Thuận Châu Sơn La
SL_00066,Nam ka Tang coffee,Ẩm thực,quán bar,21.3341009,103.9044993,"Chiềng Lề, Sơn La",Sơn La,Nam ka Tang coffee là quán bar tại Sơn La.,Nam ka Tang coffee Ẩm thực quán bar Sơn La Sơn La
SL_00067,Di tích Nhà tù Sơn La,Du lịch,bảo tàng,21.3310642,103.9079082,"Đường Điện Biên, Tô Hiệu, Sơn La, 34112",Sơn La,Di tích Nhà tù Sơn La là bảo tàng tại Sơn La.,Di tích Nhà tù Sơn La Du lịch bảo tàng Sơn La Sơn La
SL_00068,CHIENG DI DREAMY,Ẩm thực,quán cà phê,20.8139545,104.7008231,"Phiêng Luông, Mộc Châu, Sơn La",Mộc Châu,CHIENG DI DREAMY là quán cà phê tại Mộc Châu.,CHIENG DI DREAMY Ẩm thực quán cà phê Mộc Châu Sơn La
SL_00069,Suối Cá Bản Bướt,Du lịch,địa điểm du lịch,20.7276887,104.99078,"Chiềng Yên, Vân Hồ, Sơn La",Vân Hồ,Suối Cá Bản Bướt là địa điểm du lịch tại Vân Hồ.,Suối Cá Bản Bướt Du lịch địa điểm du lịch Vân Hồ Sơn La
SL_00070,Suối nước nóng Bò Ấm,Du lịch,địa điểm du lịch,20.7567928,104.9709904,"Chiềng Yên, Vân Hồ, Sơn La",Vân Hồ,Suối nước nóng Bò Ấm là địa điểm du lịch tại Vân Hồ.,Suối nước nóng Bò Ấm Du lịch địa điểm du lịch Vân Hồ Sơn La
SL_00071,Big Cat Cafe,Ẩm thực,quán cà phê,21.3290451,103.9099363,"Đường Tô Hiệu, Tô Hiệu, Sơn La, 34112",Sơn La,Big Cat Cafe là quán cà phê tại Sơn La.,Big Cat Cafe Ẩm thực quán cà phê Sơn La Sơn La
SL_00072,Homestay Hàng Đồng Ecolodge,Du lịch,khách sạn,21.3120222,104.4781652,"Háng Đồng, Bắc Yên, Sơn La",Bắc Yên,Homestay Hàng Đồng Ecolodge là khách sạn tại Bắc Yên.,Homestay Hàng Đồng Ecolodge Du lịch khách sạn Bắc Yên Sơn La
SL_00073,BẾP NHÀ BỘT,Ẩm thực,nhà hàng,21.3294242,103.9109423,"Đường Tô Hiệu, Tô Hiệu, Sơn La, 34112",Sơn La,BẾP NHÀ BỘT là nhà hàng tại Sơn La.,BẾP NHÀ BỘT Ẩm thực nhà hàng Sơn La Sơn La
SL_00074,Tiệm Cà Phê Mị Ơi,Ẩm thực,quán cà phê,21.2881999,104.4156393,"Đường Tỉnh Lộ 112, Làng Chiếu, Bắc Yên, Sơn La, 34613",Bắc Yên,Tiệm Cà Phê Mị Ơi là quán cà phê tại Bắc Yên.,Tiệm Cà Phê Mị Ơi Ẩm thực quán cà phê Bắc Yên Sơn La
SL_00075,Moc Chau Town,Du lịch,nhà khách/homestay,20.8422717,104.6370497,"Mộc Châu, Sơn La",Mộc Châu,Moc Chau Town là nhà khách/homestay tại Mộc Châu.,Moc Chau Town Du lịch nhà khách/homestay Mộc Châu Sơn La
SL_00076,Xéo Quán,Ẩm thực,nhà hàng,20.8476364,104.6389697,"Đường Trần Huy Liệu, Mộc Châu, Sơn La, 34706",Mộc Châu,Xéo Quán là nhà hàng tại Mộc Châu.,Xéo Quán Ẩm thực nhà hàng Mộc Châu Sơn La
SL_00077,mèo,Ẩm thực,quán cà phê,20.9826844,104.4103515,"Đường Quốc Lộ 6, Tú Nang, Yên Châu, Sơn La, 34669",Yên Châu,mèo là quán cà phê tại Yên Châu.,mèo Ẩm thực quán cà phê Yên Châu Sơn La
SL_00078,Phở Bò Đức Trọng,Ẩm thực,nhà hàng,21.3222358,103.9188633,"Đường Trường Chinh, Quyết Thắng, Sơn La, 34113",Sơn La,Phở Bò Đức Trọng là nhà hàng tại Sơn La.,Phở Bò Đức Trọng Ẩm thực nhà hàng Sơn La Sơn La
SL_00079,Lẩu Nướng - Bia Thổ Sơn La,Ẩm thực,nhà hàng,21.3377883,103.9087103,"Chiềng Lề, Sơn La",Sơn La,Lẩu Nướng - Bia Thổ Sơn La là nhà hàng tại Sơn La.,Lẩu Nướng - Bia Thổ Sơn La Ẩm thực nhà hàng Sơn La Sơn La
SL_00080,Vani,Ẩm thực,quán cà phê,21.3204164,103.9175934,"Chiềng Cơi, Sơn La",Sơn La,Vani là quán cà phê tại Sơn La.,Vani Ẩm thực quán cà phê Sơn La Sơn La
SL_00081,Homestay Tiên Quân,Du lịch,khách sạn,21.3587209,103.9014987,"Chiềng An, Sơn La",Sơn La,Homestay Tiên Quân là khách sạn tại Sơn La.,Homestay Tiên Quân Du lịch khách sạn Sơn La Sơn La
SL_00082,Centro Farms Coffee Studio,Ẩm thực,quán cà phê,21.3248755,103.9179621,"Quyết Thắng, Sơn La",Sơn La,Centro Farms Coffee Studio là quán cà phê tại Sơn La.,Centro Farms Coffee Studio Ẩm thực quán cà phê Sơn La Sơn La
SL_00083,Ta Sua's Stories - Coffee and Workshop,Ẩm thực,quán cà phê,21.308588,104.4301882,"Tà Xùa, Bắc Yên, Sơn La",Bắc Yên,Ta Sua's Stories - Coffee and Workshop là quán cà phê tại Bắc Yên.,Ta Sua's Stories - Coffee and Workshop Ẩm thực quán cà phê Bắc Yên Sơn La
SL_00084,RUONG Cafe Ta Xua,Ẩm thực,quán cà phê,21.3050267,104.4284743,"Tà Xùa, Bắc Yên, Sơn La",Bắc Yên,RUONG Cafe Ta Xua là quán cà phê tại Bắc Yên.,RUONG Cafe Ta Xua Ẩm thực quán cà phê Bắc Yên Sơn La
SL_00085,A Của Homestay Tà Xùa,Du lịch,nhà khách/homestay,21.2778139,104.4329781,"Đường Tỉnh Lộ 112, Tà Xùa, Bắc Yên, Sơn La, 34607",Bắc Yên,A Của Homestay Tà Xùa là nhà khách/homestay tại Bắc Yên.,A Của Homestay Tà Xùa Du lịch nhà khách/homestay Bắc Yên Sơn La
SL_00086,Moc House,Du lịch,nhà khách/homestay,20.8419773,104.669673,"Đường Lê Thanh Nghị, Phiêng Luông, Mộc Châu, Sơn La, 34720",Mộc Châu,Moc House là nhà khách/homestay tại Mộc Châu.,Moc House Du lịch nhà khách/homestay Mộc Châu Sơn La
SL_00087,Little forest,Ẩm thực,quán cà phê,20.8404029,104.6701702,"Phiêng Luông, Mộc Châu, Sơn La",Mộc Châu,Little forest là quán cà phê tại Mộc Châu.,Little forest Ẩm thực quán cà phê Mộc Châu Sơn La
SL_00088,Cô Ba,Ẩm thực,quán cà phê,20.8931867,104.6767412,"Nông Trường Mộc Châu, Mộc Châu, Sơn La",Mộc Châu,Cô Ba là quán cà phê tại Mộc Châu.,Cô Ba Ẩm thực quán cà phê Mộc Châu Sơn La
SL_00089,Nhà hàng Đảo Ngọc,Ẩm thực,nhà hàng,21.3289722,103.912282,"Tô Hiệu, Sơn La",Sơn La,Nhà hàng Đảo Ngọc là nhà hàng tại Sơn La.,Nhà hàng Đảo Ngọc Ẩm thực nhà hàng Sơn La Sơn La
SL_00090,Công viên 26-10,Du lịch,công viên,21.3270669,103.9128484,"Đường Điện Biên, Quyết Thắng, Sơn La, 34113",Sơn La,Công viên 26-10 là công viên tại Sơn La.,Công viên 26-10 Du lịch công viên Sơn La Sơn La
SL_00091,Khách sạn Mường Thanh Luxury Sơn La,Du lịch,khách sạn,21.3276197,103.912717,"Tỉnh Lộ 106, Quyết Thắng, Sơn La, 34113",Sơn La,Khách sạn Mường Thanh Luxury Sơn La là khách sạn tại Sơn La.,Khách sạn Mường Thanh Luxury Sơn La Du lịch khách sạn Sơn La Sơn La
SL_00092,Vincom Plaza Sơn La,Du lịch,trung tâm thương mại,21.3234832,103.9172552,"Đường Trường Chinh, Quyết Thắng, Sơn La, 34113",Sơn La,Vincom Plaza Sơn La là trung tâm thương mại tại Sơn La.,Vincom Plaza Sơn La Du lịch trung tâm thương mại Sơn La Sơn La
SL_00093,nhà nghỉ ngọc sơn trần,Du lịch,khách sạn,21.6589654,103.6257122,"Quốc Lộ 279, Mường Giàng, Quỳnh Nhai, Sơn La, 34260",Quỳnh Nhai,nhà nghỉ ngọc sơn trần là khách sạn tại Quỳnh Nhai.,nhà nghỉ ngọc sơn trần Du lịch khách sạn Quỳnh Nhai Sơn La
SL_00094,Khách sạn Sao Mai,Du lịch,khách sạn,21.2419243,104.4308189,"Đường Dốc Cao Đa, Bắc Yên, Sơn La, 34606",Bắc Yên,Khách sạn Sao Mai là khách sạn tại Bắc Yên.,Khách sạn Sao Mai Du lịch khách sạn Bắc Yên Sơn La
